{
    "type": "FeatureCollection",
    "features": [
        {
            "type": "Feature",
            "geometry": {
                "type": "Point",
                "coordinates": [
                    24.4381101,
                    60.1253759
                ]
            },
            "properties": {
                "name": "Kirkkonummen p\u00e4\u00e4kirjasto"
            }
        },
        {
            "type": "Feature",
            "geometry": {
                "type": "Point",
                "coordinates": [
                    23.6278296,
                    61.5052459
                ]
            },
            "properties": {
                "name": "Tesoman kirjasto"
            }
        },
        {
            "type": "Feature",
            "geometry": {
                "type": "Point",
                "coordinates": [
                    25.0377672,
                    60.2070232
                ]
            },
            "properties": {
                "name": "Herttoniemen kirjasto"
            }
        },
        {
            "type": "Feature",
            "geometry": {
                "type": "Point",
                "coordinates": [
                    25.0527831,
                    60.1945445
                ]
            },
            "properties": {
                "name": "Roihuvuoren kirjasto"
            }
        },
        {
            "type": "Feature",
            "geometry": {
                "type": "Point",
                "coordinates": [
                    25.0130252,
                    60.2275287
                ]
            },
            "properties": {
                "name": "Viikin kirjasto"
            }
        },
        {
            "type": "Feature",
            "geometry": {
                "type": "Point",
                "coordinates": [
                    24.7257877,
                    60.2108404
                ]
            },
            "properties": {
                "name": "Kauniaisten kaupunginkirjasto"
            }
        },
        {
            "type": "Feature",
            "geometry": {
                "type": "Point",
                "coordinates": [
                    24.9386342,
                    60.1713458
                ]
            },
            "properties": {
                "name": "Kirjasto Helsinki 10"
            }
        },
        {
            "type": "Feature",
            "geometry": {
                "type": "Point",
                "coordinates": [
                    25.0851575,
                    60.2377166
                ]
            },
            "properties": {
                "name": "Kontulan kirjasto"
            }
        },
        {
            "type": "Feature",
            "geometry": {
                "type": "Point",
                "coordinates": [
                    21.6110396,
                    63.0992677
                ]
            },
            "properties": {
                "name": "P\u00e4\u00e4kirjasto"
            }
        },
        {
            "type": "Feature",
            "geometry": {
                "type": "Point",
                "coordinates": [
                    24.8759076,
                    60.2387865
                ]
            },
            "properties": {
                "name": "Kannelm\u00e4en kirjasto"
            }
        },
        {
            "type": "Feature",
            "geometry": {
                "type": "Point",
                "coordinates": [
                    24.8603318,
                    60.2463271
                ]
            },
            "properties": {
                "name": "Malminkartanon kirjasto"
            }
        },
        {
            "type": "Feature",
            "geometry": {
                "type": "Point",
                "coordinates": [
                    24.8873685,
                    60.2324917
                ]
            },
            "properties": {
                "name": "Pohjois-Haagan kirjasto"
            }
        },
        {
            "type": "Feature",
            "geometry": {
                "type": "Point",
                "coordinates": [
                    22.3594477,
                    60.4322896
                ]
            },
            "properties": {
                "name": "Lausteen kirjasto"
            }
        },
        {
            "type": "Feature",
            "geometry": {
                "type": "Point",
                "coordinates": [
                    25.3198526,
                    60.6316575
                ]
            },
            "properties": {
                "name": "Kirjasto"
            }
        },
        {
            "type": "Feature",
            "geometry": {
                "type": "Point",
                "coordinates": [
                    23.1303105,
                    63.8359715
                ]
            },
            "properties": {
                "name": "Kokkolan kaupunginkirjasto"
            }
        },
        {
            "type": "Feature",
            "geometry": {
                "type": "Point",
                "coordinates": [
                    24.4183107,
                    60.9838021
                ]
            },
            "properties": {
                "name": "Jukolan kirjasto"
            }
        },
        {
            "type": "Feature",
            "geometry": {
                "type": "Point",
                "coordinates": [
                    24.9339174,
                    60.2311375
                ]
            },
            "properties": {
                "name": "Maunulan kirjasto"
            }
        },
        {
            "type": "Feature",
            "geometry": {
                "type": "Point",
                "coordinates": [
                    25.3146091,
                    63.7497825
                ]
            },
            "properties": {
                "name": "Haapaj\u00e4rven kirjasto"
            }
        },
        {
            "type": "Feature",
            "geometry": {
                "type": "Point",
                "coordinates": [
                    24.9315669,
                    60.1725576
                ]
            },
            "properties": {
                "name": "Eduskunnan kirjasto"
            }
        },
        {
            "type": "Feature",
            "geometry": {
                "type": "Point",
                "coordinates": [
                    24.5580253,
                    65.7360298
                ]
            },
            "properties": {
                "name": "Kemin Kaupunginkirjasto"
            }
        },
        {
            "type": "Feature",
            "geometry": {
                "type": "Point",
                "coordinates": [
                    22.2574599,
                    63.1316296
                ]
            },
            "properties": {
                "name": "V\u00f6r\u00e5 bibliotek"
            }
        },
        {
            "type": "Feature",
            "geometry": {
                "type": "Point",
                "coordinates": [
                    25.4807426,
                    65.0611169
                ]
            },
            "properties": {
                "name": "Kaijonharjun kirjasto"
            }
        },
        {
            "type": "Feature",
            "geometry": {
                "type": "Point",
                "coordinates": [
                    23.7886933,
                    61.4979788
                ]
            },
            "properties": {
                "name": "Sampolan kirjasto"
            }
        },
        {
            "type": "Feature",
            "geometry": {
                "type": "Point",
                "coordinates": [
                    25.1030945,
                    60.4055214
                ]
            },
            "properties": {
                "name": "Keravan kirjasto"
            }
        },
        {
            "type": "Feature",
            "geometry": {
                "type": "Point",
                "coordinates": [
                    25.0276059,
                    60.4017663
                ]
            },
            "properties": {
                "name": "Tuusulan p\u00e4\u00e4kirjasto"
            }
        },
        {
            "type": "Feature",
            "geometry": {
                "type": "Point",
                "coordinates": [
                    25.0168189,
                    60.3754557
                ]
            },
            "properties": {
                "name": "Riihikallion kirjasto"
            }
        },
        {
            "type": "Feature",
            "geometry": {
                "type": "Point",
                "coordinates": [
                    30.0240357,
                    63.321646
                ]
            }
        },
        {
            "type": "Feature",
            "geometry": {
                "type": "Point",
                "coordinates": [
                    24.7422411,
                    60.2273609
                ]
            },
            "properties": {
                "name": "Viherlaakson kirjasto"
            }
        },
        {
            "type": "Feature",
            "geometry": {
                "type": "Point",
                "coordinates": [
                    24.8098167,
                    60.2174976
                ]
            },
            "properties": {
                "name": "Sellon kirjasto"
            }
        },
        {
            "type": "Feature",
            "geometry": {
                "type": "Point",
                "coordinates": [
                    24.0673678,
                    61.9823648
                ]
            },
            "properties": {
                "name": "Ruoveden kunnankirjasto"
            }
        },
        {
            "type": "Feature",
            "geometry": {
                "type": "Point",
                "coordinates": [
                    24.7383182,
                    60.1597374
                ]
            },
            "properties": {
                "name": "Ison Omenan Kirjasto"
            }
        },
        {
            "type": "Feature",
            "geometry": {
                "type": "Point",
                "coordinates": [
                    24.9412591,
                    60.2493763
                ]
            },
            "properties": {
                "name": "Palohein\u00e4n kirjasto"
            }
        },
        {
            "type": "Feature",
            "geometry": {
                "type": "Point",
                "coordinates": [
                    21.2221722,
                    62.385118
                ]
            }
        },
        {
            "type": "Feature",
            "geometry": {
                "type": "Point",
                "coordinates": [
                    24.8280477,
                    60.184695
                ]
            },
            "properties": {
                "name": "Aalto-yliopiston kirjasto"
            }
        },
        {
            "type": "Feature",
            "geometry": {
                "type": "Point",
                "coordinates": [
                    25.0930962,
                    60.474779
                ]
            },
            "properties": {
                "name": "J\u00e4rvenp\u00e4\u00e4n kirjasto"
            }
        },
        {
            "type": "Feature",
            "geometry": {
                "type": "Point",
                "coordinates": [
                    24.6514909,
                    60.9236287
                ]
            },
            "properties": {
                "name": "Turengin kirjasto"
            }
        },
        {
            "type": "Feature",
            "geometry": {
                "type": "Point",
                "coordinates": [
                    21.5930238,
                    63.1092335
                ]
            },
            "properties": {
                "name": "Palosaaren kirjasto"
            }
        },
        {
            "type": "Feature",
            "geometry": {
                "type": "Point",
                "coordinates": [
                    21.6829544,
                    63.1151645
                ]
            },
            "properties": {
                "name": "Korsholms bibliotek"
            }
        },
        {
            "type": "Feature",
            "geometry": {
                "type": "Point",
                "coordinates": [
                    24.5310721,
                    60.1541757
                ]
            },
            "properties": {
                "name": "Masalan kirjasto"
            }
        },
        {
            "type": "Feature",
            "geometry": {
                "type": "Point",
                "coordinates": [
                    24.9839407,
                    64.4877177
                ]
            },
            "properties": {
                "name": "Ukonkantti"
            }
        },
        {
            "type": "Feature",
            "geometry": {
                "type": "Point",
                "coordinates": [
                    23.5091239,
                    61.4779075
                ]
            }
        },
        {
            "type": "Feature",
            "geometry": {
                "type": "Point",
                "coordinates": [
                    24.805723,
                    60.2040512
                ]
            },
            "properties": {
                "name": "Laajalahden kirjasto"
            }
        },
        {
            "type": "Feature",
            "geometry": {
                "type": "Point",
                "coordinates": [
                    24.9606061,
                    60.550344
                ]
            },
            "properties": {
                "name": "Jokelan kirjasto"
            }
        },
        {
            "type": "Feature",
            "geometry": {
                "type": "Point",
                "coordinates": [
                    23.1263697,
                    60.3852168
                ]
            },
            "properties": {
                "name": "Salon kirjasto"
            }
        },
        {
            "type": "Feature",
            "geometry": {
                "type": "Point",
                "coordinates": [
                    25.0761713,
                    60.3517602
                ]
            },
            "properties": {
                "name": "Lumon kirjasto"
            }
        },
        {
            "type": "Feature",
            "geometry": {
                "type": "Point",
                "coordinates": [
                    25.0933107,
                    60.3422571
                ]
            },
            "properties": {
                "name": "Mikkolan kirjasto"
            }
        },
        {
            "type": "Feature",
            "geometry": {
                "type": "Point",
                "coordinates": [
                    25.476764,
                    65.025777
                ]
            },
            "properties": {
                "name": "Tuiran kirjasto"
            }
        },
        {
            "type": "Feature",
            "geometry": {
                "type": "Point",
                "coordinates": [
                    25.4853232,
                    65.0395579
                ]
            }
        },
        {
            "type": "Feature",
            "geometry": {
                "type": "Point",
                "coordinates": [
                    22.3073208,
                    60.4607187
                ]
            },
            "properties": {
                "name": "Nummen Kirjasto"
            }
        },
        {
            "type": "Feature",
            "geometry": {
                "type": "Point",
                "coordinates": [
                    24.9493927,
                    60.1703967
                ]
            },
            "properties": {
                "name": "Kansalliskirjasto"
            }
        },
        {
            "type": "Feature",
            "geometry": {
                "type": "Point",
                "coordinates": [
                    24.6587759,
                    60.2035392
                ]
            },
            "properties": {
                "name": "Entressen kirjasto"
            }
        },
        {
            "type": "Feature",
            "geometry": {
                "type": "Point",
                "coordinates": [
                    27.5569715,
                    60.9218136
                ]
            },
            "properties": {
                "name": "Taavetin kirjasto"
            }
        },
        {
            "type": "Feature",
            "geometry": {
                "type": "Point",
                "coordinates": [
                    22.5175018,
                    60.4252061
                ]
            },
            "properties": {
                "name": "Piikki\u00f6n kirjasto"
            }
        },
        {
            "type": "Feature",
            "geometry": {
                "type": "Point",
                "coordinates": [
                    26.4516719,
                    60.7205244
                ]
            },
            "properties": {
                "name": "Elim\u00e4en kunnankirjasto"
            }
        },
        {
            "type": "Feature",
            "geometry": {
                "type": "Point",
                "coordinates": [
                    22.7055047,
                    63.6750246
                ]
            },
            "properties": {
                "name": "Jakobstads Stadsbiblioteket"
            }
        },
        {
            "type": "Feature",
            "geometry": {
                "type": "Point",
                "coordinates": [
                    25.5153386,
                    64.9935782
                ]
            },
            "properties": {
                "name": "Kaukovainion kirjasto"
            }
        },
        {
            "type": "Feature",
            "geometry": {
                "type": "Point",
                "coordinates": [
                    22.9688477,
                    59.8239807
                ]
            },
            "properties": {
                "name": "Hangon kaupunginkirjasto"
            }
        },
        {
            "type": "Feature",
            "geometry": {
                "type": "Point",
                "coordinates": [
                    25.5676709,
                    64.9832447
                ]
            },
            "properties": {
                "name": "Maikkulan kirjasto"
            }
        },
        {
            "type": "Feature",
            "geometry": {
                "type": "Point",
                "coordinates": [
                    20.6671659,
                    60.1297996
                ]
            }
        },
        {
            "type": "Feature",
            "geometry": {
                "type": "Point",
                "coordinates": [
                    26.7844387,
                    61.6378826
                ]
            },
            "properties": {
                "name": "Hirvensalmen Kirjasto"
            }
        },
        {
            "type": "Feature",
            "geometry": {
                "type": "Point",
                "coordinates": [
                    25.4004445,
                    64.9346464
                ]
            },
            "properties": {
                "name": "Oulunsalon kirjasto"
            }
        },
        {
            "type": "Feature",
            "geometry": {
                "type": "Point",
                "coordinates": [
                    27.8708137,
                    62.3177965
                ]
            },
            "properties": {
                "name": "Varkauden kirjasto"
            }
        },
        {
            "type": "Feature",
            "geometry": {
                "type": "Point",
                "coordinates": [
                    26.6076557,
                    60.8467569
                ]
            },
            "properties": {
                "name": "Korian kirjasto"
            }
        },
        {
            "type": "Feature",
            "geometry": {
                "type": "Point",
                "coordinates": [
                    23.6921296,
                    63.5494257
                ]
            }
        },
        {
            "type": "Feature",
            "geometry": {
                "type": "Point",
                "coordinates": [
                    25.771532,
                    61.0029077
                ]
            },
            "properties": {
                "name": "Ahtialan kirjasto"
            }
        },
        {
            "type": "Feature",
            "geometry": {
                "type": "Point",
                "coordinates": [
                    25.6873456,
                    61.5018228
                ]
            }
        },
        {
            "type": "Feature",
            "geometry": {
                "type": "Point",
                "coordinates": [
                    25.4217619,
                    65.0660334
                ]
            },
            "properties": {
                "name": "Rajakyl\u00e4n kirjasto"
            }
        },
        {
            "type": "Feature",
            "geometry": {
                "type": "Point",
                "coordinates": [
                    24.7547967,
                    60.3785384
                ]
            },
            "properties": {
                "name": "Klaukkalan kirjasto"
            }
        },
        {
            "type": "Feature",
            "geometry": {
                "type": "Point",
                "coordinates": [
                    26.8673673,
                    61.417643
                ]
            },
            "properties": {
                "name": "M\u00e4ntyharjun kirjasto"
            }
        },
        {
            "type": "Feature",
            "geometry": {
                "type": "Point",
                "coordinates": [
                    20.9134423,
                    59.9225909
                ]
            }
        },
        {
            "type": "Feature",
            "geometry": {
                "type": "Point",
                "coordinates": [
                    22.0243274,
                    60.4671704
                ]
            }
        },
        {
            "type": "Feature",
            "geometry": {
                "type": "Point",
                "coordinates": [
                    25.5332181,
                    64.9564901
                ]
            }
        },
        {
            "type": "Feature",
            "geometry": {
                "type": "Point",
                "coordinates": [
                    25.1031716,
                    60.2773539
                ]
            },
            "properties": {
                "name": "Hakunilan kirjasto"
            }
        },
        {
            "type": "Feature",
            "geometry": {
                "type": "Point",
                "coordinates": [
                    26.3329139,
                    64.0966129
                ]
            },
            "properties": {
                "name": "Iisakki"
            }
        },
        {
            "type": "Feature",
            "geometry": {
                "type": "Point",
                "coordinates": [
                    23.0604579,
                    63.1004981
                ]
            },
            "properties": {
                "name": "Kaupunginkirjasto"
            }
        },
        {
            "type": "Feature",
            "geometry": {
                "type": "Point",
                "coordinates": [
                    25.0341292,
                    60.2745782
                ]
            },
            "properties": {
                "name": "Tapulikaupungin kirjasto"
            }
        },
        {
            "type": "Feature",
            "geometry": {
                "type": "Point",
                "coordinates": [
                    25.1435848,
                    60.2088023
                ]
            },
            "properties": {
                "name": "Vuosaaren kirjasto"
            }
        },
        {
            "type": "Feature",
            "geometry": {
                "type": "Point",
                "coordinates": [
                    25.7383388,
                    62.2883776
                ]
            },
            "properties": {
                "name": "Palokan aluekirjasto"
            }
        },
        {
            "type": "Feature",
            "geometry": {
                "type": "Point",
                "coordinates": [
                    23.8490626,
                    61.4502681
                ]
            },
            "properties": {
                "name": "Hervannan kirjasto"
            }
        },
        {
            "type": "Feature",
            "geometry": {
                "type": "Point",
                "coordinates": [
                    26.9386696,
                    60.4654872
                ]
            },
            "properties": {
                "name": "Kotkan kaupunginkirjasto, p\u00e4\u00e4kirjasto"
            }
        },
        {
            "type": "Feature",
            "geometry": {
                "type": "Point",
                "coordinates": [
                    23.7897589,
                    61.4830735
                ]
            },
            "properties": {
                "name": "Nekalan kirjasto"
            }
        },
        {
            "type": "Feature",
            "geometry": {
                "type": "Point",
                "coordinates": [
                    25.012731,
                    60.2273463
                ]
            },
            "properties": {
                "name": "Viikin kampuskirjasto"
            }
        },
        {
            "type": "Feature",
            "geometry": {
                "type": "Point",
                "coordinates": [
                    25.7294293,
                    60.8072737
                ]
            },
            "properties": {
                "name": "Orimattilan kaupunginkirjasto"
            }
        },
        {
            "type": "Feature",
            "geometry": {
                "type": "Point",
                "coordinates": [
                    25.6476137,
                    60.9628984
                ]
            },
            "properties": {
                "name": "Launeen kirjasto"
            }
        },
        {
            "type": "Feature",
            "geometry": {
                "type": "Point",
                "coordinates": [
                    22.0122648,
                    62.9772239
                ]
            },
            "properties": {
                "name": "Laihian kunnankirjasto"
            }
        },
        {
            "type": "Feature",
            "geometry": {
                "type": "Point",
                "coordinates": [
                    27.1932869,
                    61.675426
                ]
            },
            "properties": {
                "name": "Rantakyl\u00e4n kirjasto"
            }
        },
        {
            "type": "Feature",
            "geometry": {
                "type": "Point",
                "coordinates": [
                    22.0024865,
                    61.3672096
                ]
            },
            "properties": {
                "name": "Nakkilan kunnankirjasto"
            }
        },
        {
            "type": "Feature",
            "geometry": {
                "type": "Point",
                "coordinates": [
                    22.570056,
                    62.7339127
                ]
            },
            "properties": {
                "name": "Ilmajoen kunnankirjasto"
            }
        },
        {
            "type": "Feature",
            "geometry": {
                "type": "Point",
                "coordinates": [
                    21.3789297,
                    62.2742804
                ]
            },
            "properties": {
                "name": "Kristiinankaupunki kaupunginkijasto"
            }
        },
        {
            "type": "Feature",
            "geometry": {
                "type": "Point",
                "coordinates": [
                    24.8044913,
                    60.1775632
                ]
            },
            "properties": {
                "name": "Tapiolan kirjasto"
            }
        },
        {
            "type": "Feature",
            "geometry": {
                "type": "Point",
                "coordinates": [
                    23.7766857,
                    61.3765468
                ]
            },
            "properties": {
                "name": "Kuljun kirjasto"
            }
        },
        {
            "type": "Feature",
            "geometry": {
                "type": "Point",
                "coordinates": [
                    26.0856151,
                    62.098275
                ]
            },
            "properties": {
                "name": "Kirjasto"
            }
        },
        {
            "type": "Feature",
            "geometry": {
                "type": "Point",
                "coordinates": [
                    25.0583571,
                    60.2235143
                ]
            }
        },
        {
            "type": "Feature",
            "geometry": {
                "type": "Point",
                "coordinates": [
                    25.6940614,
                    62.3023288
                ]
            },
            "properties": {
                "name": "Kirjastoauto Aino"
            }
        },
        {
            "type": "Feature",
            "geometry": {
                "type": "Point",
                "coordinates": [
                    28.1654101,
                    66.1117666
                ]
            },
            "properties": {
                "name": "Posion Kunnankirjasto"
            }
        },
        {
            "type": "Feature",
            "geometry": {
                "type": "Point",
                "coordinates": [
                    24.9973891,
                    60.2755337
                ]
            },
            "properties": {
                "name": "Suutarilan kirjasto"
            }
        },
        {
            "type": "Feature",
            "geometry": {
                "type": "Point",
                "coordinates": [
                    24.140733,
                    65.8459018
                ]
            },
            "properties": {
                "name": "Tornion Kaupunginkirjasto"
            }
        },
        {
            "type": "Feature",
            "geometry": {
                "type": "Point",
                "coordinates": [
                    25.6912624,
                    62.2907265
                ]
            },
            "properties": {
                "name": "Kirjastoauto Aino"
            }
        },
        {
            "type": "Feature",
            "geometry": {
                "type": "Point",
                "coordinates": [
                    25.1199285,
                    60.1995458
                ]
            }
        },
        {
            "type": "Feature",
            "geometry": {
                "type": "Point",
                "coordinates": [
                    25.6046296,
                    60.9771953
                ]
            },
            "properties": {
                "name": "K\u00e4rp\u00e4sen kirjasto"
            }
        },
        {
            "type": "Feature",
            "geometry": {
                "type": "Point",
                "coordinates": [
                    27.273097,
                    61.6866294
                ]
            },
            "properties": {
                "name": "Mikkelin kaupunginkirjasto"
            }
        },
        {
            "type": "Feature",
            "geometry": {
                "type": "Point",
                "coordinates": [
                    22.9093857,
                    62.8291653
                ]
            }
        },
        {
            "type": "Feature",
            "geometry": {
                "type": "Point",
                "coordinates": [
                    25.6496969,
                    60.9322101
                ]
            },
            "properties": {
                "name": "Renkom\u00e4en kirjasto"
            }
        },
        {
            "type": "Feature",
            "geometry": {
                "type": "Point",
                "coordinates": [
                    29.7885158,
                    62.5887911
                ]
            },
            "properties": {
                "name": "Niinivaaran kirjasto"
            }
        },
        {
            "type": "Feature",
            "geometry": {
                "type": "Point",
                "coordinates": [
                    22.5310231,
                    63.5220187
                ]
            },
            "properties": {
                "name": "Nykarleby stadsbibliotek"
            }
        },
        {
            "type": "Feature",
            "geometry": {
                "type": "Point",
                "coordinates": [
                    27.6127659,
                    62.8838724
                ]
            },
            "properties": {
                "name": "Neulam\u00e4en kirjasto"
            }
        },
        {
            "type": "Feature",
            "geometry": {
                "type": "Point",
                "coordinates": [
                    23.0314917,
                    63.7276529
                ]
            },
            "properties": {
                "name": "Kronoby bibliotek"
            }
        },
        {
            "type": "Feature",
            "geometry": {
                "type": "Point",
                "coordinates": [
                    26.0314951,
                    60.6813862
                ]
            },
            "properties": {
                "name": "Porlammin sivukirjasto"
            }
        },
        {
            "type": "Feature",
            "geometry": {
                "type": "Point",
                "coordinates": [
                    23.1218989,
                    60.204506
                ]
            },
            "properties": {
                "name": "Perni\u00f6n kirjasto"
            }
        },
        {
            "type": "Feature",
            "geometry": {
                "type": "Point",
                "coordinates": [
                    24.9752012,
                    60.1888127
                ]
            },
            "properties": {
                "name": "Kansallisarkisto"
            }
        },
        {
            "type": "Feature",
            "geometry": {
                "type": "Point",
                "coordinates": [
                    27.3952644,
                    63.3670805
                ]
            }
        },
        {
            "type": "Feature",
            "geometry": {
                "type": "Point",
                "coordinates": [
                    24.8518626,
                    60.2771136
                ]
            },
            "properties": {
                "name": "Martinlaakson kirjasto"
            }
        },
        {
            "type": "Feature",
            "geometry": {
                "type": "Point",
                "coordinates": [
                    29.8173191,
                    62.6148023
                ]
            },
            "properties": {
                "name": "Rantakyl\u00e4n kirjasto"
            }
        },
        {
            "type": "Feature",
            "geometry": {
                "type": "Point",
                "coordinates": [
                    25.7704129,
                    62.227274
                ]
            },
            "properties": {
                "name": "Kuokkalan pienkirjasto"
            }
        },
        {
            "type": "Feature",
            "geometry": {
                "type": "Point",
                "coordinates": [
                    24.635783,
                    60.1539846
                ]
            },
            "properties": {
                "name": "Kivenlahden kirjasto"
            }
        },
        {
            "type": "Feature",
            "geometry": {
                "type": "Point",
                "coordinates": [
                    29.8407803,
                    62.5415283
                ]
            },
            "properties": {
                "name": "Reijolan kirjasto"
            }
        },
        {
            "type": "Feature",
            "geometry": {
                "type": "Point",
                "coordinates": [
                    29.801812,
                    62.6024812
                ]
            },
            "properties": {
                "name": "Karsikon kirjasto"
            }
        },
        {
            "type": "Feature",
            "geometry": {
                "type": "Point",
                "coordinates": [
                    25.1816767,
                    61.5637951
                ]
            },
            "properties": {
                "name": "Kuhmoisten kirjasto"
            }
        },
        {
            "type": "Feature",
            "geometry": {
                "type": "Point",
                "coordinates": [
                    26.9785344,
                    60.5740416
                ]
            },
            "properties": {
                "name": "Tavastilan kirjasto"
            }
        },
        {
            "type": "Feature",
            "geometry": {
                "type": "Point",
                "coordinates": [
                    21.1893549,
                    62.9676243
                ]
            },
            "properties": {
                "name": "Berg\u00f6 Bibliotek"
            }
        },
        {
            "type": "Feature",
            "geometry": {
                "type": "Point",
                "coordinates": [
                    27.4203431,
                    60.4145407
                ]
            }
        },
        {
            "type": "Feature",
            "geometry": {
                "type": "Point",
                "coordinates": [
                    21.335301,
                    62.4719711
                ]
            },
            "properties": {
                "name": "N\u00e4rpes bibliotek"
            }
        },
        {
            "type": "Feature",
            "geometry": {
                "type": "Point",
                "coordinates": [
                    29.8122654,
                    62.6602566
                ]
            },
            "properties": {
                "name": "Lehmon kirjasto"
            }
        },
        {
            "type": "Feature",
            "geometry": {
                "type": "Point",
                "coordinates": [
                    25.6887628,
                    65.092231
                ]
            },
            "properties": {
                "name": "J\u00e4\u00e4lin kirjasto"
            }
        },
        {
            "type": "Feature",
            "geometry": {
                "type": "Point",
                "coordinates": [
                    23.8720192,
                    61.470192
                ]
            },
            "properties": {
                "name": "Kaukaj\u00e4rven kirjasto"
            }
        },
        {
            "type": "Feature",
            "geometry": {
                "type": "Point",
                "coordinates": [
                    24.8537612,
                    60.2613435
                ]
            },
            "properties": {
                "name": "Myyrm\u00e4en kirjasto"
            }
        },
        {
            "type": "Feature",
            "geometry": {
                "type": "Point",
                "coordinates": [
                    28.3197666,
                    61.0634804
                ]
            },
            "properties": {
                "name": "Mustolan kirjasto"
            }
        },
        {
            "type": "Feature",
            "geometry": {
                "type": "Point",
                "coordinates": [
                    28.1700139,
                    67.2870905
                ]
            },
            "properties": {
                "name": "Savukosken kirjasto"
            }
        },
        {
            "type": "Feature",
            "geometry": {
                "type": "Point",
                "coordinates": [
                    24.9912196,
                    60.2498002
                ]
            },
            "properties": {
                "name": "Pukinm\u00e4en kirjasto"
            }
        },
        {
            "type": "Feature",
            "geometry": {
                "type": "Point",
                "coordinates": [
                    24.7398113,
                    60.3059722
                ]
            },
            "properties": {
                "name": "Kalaj\u00e4rven kirjasto"
            }
        },
        {
            "type": "Feature",
            "geometry": {
                "type": "Point",
                "coordinates": [
                    26.9988026,
                    63.7416239
                ]
            },
            "properties": {
                "name": "Vierem\u00e4n kirjasto"
            }
        },
        {
            "type": "Feature",
            "geometry": {
                "type": "Point",
                "coordinates": [
                    25.1150379,
                    60.2463462
                ]
            },
            "properties": {
                "name": "L\u00e4nsim\u00e4en kirjasto"
            }
        },
        {
            "type": "Feature",
            "geometry": {
                "type": "Point",
                "coordinates": [
                    27.1531422,
                    62.3015436
                ]
            }
        },
        {
            "type": "Feature",
            "geometry": {
                "type": "Point",
                "coordinates": [
                    26.4707852,
                    61.0522997
                ]
            }
        },
        {
            "type": "Feature",
            "geometry": {
                "type": "Point",
                "coordinates": [
                    25.0624395,
                    60.3233482
                ]
            },
            "properties": {
                "name": "Koivukyl\u00e4n kirjasto"
            }
        },
        {
            "type": "Feature",
            "geometry": {
                "type": "Point",
                "coordinates": [
                    28.1936302,
                    61.0590246
                ]
            },
            "properties": {
                "name": "Lappeenrannan p\u00e4\u00e4kirjasto"
            }
        },
        {
            "type": "Feature",
            "geometry": {
                "type": "Point",
                "coordinates": [
                    28.149132,
                    61.0819394
                ]
            },
            "properties": {
                "name": "Voisalmen kirjasto"
            }
        },
        {
            "type": "Feature",
            "geometry": {
                "type": "Point",
                "coordinates": [
                    25.1987992,
                    61.8642291
                ]
            },
            "properties": {
                "name": "J\u00e4ms\u00e4n p\u00e4\u00e4kirjasto"
            }
        },
        {
            "type": "Feature",
            "geometry": {
                "type": "Point",
                "coordinates": [
                    24.9482594,
                    60.1713848
                ]
            },
            "properties": {
                "name": "Helsingin yliopiston p\u00e4\u00e4kirjasto"
            }
        },
        {
            "type": "Feature",
            "geometry": {
                "type": "Point",
                "coordinates": [
                    24.9497023,
                    60.1729295
                ]
            },
            "properties": {
                "name": "Mets\u00e4talo"
            }
        },
        {
            "type": "Feature",
            "geometry": {
                "type": "Point",
                "coordinates": [
                    24.9493415,
                    60.1712923
                ]
            },
            "properties": {
                "name": "Topelia"
            }
        },
        {
            "type": "Feature",
            "geometry": {
                "type": "Point",
                "coordinates": [
                    21.7616428,
                    61.4829208
                ]
            },
            "properties": {
                "name": "K\u00e4pp\u00e4r\u00e4n kirjasto"
            }
        },
        {
            "type": "Feature",
            "geometry": {
                "type": "Point",
                "coordinates": [
                    28.1100568,
                    61.0505867
                ]
            },
            "properties": {
                "name": "Sammonlahden kirjasto"
            }
        },
        {
            "type": "Feature",
            "geometry": {
                "type": "Point",
                "coordinates": [
                    26.7442638,
                    60.4898345
                ]
            },
            "properties": {
                "name": "Huutj\u00e4rven Kirjasto"
            }
        },
        {
            "type": "Feature",
            "geometry": {
                "type": "Point",
                "coordinates": [
                    27.2739612,
                    61.6934731
                ]
            },
            "properties": {
                "name": "Maakunta-arkisto"
            }
        },
        {
            "type": "Feature",
            "geometry": {
                "type": "Point",
                "coordinates": [
                    22.3012237,
                    60.3034932
                ]
            },
            "properties": {
                "name": "Paraisten Kaupunginkirjasto"
            }
        },
        {
            "type": "Feature",
            "geometry": {
                "type": "Point",
                "coordinates": [
                    22.1677414,
                    60.450291
                ]
            },
            "properties": {
                "name": "Pansion kirjasto"
            }
        },
        {
            "type": "Feature",
            "geometry": {
                "type": "Point",
                "coordinates": [
                    23.6211445,
                    60.8147524
                ]
            },
            "properties": {
                "name": "Forssan kaupunginkirjasto"
            }
        },
        {
            "type": "Feature",
            "geometry": {
                "type": "Point",
                "coordinates": [
                    23.4890656,
                    60.8047708
                ]
            },
            "properties": {
                "name": "Jokioisten kirjasto"
            }
        },
        {
            "type": "Feature",
            "geometry": {
                "type": "Point",
                "coordinates": [
                    25.9007021,
                    62.3709914
                ]
            },
            "properties": {
                "name": "Vihtavuoren kirjasto"
            }
        },
        {
            "type": "Feature",
            "geometry": {
                "type": "Point",
                "coordinates": [
                    22.7947724,
                    63.6007498
                ]
            },
            "properties": {
                "name": "Peders\u00f6re kommunbibliotek"
            }
        },
        {
            "type": "Feature",
            "geometry": {
                "type": "Point",
                "coordinates": [
                    21.8637813,
                    61.5138787
                ]
            },
            "properties": {
                "name": "Ruosniemen kirjasto"
            }
        },
        {
            "type": "Feature",
            "geometry": {
                "type": "Point",
                "coordinates": [
                    21.8398142,
                    61.4670312
                ]
            },
            "properties": {
                "name": "Sampolan kirjasto"
            }
        },
        {
            "type": "Feature",
            "geometry": {
                "type": "Point",
                "coordinates": [
                    21.595585,
                    61.5558668
                ]
            },
            "properties": {
                "name": "Pihlavan kirjasto"
            }
        },
        {
            "type": "Feature",
            "geometry": {
                "type": "Point",
                "coordinates": [
                    21.8678755,
                    61.5937763
                ]
            },
            "properties": {
                "name": "Noormarkun kirjasto"
            }
        },
        {
            "type": "Feature",
            "geometry": {
                "type": "Point",
                "coordinates": [
                    25.7616215,
                    62.2658731
                ]
            },
            "properties": {
                "name": "Lohikosken pienkirjasto"
            }
        },
        {
            "type": "Feature",
            "geometry": {
                "type": "Point",
                "coordinates": [
                    26.0319975,
                    61.2016369
                ]
            },
            "properties": {
                "name": "Heinolan kaupunginkirjasto"
            }
        },
        {
            "type": "Feature",
            "geometry": {
                "type": "Point",
                "coordinates": [
                    24.0046977,
                    60.0436639
                ]
            },
            "properties": {
                "name": "Ing\u00e5 bibliotek"
            }
        },
        {
            "type": "Feature",
            "geometry": {
                "type": "Point",
                "coordinates": [
                    29.624802,
                    62.3139651
                ]
            },
            "properties": {
                "name": "R\u00e4\u00e4kkyl\u00e4n kirjasto"
            }
        },
        {
            "type": "Feature",
            "geometry": {
                "type": "Point",
                "coordinates": [
                    23.8238345,
                    62.9990698
                ]
            },
            "properties": {
                "name": "Alaj\u00e4rven kirjasto"
            }
        },
        {
            "type": "Feature",
            "geometry": {
                "type": "Point",
                "coordinates": [
                    22.6507737,
                    63.4034711
                ]
            },
            "properties": {
                "name": "Jeppo bibliotek"
            }
        },
        {
            "type": "Feature",
            "geometry": {
                "type": "Point",
                "coordinates": [
                    22.781573,
                    61.5578731
                ]
            },
            "properties": {
                "name": "Suodenniemen kirjasto"
            }
        },
        {
            "type": "Feature",
            "geometry": {
                "type": "Point",
                "coordinates": [
                    24.9867462,
                    60.1466442
                ]
            },
            "properties": {
                "name": "Suomenlinnan kirjasto"
            }
        },
        {
            "type": "Feature",
            "geometry": {
                "type": "Point",
                "coordinates": [
                    26.5938089,
                    67.4136925
                ]
            }
        },
        {
            "type": "Feature",
            "geometry": {
                "type": "Point",
                "coordinates": [
                    25.5239901,
                    61.179028
                ]
            },
            "properties": {
                "name": "V\u00e4\u00e4ksyn kirjasto"
            }
        },
        {
            "type": "Feature",
            "geometry": {
                "type": "Point",
                "coordinates": [
                    27.6964363,
                    62.9796767
                ]
            },
            "properties": {
                "name": "kirjasto"
            }
        },
        {
            "type": "Feature",
            "geometry": {
                "type": "Point",
                "coordinates": [
                    25.4063745,
                    65.086034
                ]
            },
            "properties": {
                "name": "Pateniemen kirjasto"
            }
        },
        {
            "type": "Feature",
            "geometry": {
                "type": "Point",
                "coordinates": [
                    28.1789683,
                    61.5229702
                ]
            },
            "properties": {
                "name": "Puumalan kirjasto"
            }
        },
        {
            "type": "Feature",
            "geometry": {
                "type": "Point",
                "coordinates": [
                    22.5227278,
                    59.8936198
                ]
            }
        },
        {
            "type": "Feature",
            "geometry": {
                "type": "Point",
                "coordinates": [
                    24.8239427,
                    61.8605348
                ]
            }
        },
        {
            "type": "Feature",
            "geometry": {
                "type": "Point",
                "coordinates": [
                    23.8247532,
                    62.6352814
                ]
            },
            "properties": {
                "name": "T\u00f6ys\u00e4n kirjasto"
            }
        },
        {
            "type": "Feature",
            "geometry": {
                "type": "Point",
                "coordinates": [
                    23.6173479,
                    62.5858619
                ]
            },
            "properties": {
                "name": "Alavuden kaupunginkirjasto"
            }
        },
        {
            "type": "Feature",
            "geometry": {
                "type": "Point",
                "coordinates": [
                    24.9462693,
                    60.166138
                ]
            },
            "properties": {
                "name": "Rikhardinkadun kirjasto"
            }
        },
        {
            "type": "Feature",
            "geometry": {
                "type": "Point",
                "coordinates": [
                    21.6979477,
                    60.4670077
                ]
            }
        },
        {
            "type": "Feature",
            "geometry": {
                "type": "Point",
                "coordinates": [
                    26.7067232,
                    60.852247
                ]
            },
            "properties": {
                "name": "Haanojan kirjasto"
            }
        },
        {
            "type": "Feature",
            "geometry": {
                "type": "Point",
                "coordinates": [
                    21.5165332,
                    61.1413983
                ]
            },
            "properties": {
                "name": "Pyynp\u00e4\u00e4n kirjasto"
            }
        },
        {
            "type": "Feature",
            "geometry": {
                "type": "Point",
                "coordinates": [
                    24.9204143,
                    60.7572121
                ]
            }
        },
        {
            "type": "Feature",
            "geometry": {
                "type": "Point",
                "coordinates": [
                    23.4427309,
                    59.9750205
                ]
            },
            "properties": {
                "name": "Eken\u00e4s bibliotek"
            }
        },
        {
            "type": "Feature",
            "geometry": {
                "type": "Point",
                "coordinates": [
                    28.3005558,
                    62.0681274
                ]
            },
            "properties": {
                "name": "Rantasalmen kirjasto"
            }
        },
        {
            "type": "Feature",
            "geometry": {
                "type": "Point",
                "coordinates": [
                    26.7250318,
                    60.8870435
                ]
            },
            "properties": {
                "name": "Lehdokin kirjasto"
            }
        },
        {
            "type": "Feature",
            "geometry": {
                "type": "Point",
                "coordinates": [
                    22.2837741,
                    60.4245551
                ]
            },
            "properties": {
                "name": "Ilpoisten kirjasto"
            }
        },
        {
            "type": "Feature",
            "geometry": {
                "type": "Point",
                "coordinates": [
                    22.2637834,
                    60.4891985
                ]
            },
            "properties": {
                "name": "Runosm\u00e4en kirjasto"
            }
        },
        {
            "type": "Feature",
            "geometry": {
                "type": "Point",
                "coordinates": [
                    28.1004792,
                    61.1352973
                ]
            }
        },
        {
            "type": "Feature",
            "geometry": {
                "type": "Point",
                "coordinates": [
                    24.2806508,
                    60.8947518
                ]
            },
            "properties": {
                "name": "Rengon kirjasto"
            }
        },
        {
            "type": "Feature",
            "geometry": {
                "type": "Point",
                "coordinates": [
                    24.2044581,
                    62.8729541
                ]
            },
            "properties": {
                "name": "Soinin Kunnankirjasto"
            }
        },
        {
            "type": "Feature",
            "geometry": {
                "type": "Point",
                "coordinates": [
                    27.2981858,
                    61.6959639
                ]
            }
        },
        {
            "type": "Feature",
            "geometry": {
                "type": "Point",
                "coordinates": [
                    21.841867,
                    63.1610074
                ]
            },
            "properties": {
                "name": "Kvevlax bibliotek"
            }
        },
        {
            "type": "Feature",
            "geometry": {
                "type": "Point",
                "coordinates": [
                    22.7241338,
                    63.6521938
                ]
            },
            "properties": {
                "name": "Kyrkoby bibliotek"
            }
        },
        {
            "type": "Feature",
            "geometry": {
                "type": "Point",
                "coordinates": [
                    22.9902804,
                    63.623949
                ]
            },
            "properties": {
                "name": "Ytteresse bibliotek"
            }
        },
        {
            "type": "Feature",
            "geometry": {
                "type": "Point",
                "coordinates": [
                    23.0447829,
                    63.5954268
                ]
            },
            "properties": {
                "name": "\u00d6veresse bibliotek"
            }
        },
        {
            "type": "Feature",
            "geometry": {
                "type": "Point",
                "coordinates": [
                    24.7128749,
                    65.0094548
                ]
            },
            "properties": {
                "name": "Hailuodon kirjasto"
            }
        },
        {
            "type": "Feature",
            "geometry": {
                "type": "Point",
                "coordinates": [
                    29.1271327,
                    63.5493026
                ]
            },
            "properties": {
                "name": "Nurmeksen kaupunginkirjasto"
            }
        },
        {
            "type": "Feature",
            "geometry": {
                "type": "Point",
                "coordinates": [
                    23.6452326,
                    61.4662118
                ]
            },
            "properties": {
                "name": "Pirkkalan p\u00e4\u00e4kirjasto"
            }
        },
        {
            "type": "Feature",
            "geometry": {
                "type": "Point",
                "coordinates": [
                    25.2113244,
                    60.261681
                ]
            },
            "properties": {
                "name": "Kirjasto Sakarinm\u00e4ki \u00d6stersundom"
            }
        },
        {
            "type": "Feature",
            "geometry": {
                "type": "Point",
                "coordinates": [
                    23.3493876,
                    61.4895352
                ]
            },
            "properties": {
                "name": "Linnavuoren kirjasto"
            }
        },
        {
            "type": "Feature",
            "geometry": {
                "type": "Point",
                "coordinates": [
                    24.9339535,
                    60.201814
                ]
            },
            "properties": {
                "name": "Haaga-Helian kirjasto"
            }
        },
        {
            "type": "Feature",
            "geometry": {
                "type": "Point",
                "coordinates": [
                    23.0250013,
                    62.0108496
                ]
            },
            "properties": {
                "name": "Parkanon Kirjasto"
            }
        },
        {
            "type": "Feature",
            "geometry": {
                "type": "Point",
                "coordinates": [
                    22.7493166,
                    60.7065352
                ]
            }
        },
        {
            "type": "Feature",
            "geometry": {
                "type": "Point",
                "coordinates": [
                    24.9358785,
                    60.2007754
                ]
            },
            "properties": {
                "name": "Pasilan kirjasto"
            }
        },
        {
            "type": "Feature",
            "geometry": {
                "type": "Point",
                "coordinates": [
                    25.6750011,
                    62.1288329
                ]
            },
            "properties": {
                "name": "Muuramen kirjasto"
            }
        },
        {
            "type": "Feature",
            "geometry": {
                "type": "Point",
                "coordinates": [
                    27.2579409,
                    61.6803187
                ]
            },
            "properties": {
                "name": "Xamk Kampus kirjasto"
            }
        },
        {
            "type": "Feature",
            "geometry": {
                "type": "Point",
                "coordinates": [
                    21.9532779,
                    60.3746715
                ]
            },
            "properties": {
                "name": "Rym\u00e4ttyl\u00e4n kirjasto"
            }
        },
        {
            "type": "Feature",
            "geometry": {
                "type": "Point",
                "coordinates": [
                    27.6408053,
                    62.8543432
                ]
            },
            "properties": {
                "name": "Jynk\u00e4n kirjasto"
            }
        },
        {
            "type": "Feature",
            "geometry": {
                "type": "Point",
                "coordinates": [
                    23.013749,
                    63.475377
                ]
            },
            "properties": {
                "name": "Purmo bibliotek"
            }
        },
        {
            "type": "Feature",
            "geometry": {
                "type": "Point",
                "coordinates": [
                    24.9540966,
                    60.1740082
                ]
            },
            "properties": {
                "name": "Suomen Sukututkimusseuran kirjasto"
            }
        },
        {
            "type": "Feature",
            "geometry": {
                "type": "Point",
                "coordinates": [
                    24.2031432,
                    60.5317893
                ]
            },
            "properties": {
                "name": "Karkkilan kaupunginkirjasto"
            }
        },
        {
            "type": "Feature",
            "geometry": {
                "type": "Point",
                "coordinates": [
                    22.7638146,
                    62.4885722
                ]
            },
            "properties": {
                "name": "Jalasj\u00e4rven kirjasto"
            }
        },
        {
            "type": "Feature",
            "geometry": {
                "type": "Point",
                "coordinates": [
                    28.8187993,
                    61.2922834
                ]
            },
            "properties": {
                "name": "Ruokolahden kunnankirjasto"
            }
        },
        {
            "type": "Feature",
            "geometry": {
                "type": "Point",
                "coordinates": [
                    21.7911644,
                    61.4870237
                ]
            },
            "properties": {
                "name": "Porin kaupungin kirjasto"
            }
        },
        {
            "type": "Feature",
            "geometry": {
                "type": "Point",
                "coordinates": [
                    26.15324,
                    65.0297929
                ]
            },
            "properties": {
                "name": "Ylikiimingin kirjasto"
            }
        },
        {
            "type": "Feature",
            "geometry": {
                "type": "Point",
                "coordinates": [
                    22.8603153,
                    60.952848
                ]
            },
            "properties": {
                "name": "Alastaron Kirjasto"
            }
        },
        {
            "type": "Feature",
            "geometry": {
                "type": "Point",
                "coordinates": [
                    25.5624803,
                    62.0167879
                ]
            },
            "properties": {
                "name": "Korpilahden l\u00e4hikirjasto"
            }
        },
        {
            "type": "Feature",
            "geometry": {
                "type": "Point",
                "coordinates": [
                    25.8511394,
                    60.670053
                ]
            },
            "properties": {
                "name": "Myrskyl\u00e4n kirjasto"
            }
        },
        {
            "type": "Feature",
            "geometry": {
                "type": "Point",
                "coordinates": [
                    25.695973,
                    60.3865655
                ]
            },
            "properties": {
                "name": "Kev\u00e4tkummun kirjasto"
            }
        },
        {
            "type": "Feature",
            "geometry": {
                "type": "Point",
                "coordinates": [
                    27.4326924,
                    62.3802448
                ]
            },
            "properties": {
                "name": "J\u00e4ppil\u00e4n kirjasto"
            }
        },
        {
            "type": "Feature",
            "geometry": {
                "type": "Point",
                "coordinates": [
                    24.9764087,
                    60.20899
                ]
            },
            "properties": {
                "name": "Arabianrannan kirjasto"
            }
        },
        {
            "type": "Feature",
            "geometry": {
                "type": "Point",
                "coordinates": [
                    27.2560213,
                    61.5073964
                ]
            }
        },
        {
            "type": "Feature",
            "geometry": {
                "type": "Point",
                "coordinates": [
                    25.2813436,
                    61.351121
                ]
            },
            "properties": {
                "name": "Padasjoen kirjasto"
            }
        },
        {
            "type": "Feature",
            "geometry": {
                "type": "Point",
                "coordinates": [
                    25.6453946,
                    64.7621628
                ]
            },
            "properties": {
                "name": "Tyrn\u00e4v\u00e4n p\u00e4\u00e4kirjasto"
            }
        },
        {
            "type": "Feature",
            "geometry": {
                "type": "Point",
                "coordinates": [
                    26.6191228,
                    63.6469588
                ]
            },
            "properties": {
                "name": "Kiuruveden kirjasto"
            }
        },
        {
            "type": "Feature",
            "geometry": {
                "type": "Point",
                "coordinates": [
                    23.6810514,
                    67.9590014
                ]
            },
            "properties": {
                "name": "Muonion kunnankirjasto"
            }
        },
        {
            "type": "Feature",
            "geometry": {
                "type": "Point",
                "coordinates": [
                    25.6805793,
                    62.2296665
                ]
            },
            "properties": {
                "name": "Keltinm\u00e4en l\u00e4hikirjasto"
            }
        },
        {
            "type": "Feature",
            "geometry": {
                "type": "Point",
                "coordinates": [
                    25.6477413,
                    62.3897003
                ]
            },
            "properties": {
                "name": "Tikkakosken l\u00e4hikirjasto"
            }
        },
        {
            "type": "Feature",
            "geometry": {
                "type": "Point",
                "coordinates": [
                    25.8691212,
                    62.2491127
                ]
            },
            "properties": {
                "name": "Vaajakosken aluekirjasto"
            }
        },
        {
            "type": "Feature",
            "geometry": {
                "type": "Point",
                "coordinates": [
                    25.5719487,
                    62.2698567
                ]
            },
            "properties": {
                "name": "Vesangan l\u00e4hikirjasto"
            }
        },
        {
            "type": "Feature",
            "geometry": {
                "type": "Point",
                "coordinates": [
                    25.8009386,
                    62.2707745
                ]
            },
            "properties": {
                "name": "Huhtasuon l\u00e4hikirjasto"
            }
        },
        {
            "type": "Feature",
            "geometry": {
                "type": "Point",
                "coordinates": [
                    23.443527,
                    62.0459111
                ]
            },
            "properties": {
                "name": "Kurun kirjaston sivutoimipiste"
            }
        },
        {
            "type": "Feature",
            "geometry": {
                "type": "Point",
                "coordinates": [
                    25.4110381,
                    64.8081646
                ]
            },
            "properties": {
                "name": "Limingan kirjasto"
            }
        },
        {
            "type": "Feature",
            "geometry": {
                "type": "Point",
                "coordinates": [
                    25.9645653,
                    60.936853
                ]
            },
            "properties": {
                "name": "Nastolan p\u00e4\u00e4kirjasto"
            }
        },
        {
            "type": "Feature",
            "geometry": {
                "type": "Point",
                "coordinates": [
                    30.1312367,
                    62.1022318
                ]
            },
            "properties": {
                "name": "Kiteen kaupungin kirjasto"
            }
        },
        {
            "type": "Feature",
            "geometry": {
                "type": "Point",
                "coordinates": [
                    24.1816641,
                    60.0899793
                ]
            },
            "properties": {
                "name": "Degerby filialbibliotek"
            }
        },
        {
            "type": "Feature",
            "geometry": {
                "type": "Point",
                "coordinates": [
                    27.6870267,
                    62.8929036
                ]
            },
            "properties": {
                "name": "Kuopion Kaupungin Kirjasto"
            }
        },
        {
            "type": "Feature",
            "geometry": {
                "type": "Point",
                "coordinates": [
                    23.9146341,
                    61.4635949
                ]
            },
            "properties": {
                "name": "Kirjastoauto Kustaa"
            }
        },
        {
            "type": "Feature",
            "geometry": {
                "type": "Point",
                "coordinates": [
                    25.0731173,
                    60.2241485
                ]
            },
            "properties": {
                "name": "Myllypuron mediakirjasto"
            }
        },
        {
            "type": "Feature",
            "geometry": {
                "type": "Point",
                "coordinates": [
                    23.8652011,
                    61.4999373
                ]
            },
            "properties": {
                "name": "Kirjastoauto Kustaa"
            }
        },
        {
            "type": "Feature",
            "geometry": {
                "type": "Point",
                "coordinates": [
                    27.2672388,
                    61.659166
                ]
            },
            "properties": {
                "name": "Kaituenm\u00e4en kirjasto"
            }
        },
        {
            "type": "Feature",
            "geometry": {
                "type": "Point",
                "coordinates": [
                    21.562861,
                    60.1727803
                ]
            }
        },
        {
            "type": "Feature",
            "geometry": {
                "type": "Point",
                "coordinates": [
                    23.8590413,
                    61.4498416
                ]
            },
            "properties": {
                "name": "Tampereen teknillisen yliopiston kirjasto"
            }
        },
        {
            "type": "Feature",
            "geometry": {
                "type": "Point",
                "coordinates": [
                    24.3297066,
                    61.47662
                ]
            },
            "properties": {
                "name": "Sahalahden Kirjasto"
            }
        },
        {
            "type": "Feature",
            "geometry": {
                "type": "Point",
                "coordinates": [
                    26.9727515,
                    61.1020836
                ]
            },
            "properties": {
                "name": "K\u00e4\u00e4p\u00e4l\u00e4n kirjasto"
            }
        },
        {
            "type": "Feature",
            "geometry": {
                "type": "Point",
                "coordinates": [
                    24.5604161,
                    63.0494553
                ]
            },
            "properties": {
                "name": "Kyyj\u00e4rven kirjasto"
            }
        },
        {
            "type": "Feature",
            "geometry": {
                "type": "Point",
                "coordinates": [
                    21.7249484,
                    63.0857283
                ]
            },
            "properties": {
                "name": "Variskan kijasto"
            }
        },
        {
            "type": "Feature",
            "geometry": {
                "type": "Point",
                "coordinates": [
                    23.0492141,
                    61.770409
                ]
            },
            "properties": {
                "name": "Ikaalisten kirjasto"
            }
        },
        {
            "type": "Feature",
            "geometry": {
                "type": "Point",
                "coordinates": [
                    24.6207795,
                    60.8180792
                ]
            },
            "properties": {
                "name": "Tervakosken kirjasto"
            }
        },
        {
            "type": "Feature",
            "geometry": {
                "type": "Point",
                "coordinates": [
                    28.813942,
                    63.6805958
                ]
            },
            "properties": {
                "name": "Valtimon kirjasto"
            }
        },
        {
            "type": "Feature",
            "geometry": {
                "type": "Point",
                "coordinates": [
                    25.8062792,
                    62.7800137
                ]
            },
            "properties": {
                "name": "Konginkankaan kirjasto"
            }
        },
        {
            "type": "Feature",
            "geometry": {
                "type": "Point",
                "coordinates": [
                    28.0936751,
                    61.0642487
                ]
            },
            "properties": {
                "name": "LUT Tiedekirjasto"
            }
        },
        {
            "type": "Feature",
            "geometry": {
                "type": "Point",
                "coordinates": [
                    25.2259457,
                    61.1009895
                ]
            }
        },
        {
            "type": "Feature",
            "geometry": {
                "type": "Point",
                "coordinates": [
                    23.0762615,
                    60.3963433
                ]
            },
            "properties": {
                "name": "Halikon kirjasto"
            }
        },
        {
            "type": "Feature",
            "geometry": {
                "type": "Point",
                "coordinates": [
                    23.2810458,
                    60.3497097
                ]
            },
            "properties": {
                "name": "Muurlan kirjasto"
            }
        },
        {
            "type": "Feature",
            "geometry": {
                "type": "Point",
                "coordinates": [
                    28.5026859,
                    61.1180168
                ]
            },
            "properties": {
                "name": "Joutsenon kirjasto"
            }
        },
        {
            "type": "Feature",
            "geometry": {
                "type": "Point",
                "coordinates": [
                    26.840292,
                    60.6941478
                ]
            }
        },
        {
            "type": "Feature",
            "geometry": {
                "type": "Point",
                "coordinates": [
                    28.0058666,
                    60.792298
                ]
            },
            "properties": {
                "name": "Kirjasto"
            }
        },
        {
            "type": "Feature",
            "geometry": {
                "type": "Point",
                "coordinates": [
                    21.4696757,
                    62.6109714
                ]
            },
            "properties": {
                "name": "\u00d6vermark bibliotek"
            }
        },
        {
            "type": "Feature",
            "geometry": {
                "type": "Point",
                "coordinates": [
                    27.4241264,
                    66.715525
                ]
            },
            "properties": {
                "name": "Kemij\u00e4rven kaupunginkirjasto"
            }
        },
        {
            "type": "Feature",
            "geometry": {
                "type": "Point",
                "coordinates": [
                    24.9764033,
                    60.1879376
                ]
            },
            "properties": {
                "name": "Tilastokirjasto"
            }
        },
        {
            "type": "Feature",
            "geometry": {
                "type": "Point",
                "coordinates": [
                    24.659179,
                    61.3609518
                ]
            }
        },
        {
            "type": "Feature",
            "geometry": {
                "type": "Point",
                "coordinates": [
                    24.0728248,
                    61.4628673
                ]
            }
        },
        {
            "type": "Feature",
            "geometry": {
                "type": "Point",
                "coordinates": [
                    25.7692789,
                    62.140053
                ]
            },
            "properties": {
                "name": "S\u00e4yn\u00e4tsalon l\u00e4hikirjasto"
            }
        },
        {
            "type": "Feature",
            "geometry": {
                "type": "Point",
                "coordinates": [
                    25.7134889,
                    66.4857167
                ]
            },
            "properties": {
                "name": "Lapin yliopiston kirjasto"
            }
        },
        {
            "type": "Feature",
            "geometry": {
                "type": "Point",
                "coordinates": [
                    26.7749398,
                    60.3448798
                ]
            }
        },
        {
            "type": "Feature",
            "geometry": {
                "type": "Point",
                "coordinates": [
                    26.0145564,
                    61.5790437
                ]
            },
            "properties": {
                "name": "Hartolan kunnankirjasto"
            }
        },
        {
            "type": "Feature",
            "geometry": {
                "type": "Point",
                "coordinates": [
                    25.7050326,
                    62.2499139
                ]
            },
            "properties": {
                "name": "Kortepohjan l\u00e4hikirjasto"
            }
        },
        {
            "type": "Feature",
            "geometry": {
                "type": "Point",
                "coordinates": [
                    26.6351814,
                    61.9877592
                ]
            },
            "properties": {
                "name": "Kangasniemen kirjasto"
            }
        },
        {
            "type": "Feature",
            "geometry": {
                "type": "Point",
                "coordinates": [
                    25.5839778,
                    60.644068
                ]
            },
            "properties": {
                "name": "Pukkilan kunnankirjasto"
            }
        },
        {
            "type": "Feature",
            "geometry": {
                "type": "Point",
                "coordinates": [
                    27.6691343,
                    64.8679001
                ]
            },
            "properties": {
                "name": "Kirjasto"
            }
        },
        {
            "type": "Feature",
            "geometry": {
                "type": "Point",
                "coordinates": [
                    25.6688045,
                    66.5122769
                ]
            },
            "properties": {
                "name": "Korkalovaaran sivukirjasto"
            }
        },
        {
            "type": "Feature",
            "geometry": {
                "type": "Point",
                "coordinates": [
                    28.3688433,
                    61.784055
                ]
            },
            "properties": {
                "name": "Sulkavan kunnankirjasto"
            }
        },
        {
            "type": "Feature",
            "geometry": {
                "type": "Point",
                "coordinates": [
                    25.4769084,
                    65.0078069
                ]
            },
            "properties": {
                "name": "Oulun maakunta-arkisto"
            }
        },
        {
            "type": "Feature",
            "geometry": {
                "type": "Point",
                "coordinates": [
                    25.4477739,
                    65.0451805
                ]
            },
            "properties": {
                "name": "Koskelan kirjasto"
            }
        },
        {
            "type": "Feature",
            "geometry": {
                "type": "Point",
                "coordinates": [
                    25.4667681,
                    65.0612507
                ]
            },
            "properties": {
                "name": "Tiedekirjasto Pegasus"
            }
        },
        {
            "type": "Feature",
            "geometry": {
                "type": "Point",
                "coordinates": [
                    22.2209941,
                    60.5405104
                ]
            },
            "properties": {
                "name": "Ruskon p\u00e4\u00e4kirjasto"
            }
        },
        {
            "type": "Feature",
            "geometry": {
                "type": "Point",
                "coordinates": [
                    23.9432637,
                    62.8186173
                ]
            },
            "properties": {
                "name": "Lehtim\u00e4en kirjasto"
            }
        },
        {
            "type": "Feature",
            "geometry": {
                "type": "Point",
                "coordinates": [
                    24.525504,
                    64.0722097
                ]
            },
            "properties": {
                "name": "Kaupunginkirjasto"
            }
        },
        {
            "type": "Feature",
            "geometry": {
                "type": "Point",
                "coordinates": [
                    27.6962461,
                    60.6685888
                ]
            },
            "properties": {
                "name": "Miehikk\u00e4l\u00e4n kirjasto"
            }
        },
        {
            "type": "Feature",
            "geometry": {
                "type": "Point",
                "coordinates": [
                    26.9835464,
                    65.3612319
                ]
            },
            "properties": {
                "name": "Pudasj\u00e4rven kirjasto"
            }
        },
        {
            "type": "Feature",
            "geometry": {
                "type": "Point",
                "coordinates": [
                    23.1946357,
                    61.6422327
                ]
            },
            "properties": {
                "name": "H\u00e4meenkyr\u00f6n kunnankirjasto"
            }
        },
        {
            "type": "Feature",
            "geometry": {
                "type": "Point",
                "coordinates": [
                    27.6493166,
                    62.9022012
                ]
            },
            "properties": {
                "name": "Puijonlaakson kirjasto"
            }
        },
        {
            "type": "Feature",
            "geometry": {
                "type": "Point",
                "coordinates": [
                    24.3072152,
                    64.1659714
                ]
            },
            "properties": {
                "name": "Alavieskan kirjasto"
            }
        },
        {
            "type": "Feature",
            "geometry": {
                "type": "Point",
                "coordinates": [
                    25.6014938,
                    60.5274642
                ]
            },
            "properties": {
                "name": "Askolan p\u00e4\u00e4kirjasto"
            }
        },
        {
            "type": "Feature",
            "geometry": {
                "type": "Point",
                "coordinates": [
                    22.5888009,
                    60.6500343
                ]
            },
            "properties": {
                "name": "Auran kirjasto"
            }
        },
        {
            "type": "Feature",
            "geometry": {
                "type": "Point",
                "coordinates": [
                    23.6901097,
                    61.1538216
                ]
            },
            "properties": {
                "name": "Kylm\u00e4kosken kirjasto"
            }
        },
        {
            "type": "Feature",
            "geometry": {
                "type": "Point",
                "coordinates": [
                    25.5352148,
                    60.4936684
                ]
            },
            "properties": {
                "name": "Monninkyl\u00e4n kirjasto"
            }
        },
        {
            "type": "Feature",
            "geometry": {
                "type": "Point",
                "coordinates": [
                    27.7124297,
                    64.2167352
                ]
            },
            "properties": {
                "name": "Tieto 1"
            }
        },
        {
            "type": "Feature",
            "geometry": {
                "type": "Point",
                "coordinates": [
                    19.9829271,
                    60.2283905
                ]
            },
            "properties": {
                "name": "Finstr\u00f6ms bibliotek"
            }
        },
        {
            "type": "Feature",
            "geometry": {
                "type": "Point",
                "coordinates": [
                    24.9618734,
                    63.9299617
                ]
            },
            "properties": {
                "name": "Nivalan kaupunginkirjasto"
            }
        },
        {
            "type": "Feature",
            "geometry": {
                "type": "Point",
                "coordinates": [
                    25.0961693,
                    60.5310747
                ]
            },
            "properties": {
                "name": "Kellokosken kirjasto"
            }
        },
        {
            "type": "Feature",
            "geometry": {
                "type": "Point",
                "coordinates": [
                    24.5199077,
                    63.9061864
                ]
            },
            "properties": {
                "name": "Sievin kirjasto"
            }
        },
        {
            "type": "Feature",
            "geometry": {
                "type": "Point",
                "coordinates": [
                    21.9940186,
                    60.6769568
                ]
            },
            "properties": {
                "name": "Kirjasto"
            }
        },
        {
            "type": "Feature",
            "geometry": {
                "type": "Point",
                "coordinates": [
                    29.7439531,
                    62.6043355
                ]
            },
            "properties": {
                "name": "It\u00e4-Suomen yliopiston kirjasto (Joensuun campus)"
            }
        },
        {
            "type": "Feature",
            "geometry": {
                "type": "Point",
                "coordinates": [
                    23.6309183,
                    63.2120757
                ]
            },
            "properties": {
                "name": "Lappaj\u00e4rven kunnankirjasto"
            }
        },
        {
            "type": "Feature",
            "geometry": {
                "type": "Point",
                "coordinates": [
                    25.5538042,
                    65.0190421
                ]
            },
            "properties": {
                "name": "Myllyojan kirjasto"
            }
        },
        {
            "type": "Feature",
            "geometry": {
                "type": "Point",
                "coordinates": [
                    23.7541812,
                    61.3145303
                ]
            },
            "properties": {
                "name": "Lemp\u00e4\u00e4l\u00e4n kirjasto"
            }
        },
        {
            "type": "Feature",
            "geometry": {
                "type": "Point",
                "coordinates": [
                    23.7591241,
                    61.4165863
                ]
            },
            "properties": {
                "name": "S\u00e4\u00e4ksj\u00e4rven kirjasto"
            }
        },
        {
            "type": "Feature",
            "geometry": {
                "type": "Point",
                "coordinates": [
                    23.4982011,
                    61.4661885
                ]
            },
            "properties": {
                "name": "Koskenm\u00e4en kirjasto"
            }
        },
        {
            "type": "Feature",
            "geometry": {
                "type": "Point",
                "coordinates": [
                    23.0179589,
                    62.9677638
                ]
            },
            "properties": {
                "name": "Lapuan kaupunginkirjasto"
            }
        },
        {
            "type": "Feature",
            "geometry": {
                "type": "Point",
                "coordinates": [
                    22.8256585,
                    62.7892352
                ]
            },
            "properties": {
                "name": "Kampuskirjasto"
            }
        },
        {
            "type": "Feature",
            "geometry": {
                "type": "Point",
                "coordinates": [
                    24.8832846,
                    60.1587032
                ]
            },
            "properties": {
                "name": "Lauttasaaren kirjasto"
            }
        },
        {
            "type": "Feature",
            "geometry": {
                "type": "Point",
                "coordinates": [
                    27.6624426,
                    63.0735788
                ]
            },
            "properties": {
                "name": "Siilinj\u00e4rven Kunnankirjasto"
            }
        },
        {
            "type": "Feature",
            "geometry": {
                "type": "Point",
                "coordinates": [
                    21.1801393,
                    62.6551397
                ]
            },
            "properties": {
                "name": "N\u00e4rpes bibliotek"
            }
        },
        {
            "type": "Feature",
            "geometry": {
                "type": "Point",
                "coordinates": [
                    24.4985406,
                    62.1388753
                ]
            },
            "properties": {
                "name": "Kolhon kirjasto"
            }
        },
        {
            "type": "Feature",
            "geometry": {
                "type": "Point",
                "coordinates": [
                    22.3800613,
                    60.5920346
                ]
            },
            "properties": {
                "name": "Paattisten kirjasto"
            }
        },
        {
            "type": "Feature",
            "geometry": {
                "type": "Point",
                "coordinates": [
                    27.6478404,
                    61.5839385
                ]
            },
            "properties": {
                "name": "Anttola"
            }
        },
        {
            "type": "Feature",
            "geometry": {
                "type": "Point",
                "coordinates": [
                    25.6328985,
                    60.3736721
                ]
            },
            "properties": {
                "name": "Gammelbackan kirjasto"
            }
        },
        {
            "type": "Feature",
            "geometry": {
                "type": "Point",
                "coordinates": [
                    22.41269,
                    60.4459883
                ]
            },
            "properties": {
                "name": "Littoisten kirjasto"
            }
        },
        {
            "type": "Feature",
            "geometry": {
                "type": "Point",
                "coordinates": [
                    25.058815,
                    60.271164
                ]
            }
        },
        {
            "type": "Feature",
            "geometry": {
                "type": "Point",
                "coordinates": [
                    25.0190937,
                    60.2655655
                ]
            }
        },
        {
            "type": "Feature",
            "geometry": {
                "type": "Point",
                "coordinates": [
                    25.1547283,
                    61.0218158
                ]
            }
        },
        {
            "type": "Feature",
            "geometry": {
                "type": "Point",
                "coordinates": [
                    26.0092389,
                    60.6181991
                ]
            }
        },
        {
            "type": "Feature",
            "geometry": {
                "type": "Point",
                "coordinates": [
                    21.8434266,
                    61.1029237
                ]
            },
            "properties": {
                "name": "Lapin kirjasto"
            }
        },
        {
            "type": "Feature",
            "geometry": {
                "type": "Point",
                "coordinates": [
                    26.0508002,
                    60.5698871
                ]
            }
        },
        {
            "type": "Feature",
            "geometry": {
                "type": "Point",
                "coordinates": [
                    26.0536951,
                    60.7457776
                ]
            },
            "properties": {
                "name": "Kirjasto"
            }
        },