{
    "type": "FeatureCollection",
    "features": [
        {
            "type": "Feature",
            "geometry": {
                "type": "Point",
                "coordinates": [
                    -21.7997888,
                    64.1322941
                ]
            },
            "properties": {
                "name": "B\u00f3kasafn Grafarvogs"
            }
        },
        {
            "type": "Feature",
            "geometry": {
                "type": "Point",
                "coordinates": [
                    -18.652127,
                    66.0706314
                ]
            },
            "properties": {
                "name": "B\u00f3kasafn \u00d3lafsfjar\u00f0ar"
            }
        },
        {
            "type": "Feature",
            "geometry": {
                "type": "Point",
                "coordinates": [
                    -13.6780074,
                    65.1474095
                ]
            },
            "properties": {
                "name": "B\u00f3kasafn"
            }
        },
        {
            "type": "Feature",
            "geometry": {
                "type": "Point",
                "coordinates": [
                    -21.9414165,
                    64.1493654
                ]
            },
            "properties": {
                "name": "Borgarb\u00f3kasafn Reykjav\u00edkur"
            }
        },
        {
            "type": "Feature",
            "geometry": {
                "type": "Point",
                "coordinates": [
                    -22.726767,
                    65.0767623
                ]
            }
        },
        {
            "type": "Feature",
            "geometry": {
                "type": "Point",
                "coordinates": [
                    -21.1894902,
                    63.9960381
                ]
            }
        },
        {
            "type": "Feature",
            "geometry": {
                "type": "Point",
                "coordinates": [
                    -21.9577412,
                    64.0699763
                ]
            },
            "properties": {
                "name": "B\u00f3kasafn Hafnarfjar\u00f0ar"
            }
        },
        {
            "type": "Feature",
            "geometry": {
                "type": "Point",
                "coordinates": [
                    -22.4344457,
                    63.8448182
                ]
            }
        },
        {
            "type": "Feature",
            "geometry": {
                "type": "Point",
                "coordinates": [
                    -21.3858864,
                    63.856129
                ]
            }
        },
        {
            "type": "Feature",
            "geometry": {
                "type": "Point",
                "coordinates": [
                    -23.2537328,
                    66.1560915
                ]
            },
            "properties": {
                "name": "B\u00f3kasafn Bolungarv\u00edkur"
            }
        },
        {
            "type": "Feature",
            "geometry": {
                "type": "Point",
                "coordinates": [
                    -22.0711589,
                    64.3221002
                ]
            },
            "properties": {
                "name": "B\u00f3kasafn Akraness"
            }
        },
        {
            "type": "Feature",
            "geometry": {
                "type": "Point",
                "coordinates": [
                    -21.0020439,
                    63.9370961
                ]
            },
            "properties": {
                "name": "B\u00f3kasafn \u00c1rborgar"
            }
        },
        {
            "type": "Feature",
            "geometry": {
                "type": "Point",
                "coordinates": [
                    -21.8590097,
                    64.1341059
                ]
            },
            "properties": {
                "name": "S\u00f3lheimasafn"
            }
        },
        {
            "type": "Feature",
            "geometry": {
                "type": "Point",
                "coordinates": [
                    -23.260719,
                    64.9246605
                ]
            }
        },
        {
            "type": "Feature",
            "geometry": {
                "type": "Point",
                "coordinates": [
                    -21.9090802,
                    64.1116199
                ]
            },
            "properties": {
                "name": "B\u00f3kasafn K\u00f3pavogs"
            }
        },
        {
            "type": "Feature",
            "geometry": {
                "type": "Point",
                "coordinates": [
                    -14.2135044,
                    65.0349485
                ]
            },
            "properties": {
                "name": "B\u00f3kasafn Rey\u00f0arfjar\u00f0ar"
            }
        },
        {
            "type": "Feature",
            "geometry": {
                "type": "Point",
                "coordinates": [
                    -21.7858075,
                    64.1501642
                ]
            },
            "properties": {
                "name": "Borgarb\u00f3kasafni\u00f0 - Menningarh\u00fas Sp\u00f6nginni"
            }
        },
        {
            "type": "Feature",
            "geometry": {
                "type": "Point",
                "coordinates": [
                    -21.6968366,
                    64.1674547
                ]
            },
            "properties": {
                "name": "Borgarb\u00f3kasafn"
            }
        },
        {
            "type": "Feature",
            "geometry": {
                "type": "Point",
                "coordinates": [
                    -21.7966926,
                    64.1181088
                ]
            },
            "properties": {
                "name": "Borgarb\u00f3kasafn Reykjav\u00edkur - \u00c1rsafn"
            }
        },
        {
            "type": "Feature",
            "geometry": {
                "type": "Point",
                "coordinates": [
                    -21.9853039,
                    64.1502247
                ]
            }
        },
        {
            "type": "Feature",
            "geometry": {
                "type": "Point",
                "coordinates": [
                    -21.9184163,
                    64.088063
                ]
            },
            "properties": {
                "name": "B\u00f3kasafn Gar\u00f0ab\u00e6jar"
            }
        },
        {
            "type": "Feature",
            "geometry": {
                "type": "Point",
                "coordinates": [
                    -21.9507207,
                    64.1428256
                ]
            },
            "properties": {
                "name": "\u00dej\u00f3\u00f0arb\u00f3khla\u00f0an"
            }
        },
        {
            "type": "Feature",
            "geometry": {
                "type": "Point",
                "coordinates": [
                    -21.9066069,
                    64.1422783
                ]
            },
            "properties": {
                "name": "\u00dej\u00f3\u00f0skjalasafni\u00f0"
            }
        },
        {
            "type": "Feature",
            "geometry": {
                "type": "Point",
                "coordinates": [
                    -14.0055351,
                    65.260157
                ]
            },
            "properties": {
                "name": "B\u00f3kasafn Sey\u00f0isfjar\u00f0ar"
            }
        },
        {
            "type": "Feature",
            "geometry": {
                "type": "Point",
                "coordinates": [
                    -21.8143579,
                    64.1045733
                ]
            }
        },
        {
            "type": "Feature",
            "geometry": {
                "type": "Point",
                "coordinates": [
                    -18.0949839,
                    65.6835573
                ]
            },
            "properties": {
                "name": "Amtb\u00f3kasafni\u00f0"
            }
        }
    ],
    "crs": {
        "type": "name",
        "properties": {
            "name": "urn:ogc:def:crs:OGC:1.3:CRS84"
        }
    }
}