{
    "type": "FeatureCollection",
    "features": [
        {
            "type": "Feature",
            "geometry": {
                "type": "Point",
                "coordinates": [
                    16.3705791,
                    45.5842809
                ]
            }
        },
        {
            "type": "Feature",
            "geometry": {
                "type": "Point",
                "coordinates": [
                    15.9964427,
                    45.7796127
                ]
            },
            "properties": {
                "name": "Knji\u017enica Vjekoslava Majera"
            }
        },
        {
            "type": "Feature",
            "geometry": {
                "type": "Point",
                "coordinates": [
                    15.9745054,
                    45.8113585
                ]
            },
            "properties": {
                "name": "Knji\u017enica Bogdan Ogrizovi\u0107"
            }
        },
        {
            "type": "Feature",
            "geometry": {
                "type": "Point",
                "coordinates": [
                    15.9948283,
                    45.7654951
                ]
            },
            "properties": {
                "name": "Knji\u017enica Dugave"
            }
        },
        {
            "type": "Feature",
            "geometry": {
                "type": "Point",
                "coordinates": [
                    14.4411349,
                    45.3276204
                ]
            },
            "properties": {
                "name": "Gradska knji\u017enica (Dje\u010dji odjel \"Stribor\")"
            }
        },
        {
            "type": "Feature",
            "geometry": {
                "type": "Point",
                "coordinates": [
                    14.440997,
                    45.3278262
                ]
            },
            "properties": {
                "name": "Sveu\u010dili\u0161na knji\u017enica"
            }
        },
        {
            "type": "Feature",
            "geometry": {
                "type": "Point",
                "coordinates": [
                    14.4408195,
                    45.3274391
                ]
            },
            "properties": {
                "name": "Gradska knji\u017enica - Dom lijepe knji\u017eevnosti"
            }
        },
        {
            "type": "Feature",
            "geometry": {
                "type": "Point",
                "coordinates": [
                    18.4174762,
                    45.6623198
                ]
            },
            "properties": {
                "name": "Gradska knji\u017enica Valpovo"
            }
        },
        {
            "type": "Feature",
            "geometry": {
                "type": "Point",
                "coordinates": [
                    14.4437545,
                    45.32548
                ]
            },
            "properties": {
                "name": "Gradska knji\u017enica - periodika"
            }
        },
        {
            "type": "Feature",
            "geometry": {
                "type": "Point",
                "coordinates": [
                    16.5447153,
                    46.0247298
                ]
            },
            "properties": {
                "name": "Gradska knji\u017enica Franjo Markovi\u0107"
            }
        },
        {
            "type": "Feature",
            "geometry": {
                "type": "Point",
                "coordinates": [
                    18.1635222,
                    45.7627486
                ]
            },
            "properties": {
                "name": "Gradska knji\u017enica"
            }
        },
        {
            "type": "Feature",
            "geometry": {
                "type": "Point",
                "coordinates": [
                    16.0044422,
                    45.7933185
                ]
            },
            "properties": {
                "name": "KGZ Ivana Brli\u0107 Ma\u017eurani\u0107"
            }
        },
        {
            "type": "Feature",
            "geometry": {
                "type": "Point",
                "coordinates": [
                    13.5224083,
                    45.4328596
                ]
            },
            "properties": {
                "name": "Gradska knji\u017enica Umag"
            }
        },
        {
            "type": "Feature",
            "geometry": {
                "type": "Point",
                "coordinates": [
                    18.6528748,
                    45.561224
                ]
            },
            "properties": {
                "name": "Reftala\u010dka knji\u017enica"
            }
        },
        {
            "type": "Feature",
            "geometry": {
                "type": "Point",
                "coordinates": [
                    16.3369107,
                    46.3055681
                ]
            },
            "properties": {
                "name": "Gradska Knji\u017enica Metel O\u017eegovi\u0107"
            }
        },
        {
            "type": "Feature",
            "geometry": {
                "type": "Point",
                "coordinates": [
                    16.627623,
                    45.5711735
                ]
            },
            "properties": {
                "name": "Knji\u017enica Popova\u010da"
            }
        },
        {
            "type": "Feature",
            "geometry": {
                "type": "Point",
                "coordinates": [
                    18.0926091,
                    45.491391
                ]
            },
            "properties": {
                "name": "Gradska knji\u017enica"
            }
        },
        {
            "type": "Feature",
            "geometry": {
                "type": "Point",
                "coordinates": [
                    15.9311384,
                    45.7880267
                ]
            },
            "properties": {
                "name": "Gradska Knji\u017enica"
            }
        },
        {
            "type": "Feature",
            "geometry": {
                "type": "Point",
                "coordinates": [
                    16.6415298,
                    43.7029381
                ]
            },
            "properties": {
                "name": "Knji\u017enica Sinj"
            }
        },
        {
            "type": "Feature",
            "geometry": {
                "type": "Point",
                "coordinates": [
                    18.718541,
                    45.5551515
                ]
            },
            "properties": {
                "name": "GISKO ogranak Donji Grad"
            }
        },
        {
            "type": "Feature",
            "geometry": {
                "type": "Point",
                "coordinates": [
                    18.718835,
                    45.543203
                ]
            },
            "properties": {
                "name": "GISKO ogranak Jug II"
            }
        },
        {
            "type": "Feature",
            "geometry": {
                "type": "Point",
                "coordinates": [
                    16.371522,
                    45.4908192
                ]
            },
            "properties": {
                "name": "Gradska knji\u017enica i \u010ditaonica Sisak"
            }
        },
        {
            "type": "Feature",
            "geometry": {
                "type": "Point",
                "coordinates": [
                    18.0105365,
                    45.1537019
                ]
            },
            "properties": {
                "name": "Gradska knji\u017enica"
            }
        },
        {
            "type": "Feature",
            "geometry": {
                "type": "Point",
                "coordinates": [
                    14.4112183,
                    44.9588723
                ]
            }
        },
        {
            "type": "Feature",
            "geometry": {
                "type": "Point",
                "coordinates": [
                    18.6774682,
                    45.5451463
                ]
            },
            "properties": {
                "name": "Knji\u017enica"
            }
        },
        {
            "type": "Feature",
            "geometry": {
                "type": "Point",
                "coordinates": [
                    15.994443,
                    45.8018868
                ]
            },
            "properties": {
                "name": "Knji\u017enica Marina Dr\u017ei\u0107a"
            }
        },
        {
            "type": "Feature",
            "geometry": {
                "type": "Point",
                "coordinates": [
                    14.7590839,
                    44.7566868
                ]
            },
            "properties": {
                "name": "Gradska knji\u017enica Rab"
            }
        },
        {
            "type": "Feature",
            "geometry": {
                "type": "Point",
                "coordinates": [
                    18.9091286,
                    44.9201847
                ]
            },
            "properties": {
                "name": "Op\u0107inska Knji\u017enica Drenovci"
            }
        },
        {
            "type": "Feature",
            "geometry": {
                "type": "Point",
                "coordinates": [
                    15.8968599,
                    45.8009311
                ]
            },
            "properties": {
                "name": "Vladimir Nazor"
            }
        },
        {
            "type": "Feature",
            "geometry": {
                "type": "Point",
                "coordinates": [
                    15.9871667,
                    45.8000688
                ]
            },
            "properties": {
                "name": "Knji\u017enica Marina Dr\u017ei\u0107a"
            }
        },
        {
            "type": "Feature",
            "geometry": {
                "type": "Point",
                "coordinates": [
                    15.9506955,
                    45.7910712
                ]
            },
            "properties": {
                "name": "Knji\u017enica Kne\u017eija"
            }
        },
        {
            "type": "Feature",
            "geometry": {
                "type": "Point",
                "coordinates": [
                    15.988361,
                    45.8101597
                ]
            },
            "properties": {
                "name": "Knji\u017enica Medve\u0161\u010dak"
            }
        },
        {
            "type": "Feature",
            "geometry": {
                "type": "Point",
                "coordinates": [
                    16.4280489,
                    43.5048972
                ]
            },
            "properties": {
                "name": "Knji\u017enica Meje"
            }
        },
        {
            "type": "Feature",
            "geometry": {
                "type": "Point",
                "coordinates": [
                    15.9661876,
                    45.8000511
                ]
            },
            "properties": {
                "name": "Knji\u017enica Ivana Gorana Kova\u010di\u0107a"
            }
        },
        {
            "type": "Feature",
            "geometry": {
                "type": "Point",
                "coordinates": [
                    15.5414371,
                    45.4726523
                ]
            }
        },
        {
            "type": "Feature",
            "geometry": {
                "type": "Point",
                "coordinates": [
                    17.3872296,
                    45.8332268
                ]
            }
        },
        {
            "type": "Feature",
            "geometry": {
                "type": "Point",
                "coordinates": [
                    16.0671648,
                    45.7116323
                ]
            },
            "properties": {
                "name": "Dom kulture i knji\u017enica"
            }
        },
        {
            "type": "Feature",
            "geometry": {
                "type": "Point",
                "coordinates": [
                    16.4306867,
                    46.3847782
                ]
            },
            "properties": {
                "name": "Knji\u017enica i \u010ditaonica Tabula Rasa"
            }
        },
        {
            "type": "Feature",
            "geometry": {
                "type": "Point",
                "coordinates": [
                    15.928851,
                    43.586938
                ]
            }
        },
        {
            "type": "Feature",
            "geometry": {
                "type": "Point",
                "coordinates": [
                    16.4451868,
                    43.5125289
                ]
            },
            "properties": {
                "name": "Knji\u017enica Bol"
            }
        },
        {
            "type": "Feature",
            "geometry": {
                "type": "Point",
                "coordinates": [
                    16.235351,
                    45.8058029
                ]
            },
            "properties": {
                "name": "Gradska knji\u017enica Dugo Selo"
            }
        },
        {
            "type": "Feature",
            "geometry": {
                "type": "Point",
                "coordinates": [
                    17.8014293,
                    45.2858221
                ]
            }
        },
        {
            "type": "Feature",
            "geometry": {
                "type": "Point",
                "coordinates": [
                    15.6969278,
                    45.3246113
                ]
            },
            "properties": {
                "name": "Dom kulture kralja Petra Sva\u010di\u0107a"
            }
        },
        {
            "type": "Feature",
            "geometry": {
                "type": "Point",
                "coordinates": [
                    16.0541488,
                    45.8298632
                ]
            },
            "properties": {
                "name": "Knji\u017enica"
            }
        },
        {
            "type": "Feature",
            "geometry": {
                "type": "Point",
                "coordinates": [
                    15.9565661,
                    45.7991451
                ]
            },
            "properties": {
                "name": "Knji\u017enica Tina Ujevi\u0107a"
            }
        },
        {
            "type": "Feature",
            "geometry": {
                "type": "Point",
                "coordinates": [
                    15.9432322,
                    45.8166563
                ]
            },
            "properties": {
                "name": "Knji\u017enica Kajfe\u0161ov brijeg"
            }
        },
        {
            "type": "Feature",
            "geometry": {
                "type": "Point",
                "coordinates": [
                    17.7037458,
                    45.7018632
                ]
            },
            "properties": {
                "name": "Gradska knji\u017enica i \u010ditaonica Slatina"
            }
        },
        {
            "type": "Feature",
            "geometry": {
                "type": "Point",
                "coordinates": [
                    16.0216149,
                    45.815568
                ]
            },
            "properties": {
                "name": "Hijacint Bo\u0161kovi\u0107"
            }
        },
        {
            "type": "Feature",
            "geometry": {
                "type": "Point",
                "coordinates": [
                    18.5995117,
                    45.7706761
                ]
            },
            "properties": {
                "name": "Gradska knji\u017enica"
            }
        },
        {
            "type": "Feature",
            "geometry": {
                "type": "Point",
                "coordinates": [
                    16.1964219,
                    44.0359169
                ]
            },
            "properties": {
                "name": "GK Knin"
            }
        },
        {
            "type": "Feature",
            "geometry": {
                "type": "Point",
                "coordinates": [
                    14.6960393,
                    44.3746186
                ]
            },
            "properties": {
                "name": "Knji\u017enica"
            }
        },
        {
            "type": "Feature",
            "geometry": {
                "type": "Point",
                "coordinates": [
                    14.7887083,
                    45.1284821
                ]
            },
            "properties": {
                "name": "Library"
            }
        },
        {
            "type": "Feature",
            "geometry": {
                "type": "Point",
                "coordinates": [
                    15.9342256,
                    45.7967993
                ]
            },
            "properties": {
                "name": "Ljubljanica"
            }
        },
        {
            "type": "Feature",
            "geometry": {
                "type": "Point",
                "coordinates": [
                    16.5536711,
                    43.3830904
                ]
            }
        },
        {
            "type": "Feature",
            "geometry": {
                "type": "Point",
                "coordinates": [
                    15.9958099,
                    45.7936101
                ]
            },
            "properties": {
                "name": "Knji\u017enica Savica"
            }
        },
        {
            "type": "Feature",
            "geometry": {
                "type": "Point",
                "coordinates": [
                    13.9392252,
                    45.240306
                ]
            }
        },
        {
            "type": "Feature",
            "geometry": {
                "type": "Point",
                "coordinates": [
                    15.8987909,
                    45.8126835
                ]
            },
            "properties": {
                "name": "Knji\u017enica Vrap\u010de"
            }
        },
        {
            "type": "Feature",
            "geometry": {
                "type": "Point",
                "coordinates": [
                    15.8962492,
                    45.8051335
                ]
            },
            "properties": {
                "name": "Knji\u017enica \u0160pansko-sjever"
            }
        },
        {
            "type": "Feature",
            "geometry": {
                "type": "Point",
                "coordinates": [
                    15.8991431,
                    45.7946897
                ]
            },
            "properties": {
                "name": "Knji\u017enica Pre\u010dko"
            }
        },
        {
            "type": "Feature",
            "geometry": {
                "type": "Point",
                "coordinates": [
                    15.9759145,
                    45.8146807
                ]
            },
            "properties": {
                "name": "Knji\u017enica Marija Juri\u0107 Zagorka"
            }
        },
        {
            "type": "Feature",
            "geometry": {
                "type": "Point",
                "coordinates": [
                    14.1249386,
                    45.0880629
                ]
            },
            "properties": {
                "name": "Gradska knji\u017enica Labin"
            }
        },
        {
            "type": "Feature",
            "geometry": {
                "type": "Point",
                "coordinates": [
                    16.9086195,
                    45.2694662
                ]
            }
        },
        {
            "type": "Feature",
            "geometry": {
                "type": "Point",
                "coordinates": [
                    16.3725682,
                    45.4850432
                ]
            },
            "properties": {
                "name": "NK\u010c Sisak - Dje\u010diji odjel"
            }
        },
        {
            "type": "Feature",
            "geometry": {
                "type": "Point",
                "coordinates": [
                    15.9290986,
                    45.8016176
                ]
            },
            "properties": {
                "name": "Knji\u017enica Voltino"
            }
        },
        {
            "type": "Feature",
            "geometry": {
                "type": "Point",
                "coordinates": [
                    15.2336734,
                    44.1182714
                ]
            },
            "properties": {
                "name": "Gradska knjiznica Zadar"
            }
        },
        {
            "type": "Feature",
            "geometry": {
                "type": "Point",
                "coordinates": [
                    15.9919862,
                    45.8085311
                ]
            },
            "properties": {
                "name": "Knji\u017enica Bo\u017eidara Ad\u017eije"
            }
        },
        {
            "type": "Feature",
            "geometry": {
                "type": "Point",
                "coordinates": [
                    16.1937765,
                    43.0577754
                ]
            }
        },
        {
            "type": "Feature",
            "geometry": {
                "type": "Point",
                "coordinates": [
                    16.1223385,
                    46.2244322
                ]
            },
            "properties": {
                "name": "Gradska knji\u017enica i \u010ditaonica \"Gustav Krklec\""
            }
        },
        {
            "type": "Feature",
            "geometry": {
                "type": "Point",
                "coordinates": [
                    16.4757056,
                    43.5414999
                ]
            },
            "properties": {
                "name": "Solinske mlade\u017ei"
            }
        },
        {
            "type": "Feature",
            "geometry": {
                "type": "Point",
                "coordinates": [
                    16.0263795,
                    45.8200112
                ]
            },
            "properties": {
                "name": "knji\u017enica Augusta Cesarca"
            }
        },
        {
            "type": "Feature",
            "geometry": {
                "type": "Point",
                "coordinates": [
                    16.5958785,
                    43.5820287
                ]
            },
            "properties": {
                "name": "Narodna knji\u017enica"
            }
        },
        {
            "type": "Feature",
            "geometry": {
                "type": "Point",
                "coordinates": [
                    15.5841321,
                    45.1140397
                ]
            },
            "properties": {
                "name": "Knji\u017enica i \u010ditaonica Slunj"
            }
        },
        {
            "type": "Feature",
            "geometry": {
                "type": "Point",
                "coordinates": [
                    16.6589184,
                    43.2615329
                ]
            },
            "properties": {
                "name": "Hrvatska \u010ditaonica"
            }
        },
        {
            "type": "Feature",
            "geometry": {
                "type": "Point",
                "coordinates": [
                    15.1660495,
                    43.9376665
                ]
            },
            "properties": {
                "name": "Library"
            }
        },
        {
            "type": "Feature",
            "geometry": {
                "type": "Point",
                "coordinates": [
                    15.9263632,
                    45.8136607
                ]
            },
            "properties": {
                "name": "Knji\u017enica Kusto\u0161ija"
            }
        },
        {
            "type": "Feature",
            "geometry": {
                "type": "Point",
                "coordinates": [
                    16.7177356,
                    42.9607979
                ]
            }
        },
        {
            "type": "Feature",
            "geometry": {
                "type": "Point",
                "coordinates": [
                    15.9719564,
                    45.7960735
                ]
            },
            "properties": {
                "name": "Knji\u017enica Filozofskog fakulteta"
            }
        },
        {
            "type": "Feature",
            "geometry": {
                "type": "Point",
                "coordinates": [
                    15.0558236,
                    44.442732
                ]
            },
            "properties": {
                "name": "Gradska Knji\u017enica Pag"
            }
        },
        {
            "type": "Feature",
            "geometry": {
                "type": "Point",
                "coordinates": [
                    15.7730647,
                    43.7550986
                ]
            },
            "properties": {
                "name": "Gradska knji\u017enica Vodice"
            }
        },
        {
            "type": "Feature",
            "geometry": {
                "type": "Point",
                "coordinates": [
                    16.2751291,
                    45.4423826
                ]
            },
            "properties": {
                "name": "Gradska knji\u017enica i \u010ditaonica Petrinja"
            }
        },
        {
            "type": "Feature",
            "geometry": {
                "type": "Point",
                "coordinates": [
                    17.1799775,
                    42.9742314
                ]
            }
        },
        {
            "type": "Feature",
            "geometry": {
                "type": "Point",
                "coordinates": [
                    15.554314,
                    45.4933157
                ]
            },
            "properties": {
                "name": "Knji\u017enica za mlade"
            }
        },
        {
            "type": "Feature",
            "geometry": {
                "type": "Point",
                "coordinates": [
                    16.1097411,
                    45.8265037
                ]
            }
        },
        {
            "type": "Feature",
            "geometry": {
                "type": "Point",
                "coordinates": [
                    15.9702179,
                    45.2936214
                ]
            },
            "properties": {
                "name": "Knji\u017enica Topusko"
            }
        },
        {
            "type": "Feature",
            "geometry": {
                "type": "Point",
                "coordinates": [
                    16.3387922,
                    46.3051475
                ]
            },
            "properties": {
                "name": "Knji\u017enica \"Metel O\u017eegovi\u0107\" - Dje\u010dji odjel"
            }
        },
        {
            "type": "Feature",
            "geometry": {
                "type": "Point",
                "coordinates": [
                    14.4350471,
                    45.3299877
                ]
            },
            "properties": {
                "name": "Dje\u010dja knji\u017enica 'Beli kamik'"
            }
        },
        {
            "type": "Feature",
            "geometry": {
                "type": "Point",
                "coordinates": [
                    16.7936101,
                    42.9393189
                ]
            }
        },
        {
            "type": "Feature",
            "geometry": {
                "type": "Point",
                "coordinates": [
                    16.3858951,
                    45.457413
                ]
            },
            "properties": {
                "name": "Knji\u017enica i \u010ditaonica Caprag"
            }
        },
        {
            "type": "Feature",
            "geometry": {
                "type": "Point",
                "coordinates": [
                    15.9950857,
                    45.7715377
                ]
            },
            "properties": {
                "name": "Knji\u017enica Novi Zagreb"
            }
        },
        {
            "type": "Feature",
            "geometry": {
                "type": "Point",
                "coordinates": [
                    15.8051633,
                    45.8579605
                ]
            },
            "properties": {
                "name": "Ante Kova\u010di\u0107"
            }
        },
        {
            "type": "Feature",
            "geometry": {
                "type": "Point",
                "coordinates": [
                    16.475198,
                    43.5082375
                ]
            },
            "properties": {
                "name": "Trstenik"
            }
        },
        {
            "type": "Feature",
            "geometry": {
                "type": "Point",
                "coordinates": [
                    13.5623231,
                    45.3150859
                ]
            },
            "properties": {
                "name": "Gradska knji\u017enica"
            }
        },
        {
            "type": "Feature",
            "geometry": {
                "type": "Point",
                "coordinates": [
                    15.7013897,
                    46.2218397
                ]
            }
        },
        {
            "type": "Feature",
            "geometry": {
                "type": "Point",
                "coordinates": [
                    16.6921095,
                    43.1616549
                ]
            },
            "properties": {
                "name": "Op\u0107inska knji\u017enica i \u010ditaonica Jelsa"
            }
        },
        {
            "type": "Feature",
            "geometry": {
                "type": "Point",
                "coordinates": [
                    16.4649425,
                    43.5208961
                ]
            },
            "properties": {
                "name": "Knji\u017enica Ravne njive"
            }
        },
        {
            "type": "Feature",
            "geometry": {
                "type": "Point",
                "coordinates": [
                    14.5348847,
                    45.3057952
                ]
            }
        },
        {
            "type": "Feature",
            "geometry": {
                "type": "Point",
                "coordinates": [
                    15.7982547,
                    43.7248944
                ]
            }
        },
        {
            "type": "Feature",
            "geometry": {
                "type": "Point",
                "coordinates": [
                    15.6157688,
                    44.0335563
                ]
            },
            "properties": {
                "name": "Gradska knji\u017enica Benkovac"
            }
        },
        {
            "type": "Feature",
            "geometry": {
                "type": "Point",
                "coordinates": [
                    15.2277158,
                    44.1121341
                ]
            },
            "properties": {
                "name": "Znanstvena knji\u017enica"
            }
        },
        {
            "type": "Feature",
            "geometry": {
                "type": "Point",
                "coordinates": [
                    15.2384404,
                    44.1043944
                ]
            },
            "properties": {
                "name": "Gradska knji\u017enica - Arbanasi"
            }
        },
        {
            "type": "Feature",
            "geometry": {
                "type": "Point",
                "coordinates": [
                    15.281183,
                    44.1032353
                ]
            },
            "properties": {
                "name": "Podru\u010dna knji\u017enica Plo\u010da"
            }
        },
        {
            "type": "Feature",
            "geometry": {
                "type": "Point",
                "coordinates": [
                    19.0036676,
                    45.3507168
                ]
            }
        },
        {
            "type": "Feature",
            "geometry": {
                "type": "Point",
                "coordinates": [
                    16.1074372,
                    45.81054
                ]
            },
            "properties": {
                "name": "Knji\u017enica Jelkovec"
            }
        },
        {
            "type": "Feature",
            "geometry": {
                "type": "Point",
                "coordinates": [
                    13.6340652,
                    45.0821002
                ]
            },
            "properties": {
                "name": "Centro di Ricerche Storiche Rovigno"
            }
        },
        {
            "type": "Feature",
            "geometry": {
                "type": "Point",
                "coordinates": [
                    15.9743049,
                    45.818407
                ]
            },
            "properties": {
                "name": "Dr\u017eavni arhiv u Zagrebu"
            }
        },
        {
            "type": "Feature",
            "geometry": {
                "type": "Point",
                "coordinates": [
                    15.592034,
                    43.8219906
                ]
            },
            "properties": {
                "name": "Knji\u017enica"
            }
        },
        {
            "type": "Feature",
            "geometry": {
                "type": "Point",
                "coordinates": [
                    14.6873564,
                    45.1748732
                ]
            }
        },
        {
            "type": "Feature",
            "geometry": {
                "type": "Point",
                "coordinates": [
                    16.5948535,
                    43.1836788
                ]
            },
            "properties": {
                "name": "Gradska knji\u017enica i \u010ditaonica"
            }
        },
        {
            "type": "Feature",
            "geometry": {
                "type": "Point",
                "coordinates": [
                    15.9967088,
                    45.8133676
                ]
            },
            "properties": {
                "name": "Knji\u017enica Augusta Cesarca"
            }
        },
        {
            "type": "Feature",
            "geometry": {
                "type": "Point",
                "coordinates": [
                    16.0433525,
                    46.2077963
                ]
            },
            "properties": {
                "name": "Knji\u017enica \"Ivana Belostenca\""
            }
        },
        {
            "type": "Feature",
            "geometry": {
                "type": "Point",
                "coordinates": [
                    17.6481983,
                    43.05245
                ]
            },
            "properties": {
                "name": "Gradska knji\u017enica Metkovi\u0107"
            }
        },
        {
            "type": "Feature",
            "geometry": {
                "type": "Point",
                "coordinates": [
                    15.9264048,
                    45.8139613
                ]
            },
            "properties": {
                "name": "\u010ditaonica \"Vladimir Nazor\""
            }
        },
        {
            "type": "Feature",
            "geometry": {
                "type": "Point",
                "coordinates": [
                    13.633715,
                    45.0821328
                ]
            },
            "properties": {
                "name": "Historical Society"
            }
        },
        {
            "type": "Feature",
            "geometry": {
                "type": "Point",
                "coordinates": [
                    15.5442354,
                    45.4877002
                ]
            },
            "properties": {
                "name": "Ivan Goran Kova\u010di\u0107"
            }
        },
        {
            "type": "Feature",
            "geometry": {
                "type": "Point",
                "coordinates": [
                    14.919272,
                    44.928577
                ]
            },
            "properties": {
                "name": "Knjiznica - Citaonica"
            }
        },
        {
            "type": "Feature",
            "geometry": {
                "type": "Point",
                "coordinates": [
                    16.9779807,
                    45.3412183
                ]
            },
            "properties": {
                "name": "Gradska knji\u017enica i \u010ditaonica Ante Jagar"
            }
        },
        {
            "type": "Feature",
            "geometry": {
                "type": "Point",
                "coordinates": [
                    16.5594441,
                    43.4812868
                ]
            },
            "properties": {
                "name": "Knji\u017enica Podstrana Marka Maruli\u0107a"
            }
        },
        {
            "type": "Feature",
            "geometry": {
                "type": "Point",
                "coordinates": [
                    17.1641205,
                    45.4121645
                ]
            },
            "properties": {
                "name": "Gradska knji\u017enica i \u010ditaonica"
            }
        },
        {
            "type": "Feature",
            "geometry": {
                "type": "Point",
                "coordinates": [
                    15.6501539,
                    45.6710689
                ]
            },
            "properties": {
                "name": "Knji\u017enica"
            }
        },
        {
            "type": "Feature",
            "geometry": {
                "type": "Point",
                "coordinates": [
                    15.9775918,
                    45.7966708
                ]
            },
            "properties": {
                "name": "Nacionalna Sveu\u010dili\u0161na Knji\u017enica"
            }
        },
        {
            "type": "Feature",
            "geometry": {
                "type": "Point",
                "coordinates": [
                    16.0693417,
                    45.7156155
                ]
            },
            "properties": {
                "name": "Pu\u010dko otvoreno u\u010dili\u0161te Velika Gorica"
            }
        },
        {
            "type": "Feature",
            "geometry": {
                "type": "Point",
                "coordinates": [
                    15.9720697,
                    45.7960499
                ]
            }
        },
        {
            "type": "Feature",
            "geometry": {
                "type": "Point",
                "coordinates": [
                    16.4484729,
                    43.5053842
                ]
            },
            "properties": {
                "name": "Gradska knji\u017enica Marka Maruli\u0107a"
            }
        },
        {
            "type": "Feature",
            "geometry": {
                "type": "Point",
                "coordinates": [
                    18.6828212,
                    45.5611713
                ]
            },
            "properties": {
                "name": "Gradska i sveu\u010dili\u0161na knji\u017enica"
            }
        },
        {
            "type": "Feature",
            "geometry": {
                "type": "Point",
                "coordinates": [
                    16.727205,
                    43.6166005
                ]
            },
            "properties": {
                "name": "Trilj"
            }
        },
        {
            "type": "Feature",
            "geometry": {
                "type": "Point",
                "coordinates": [
                    15.9487588,
                    45.8111047
                ]
            },
            "properties": {
                "name": "Knji\u017enica Vladimira Nazora"
            }
        },
        {
            "type": "Feature",
            "geometry": {
                "type": "Point",
                "coordinates": [
                    18.8033547,
                    45.2894845
                ]
            },
            "properties": {
                "name": "Gradska knji\u017enica i \u010ditaonica Vinkovci"
            }
        },
        {
            "type": "Feature",
            "geometry": {
                "type": "Point",
                "coordinates": [
                    16.4341932,
                    46.390264
                ]
            },
            "properties": {
                "name": "Knji\u017enica i \u010ditaonica Nikola Zrinski"
            }
        },
        {
            "type": "Feature",
            "geometry": {
                "type": "Point",
                "coordinates": [
                    13.8468326,
                    44.8721161
                ]
            },
            "properties": {
                "name": "Gradska knji\u017enica i \u010ditaonica Pula"
            }
        },
        {
            "type": "Feature",
            "geometry": {
                "type": "Point",
                "coordinates": [
                    16.4680476,
                    43.5111668
                ]
            },
            "properties": {
                "name": "Sveu\u010dili\u0161na knji\u017enica"
            }
        },
        {
            "type": "Feature",
            "geometry": {
                "type": "Point",
                "coordinates": [
                    13.847004,
                    44.8697221
                ]
            },
            "properties": {
                "name": "Sveu\u010dili\u0161na knji\u017enica"
            }
        },
        {
            "type": "Feature",
            "geometry": {
                "type": "Point",
                "coordinates": [
                    16.3715533,
                    45.4908117
                ]
            }
        },
        {
            "type": "Feature",
            "geometry": {
                "type": "Point",
                "coordinates": [
                    15.5840543,
                    45.1140457
                ]
            },
            "properties": {
                "name": "Pu\u010dko otvoreno u\u010dili\u0161te Slunj"
            }
        },
        {
            "type": "Feature",
            "geometry": {
                "type": "Point",
                "coordinates": [
                    16.8312887,
                    46.1633425
                ]
            },
            "properties": {
                "name": "Gradska knji\u017enica i \u010ditaonica \"Fran Galovi\u0107\""
            }
        },
        {
            "type": "Feature",
            "geometry": {
                "type": "Point",
                "coordinates": [
                    14.3482005,
                    45.3727298
                ]
            },
            "properties": {
                "name": "Knji\u017enica Kastav"
            }
        },
        {
            "type": "Feature",
            "geometry": {
                "type": "Point",
                "coordinates": [
                    16.2044203,
                    45.5892506
                ]
            }
        },
        {
            "type": "Feature",
            "geometry": {
                "type": "Point",
                "coordinates": [
                    16.4179787,
                    45.8850498
                ]
            },
            "properties": {
                "name": "Gradska knji\u017enica"
            }
        },
        {
            "type": "Feature",
            "geometry": {
                "type": "Point",
                "coordinates": [
                    16.841287,
                    45.8980574
                ]
            },
            "properties": {
                "name": "Knji\u017enica Petra Preradovi\u0107a"
            }
        },
        {
            "type": "Feature",
            "geometry": {
                "type": "Point",
                "coordinates": [
                    16.0906133,
                    45.3392829
                ]
            },
            "properties": {
                "name": "Hrvatski dom Glina"
            }
        },
        {
            "type": "Feature",
            "geometry": {
                "type": "Point",
                "coordinates": [
                    15.8929088,
                    43.7344073
                ]
            },
            "properties": {
                "name": "Gradska knji\u017enica Juraj \u0160i\u017egori\u0107"
            }
        },
        {
            "type": "Feature",
            "geometry": {
                "type": "Point",
                "coordinates": [
                    16.4191384,
                    46.4100934
                ]
            },
            "properties": {
                "name": "Knji\u017enica i \u010ditaonica \u0160enkovec"
            }
        },
        {
            "type": "Feature",
            "geometry": {
                "type": "Point",
                "coordinates": [
                    15.8349557,
                    45.8163623
                ]
            },
            "properties": {
                "name": "Knji\u017enica Podsused"
            }
        },
        {
            "type": "Feature",
            "geometry": {
                "type": "Point",
                "coordinates": [
                    15.871244,
                    46.1626904
                ]
            },
            "properties": {
                "name": "Gradska knji\u017enica"
            }
        },
        {
            "type": "Feature",
            "geometry": {
                "type": "Point",
                "coordinates": [
                    15.876139,
                    45.9064273
                ]
            },
            "properties": {
                "name": "Knji\u017enica i \u010ditaonica Bistra"
            }
        },
        {
            "type": "Feature",
            "geometry": {
                "type": "Point",
                "coordinates": [
                    15.9079891,
                    46.0794473
                ]
            },
            "properties": {
                "name": "Village Library"
            }
        },
        {
            "type": "Feature",
            "geometry": {
                "type": "Point",
                "coordinates": [
                    15.226709,
                    45.2655733
                ]
            },
            "properties": {
                "name": "Gradska knji\u017enica i \u010ditaonica"
            }
        },
        {
            "type": "Feature",
            "geometry": {
                "type": "Point",
                "coordinates": [
                    19.3704738,
                    45.2234511
                ]
            },
            "properties": {
                "name": "Gradska knji\u017enica i \u010ditaonica"
            }
        },
        {
            "type": "Feature",
            "geometry": {
                "type": "Point",
                "coordinates": [
                    15.711512,
                    45.8057565
                ]
            },
            "properties": {
                "name": "Gradska knji\u017enica Samobor"
            }
        },
        {
            "type": "Feature",
            "geometry": {
                "type": "Point",
                "coordinates": [
                    16.845244,
                    45.9007047
                ]
            },
            "properties": {
                "name": "Narodna knji\u017enica \"Petar Preradovi\u0107\" - dje\u010dji odjel"
            }
        },
        {
            "type": "Feature",
            "geometry": {
                "type": "Point",
                "coordinates": [
                    15.874249,
                    45.8152635
                ]
            },
            "properties": {
                "name": "Knji\u017enica Gajnice"
            }
        },
        {
            "type": "Feature",
            "geometry": {
                "type": "Point",
                "coordinates": [
                    16.0198977,
                    45.8059887
                ]
            },
            "properties": {
                "name": "Knji\u017enica Silvija Strahimira Kranj\u010devi\u0107a"
            }
        },
        {
            "type": "Feature",
            "geometry": {
                "type": "Point",
                "coordinates": [
                    16.2855277,
                    43.3918463
                ]
            }
        },
        {
            "type": "Feature",
            "geometry": {
                "type": "Point",
                "coordinates": [
                    17.6796157,
                    45.3321265
                ]
            },
            "properties": {
                "name": "Gradska knji\u017enica i \u010ditaonica"
            }
        }
    ],
    "crs": {
        "type": "name",
        "properties": {
            "name": "urn:ogc:def:crs:OGC:1.3:CRS84"
        }
    }
}