{
    "type": "FeatureCollection",
    "features": [
        {
            "type": "Feature",
            "geometry": {
                "type": "Point",
                "coordinates": [
                    13.9255562,
                    42.4586697
                ]
            }
        },
        {
            "type": "Feature",
            "geometry": {
                "type": "Point",
                "coordinates": [
                    11.2273998,
                    46.7831642
                ]
            },
            "properties": {
                "name": "\u00d6ffentliche Bibliothek St. Martin in Passeier"
            }
        },
        {
            "type": "Feature",
            "geometry": {
                "type": "Point",
                "coordinates": [
                    8.9521232,
                    44.4069039
                ]
            },
            "properties": {
                "name": "Biblioteca Edmondo De Amicis"
            }
        },
        {
            "type": "Feature",
            "geometry": {
                "type": "Point",
                "coordinates": [
                    8.9371255,
                    44.4049623
                ]
            },
            "properties": {
                "name": "Biblioteca Civica Berio"
            }
        },
        {
            "type": "Feature",
            "geometry": {
                "type": "Point",
                "coordinates": [
                    9.160815,
                    44.519812
                ]
            }
        },
        {
            "type": "Feature",
            "geometry": {
                "type": "Point",
                "coordinates": [
                    12.1817222,
                    42.2557921
                ]
            }
        },
        {
            "type": "Feature",
            "geometry": {
                "type": "Point",
                "coordinates": [
                    11.7113002,
                    44.3546608
                ]
            },
            "properties": {
                "name": "Biblioteca Comunale"
            }
        },
        {
            "type": "Feature",
            "geometry": {
                "type": "Point",
                "coordinates": [
                    7.7039739,
                    45.0658752
                ]
            },
            "properties": {
                "name": "Biblioteca civica Alberto Geisser"
            }
        },
        {
            "type": "Feature",
            "geometry": {
                "type": "Point",
                "coordinates": [
                    10.2433887,
                    43.8711253
                ]
            },
            "properties": {
                "name": "Biblioteca Comunale"
            }
        },
        {
            "type": "Feature",
            "geometry": {
                "type": "Point",
                "coordinates": [
                    8.9713277,
                    45.6566238
                ]
            },
            "properties": {
                "name": "Biblioteca di Cislago"
            }
        },
        {
            "type": "Feature",
            "geometry": {
                "type": "Point",
                "coordinates": [
                    9.1930974,
                    45.5152399
                ]
            },
            "properties": {
                "name": "biblioteca comunale rionale niguarda"
            }
        },
        {
            "type": "Feature",
            "geometry": {
                "type": "Point",
                "coordinates": [
                    9.1960467,
                    45.4972088
                ]
            },
            "properties": {
                "name": "Biblioteca Zara"
            }
        },
        {
            "type": "Feature",
            "geometry": {
                "type": "Point",
                "coordinates": [
                    11.7341058,
                    43.2134442
                ]
            },
            "properties": {
                "name": "Biblioteca Comunale di Sinalunga"
            }
        },
        {
            "type": "Feature",
            "geometry": {
                "type": "Point",
                "coordinates": [
                    12.243707,
                    44.1388386
                ]
            },
            "properties": {
                "name": "Biblioteca Malatestiana"
            }
        },
        {
            "type": "Feature",
            "geometry": {
                "type": "Point",
                "coordinates": [
                    12.4657831,
                    41.8889521
                ]
            },
            "properties": {
                "name": "Academia de Espa\u00f1a"
            }
        },
        {
            "type": "Feature",
            "geometry": {
                "type": "Point",
                "coordinates": [
                    11.7902799,
                    45.0709218
                ]
            },
            "properties": {
                "name": "Accademia dei Concordi"
            }
        },
        {
            "type": "Feature",
            "geometry": {
                "type": "Point",
                "coordinates": [
                    11.5740301,
                    45.5691045
                ]
            }
        },
        {
            "type": "Feature",
            "geometry": {
                "type": "Point",
                "coordinates": [
                    11.621702,
                    44.8326967
                ]
            },
            "properties": {
                "name": "Biblioteca Comunale Ariostea"
            }
        },
        {
            "type": "Feature",
            "geometry": {
                "type": "Point",
                "coordinates": [
                    12.5217366,
                    41.9265786
                ]
            },
            "properties": {
                "name": "Biblioteca Villa Leopardi"
            }
        },
        {
            "type": "Feature",
            "geometry": {
                "type": "Point",
                "coordinates": [
                    12.9762863,
                    43.6074842
                ]
            },
            "properties": {
                "name": "Biblioteca comunale di Castelleone di Suasa"
            }
        },
        {
            "type": "Feature",
            "geometry": {
                "type": "Point",
                "coordinates": [
                    14.2087084,
                    42.4728244
                ]
            },
            "properties": {
                "name": "Biblioteca \"F. Di Giampaolo\""
            }
        },
        {
            "type": "Feature",
            "geometry": {
                "type": "Point",
                "coordinates": [
                    8.9615294,
                    44.4083489
                ]
            },
            "properties": {
                "name": "Biblioteca Lercari"
            }
        },
        {
            "type": "Feature",
            "geometry": {
                "type": "Point",
                "coordinates": [
                    9.3962485,
                    44.2724063
                ]
            }
        },
        {
            "type": "Feature",
            "geometry": {
                "type": "Point",
                "coordinates": [
                    8.8723896,
                    44.4166562
                ]
            },
            "properties": {
                "name": "Biblioteca Civica F. D. Guerrazzi"
            }
        },
        {
            "type": "Feature",
            "geometry": {
                "type": "Point",
                "coordinates": [
                    11.2439515,
                    46.1279337
                ]
            }
        },
        {
            "type": "Feature",
            "geometry": {
                "type": "Point",
                "coordinates": [
                    12.2175175,
                    46.1388849
                ]
            },
            "properties": {
                "name": "Biblioteca Comunale"
            }
        },
        {
            "type": "Feature",
            "geometry": {
                "type": "Point",
                "coordinates": [
                    9.6895476,
                    45.3639653
                ]
            },
            "properties": {
                "name": "Biblioteca Comunale di Crema"
            }
        },
        {
            "type": "Feature",
            "geometry": {
                "type": "Point",
                "coordinates": [
                    11.354598,
                    46.3674747
                ]
            }
        },
        {
            "type": "Feature",
            "geometry": {
                "type": "Point",
                "coordinates": [
                    8.7176786,
                    45.8420301
                ]
            },
            "properties": {
                "name": "Biblioteca Civica di Gavirate"
            }
        },
        {
            "type": "Feature",
            "geometry": {
                "type": "Point",
                "coordinates": [
                    11.141749,
                    46.0769744
                ]
            },
            "properties": {
                "name": "Biblioteca Comunale Argentario"
            }
        },
        {
            "type": "Feature",
            "geometry": {
                "type": "Point",
                "coordinates": [
                    10.7671895,
                    45.2662771
                ]
            },
            "properties": {
                "name": "Biblioteca comunare di Roverbella"
            }
        },
        {
            "type": "Feature",
            "geometry": {
                "type": "Point",
                "coordinates": [
                    12.0079876,
                    45.8324676
                ]
            },
            "properties": {
                "name": "Biblioteca Comunale"
            }
        },
        {
            "type": "Feature",
            "geometry": {
                "type": "Point",
                "coordinates": [
                    11.099192,
                    43.8853667
                ]
            }
        },
        {
            "type": "Feature",
            "geometry": {
                "type": "Point",
                "coordinates": [
                    11.1341466,
                    46.1921462
                ]
            },
            "properties": {
                "name": "Biblioteca Comunale di San Michele all'Adige"
            }
        },
        {
            "type": "Feature",
            "geometry": {
                "type": "Point",
                "coordinates": [
                    12.2385332,
                    45.6675497
                ]
            },
            "properties": {
                "name": "Biblioteca Civica Borgo Cavour"
            }
        },
        {
            "type": "Feature",
            "geometry": {
                "type": "Point",
                "coordinates": [
                    11.2602771,
                    45.7411509
                ]
            }
        },
        {
            "type": "Feature",
            "geometry": {
                "type": "Point",
                "coordinates": [
                    12.684397,
                    45.7955516
                ]
            },
            "properties": {
                "name": "Biblioteca Annone Veneto"
            }
        },
        {
            "type": "Feature",
            "geometry": {
                "type": "Point",
                "coordinates": [
                    9.3526407,
                    45.6874391
                ]
            },
            "properties": {
                "name": "Biblioteca \"Madre Laura Baraggia\""
            }
        },
        {
            "type": "Feature",
            "geometry": {
                "type": "Point",
                "coordinates": [
                    13.6237993,
                    45.9462493
                ]
            },
            "properties": {
                "name": "Biblioteca Statale Isontina"
            }
        },
        {
            "type": "Feature",
            "geometry": {
                "type": "Point",
                "coordinates": [
                    16.285339,
                    39.5122734
                ]
            },
            "properties": {
                "name": "Biblioteca"
            }
        },
        {
            "type": "Feature",
            "geometry": {
                "type": "Point",
                "coordinates": [
                    11.479083,
                    45.5319515
                ]
            },
            "properties": {
                "name": "Biblioteca Civica del Comune di Creazzo"
            }
        },
        {
            "type": "Feature",
            "geometry": {
                "type": "Point",
                "coordinates": [
                    9.6751722,
                    45.659648
                ]
            }
        },
        {
            "type": "Feature",
            "geometry": {
                "type": "Point",
                "coordinates": [
                    9.6601004,
                    45.6725395
                ]
            }
        },
        {
            "type": "Feature",
            "geometry": {
                "type": "Point",
                "coordinates": [
                    9.530273,
                    45.6129354
                ]
            }
        },
        {
            "type": "Feature",
            "geometry": {
                "type": "Point",
                "coordinates": [
                    10.7962657,
                    46.3147658
                ]
            },
            "properties": {
                "name": "Mezzana"
            }
        },
        {
            "type": "Feature",
            "geometry": {
                "type": "Point",
                "coordinates": [
                    9.0281509,
                    45.5334835
                ]
            },
            "properties": {
                "name": "Biblioteca Comunale"
            }
        },
        {
            "type": "Feature",
            "geometry": {
                "type": "Point",
                "coordinates": [
                    9.0399011,
                    45.5294805
                ]
            },
            "properties": {
                "name": "Biblioteca Popolare"
            }
        },
        {
            "type": "Feature",
            "geometry": {
                "type": "Point",
                "coordinates": [
                    11.3025818,
                    46.0109924
                ]
            },
            "properties": {
                "name": "Biblioteca Comunale"
            }
        },
        {
            "type": "Feature",
            "geometry": {
                "type": "Point",
                "coordinates": [
                    11.9020508,
                    46.7835533
                ]
            },
            "properties": {
                "name": "\u00d6ffentliche Bibliothek"
            }
        },
        {
            "type": "Feature",
            "geometry": {
                "type": "Point",
                "coordinates": [
                    10.970469,
                    43.6066222
                ]
            },
            "properties": {
                "name": "Biblioteca Vallesiana"
            }
        },
        {
            "type": "Feature",
            "geometry": {
                "type": "Point",
                "coordinates": [
                    9.2553114,
                    45.5831674
                ]
            },
            "properties": {
                "name": "Biblioteca Monza - Triante"
            }
        },
        {
            "type": "Feature",
            "geometry": {
                "type": "Point",
                "coordinates": [
                    9.2724811,
                    45.5838734
                ]
            },
            "properties": {
                "name": "Biblioteca Civica - Monza"
            }
        },
        {
            "type": "Feature",
            "geometry": {
                "type": "Point",
                "coordinates": [
                    16.8698152,
                    41.1194828
                ]
            },
            "properties": {
                "name": "Biblioteca Nazionale"
            }
        },
        {
            "type": "Feature",
            "geometry": {
                "type": "Point",
                "coordinates": [
                    11.7155536,
                    46.5587611
                ]
            }
        },
        {
            "type": "Feature",
            "geometry": {
                "type": "Point",
                "coordinates": [
                    12.143103,
                    45.9710424
                ]
            },
            "properties": {
                "name": "Biblioteca \"G.Ragazzoni\""
            }
        },
        {
            "type": "Feature",
            "geometry": {
                "type": "Point",
                "coordinates": [
                    11.0191417,
                    45.4928618
                ]
            }
        },
        {
            "type": "Feature",
            "geometry": {
                "type": "Point",
                "coordinates": [
                    11.3602138,
                    45.7150276
                ]
            },
            "properties": {
                "name": "Biblioteca comunale Renato Bortoli"
            }
        },
        {
            "type": "Feature",
            "geometry": {
                "type": "Point",
                "coordinates": [
                    11.5377247,
                    44.5374018
                ]
            },
            "properties": {
                "name": "Biblioteca \"A. Majani Nas\u00ecca\""
            }
        },
        {
            "type": "Feature",
            "geometry": {
                "type": "Point",
                "coordinates": [
                    11.270777,
                    45.9408157
                ]
            },
            "properties": {
                "name": "Biblioteca \"Sigmund Freud\""
            }
        },
        {
            "type": "Feature",
            "geometry": {
                "type": "Point",
                "coordinates": [
                    8.7821937,
                    45.834948
                ]
            }
        },
        {
            "type": "Feature",
            "geometry": {
                "type": "Point",
                "coordinates": [
                    10.3584565,
                    44.791444
                ]
            },
            "properties": {
                "name": "Biblioteca Cesare Pavese"
            }
        },
        {
            "type": "Feature",
            "geometry": {
                "type": "Point",
                "coordinates": [
                    13.0690331,
                    43.1359556
                ]
            }
        },
        {
            "type": "Feature",
            "geometry": {
                "type": "Point",
                "coordinates": [
                    16.5421563,
                    41.1318901
                ]
            },
            "properties": {
                "name": "Biblioteca comunale Luigi Giovene Marinelli"
            }
        },
        {
            "type": "Feature",
            "geometry": {
                "type": "Point",
                "coordinates": [
                    11.7525759,
                    45.6364357
                ]
            }
        },
        {
            "type": "Feature",
            "geometry": {
                "type": "Point",
                "coordinates": [
                    11.3250088,
                    46.4893175
                ]
            },
            "properties": {
                "name": "Sandro Amadori"
            }
        },
        {
            "type": "Feature",
            "geometry": {
                "type": "Point",
                "coordinates": [
                    11.3202221,
                    46.4855787
                ]
            }
        },
        {
            "type": "Feature",
            "geometry": {
                "type": "Point",
                "coordinates": [
                    16.871797,
                    41.1188024
                ]
            },
            "properties": {
                "name": "Tassalini"
            }
        },
        {
            "type": "Feature",
            "geometry": {
                "type": "Point",
                "coordinates": [
                    8.7683896,
                    45.8399966
                ]
            },
            "properties": {
                "name": "Biblioteca di Luvinate"
            }
        },
        {
            "type": "Feature",
            "geometry": {
                "type": "Point",
                "coordinates": [
                    10.691758,
                    46.3520556
                ]
            },
            "properties": {
                "name": "Biblioteca comunale"
            }
        },
        {
            "type": "Feature",
            "geometry": {
                "type": "Point",
                "coordinates": [
                    11.3761203,
                    44.6461948
                ]
            },
            "properties": {
                "name": "Biblioteca Comunale \"Luigi Arbizzani\""
            }
        },
        {
            "type": "Feature",
            "geometry": {
                "type": "Point",
                "coordinates": [
                    11.1531034,
                    46.6904807
                ]
            },
            "properties": {
                "name": "\u00d6ffentliche Bibliothek Tirol - Biblioteca di Tirolo"
            }
        },
        {
            "type": "Feature",
            "geometry": {
                "type": "Point",
                "coordinates": [
                    11.3151025,
                    44.4872982
                ]
            },
            "properties": {
                "name": "Biblioteca Oriano Tassinari Cl\u00f2"
            }
        },
        {
            "type": "Feature",
            "geometry": {
                "type": "Point",
                "coordinates": [
                    11.3775707,
                    45.6806824
                ]
            },
            "properties": {
                "name": "Biblioteca Civica Walter Giuliano Fabbris"
            }
        },
        {
            "type": "Feature",
            "geometry": {
                "type": "Point",
                "coordinates": [
                    12.0122341,
                    47.0113485
                ]
            },
            "properties": {
                "name": "\u00d6ffentliche Bibliothek"
            }
        },
        {
            "type": "Feature",
            "geometry": {
                "type": "Point",
                "coordinates": [
                    12.994882,
                    45.7782694
                ]
            },
            "properties": {
                "name": "Biblioteca civica"
            }
        },
        {
            "type": "Feature",
            "geometry": {
                "type": "Point",
                "coordinates": [
                    10.8705074,
                    46.0343086
                ]
            },
            "properties": {
                "name": "Biblioteca di Valle"
            }
        },
        {
            "type": "Feature",
            "geometry": {
                "type": "Point",
                "coordinates": [
                    10.9641168,
                    46.1426954
                ]
            }
        },
        {
            "type": "Feature",
            "geometry": {
                "type": "Point",
                "coordinates": [
                    11.7809372,
                    43.0931381
                ]
            },
            "properties": {
                "name": "Biblioteca comunale archivio storico Piero Calamandrei"
            }
        },
        {
            "type": "Feature",
            "geometry": {
                "type": "Point",
                "coordinates": [
                    11.1277538,
                    46.0516272
                ]
            },
            "properties": {
                "name": "Biblioteca Clarina"
            }
        },
        {
            "type": "Feature",
            "geometry": {
                "type": "Point",
                "coordinates": [
                    8.71662,
                    45.2126968
                ]
            },
            "properties": {
                "name": "Biblioteca di Olevano"
            }
        },
        {
            "type": "Feature",
            "geometry": {
                "type": "Point",
                "coordinates": [
                    12.3978551,
                    44.2014193
                ]
            },
            "properties": {
                "name": "Biblioteca Comunale"
            }
        },
        {
            "type": "Feature",
            "geometry": {
                "type": "Point",
                "coordinates": [
                    11.2390306,
                    46.0604948
                ]
            },
            "properties": {
                "name": "Sala Maier"
            }
        },
        {
            "type": "Feature",
            "geometry": {
                "type": "Point",
                "coordinates": [
                    11.3067258,
                    44.7138677
                ]
            },
            "properties": {
                "name": "Biblioteca Comunale"
            }
        },
        {
            "type": "Feature",
            "geometry": {
                "type": "Point",
                "coordinates": [
                    9.2175278,
                    45.4405617
                ]
            },
            "properties": {
                "name": "Biblioteca comunale rionale oglio"
            }
        },
        {
            "type": "Feature",
            "geometry": {
                "type": "Point",
                "coordinates": [
                    9.2748096,
                    45.6305153
                ]
            },
            "properties": {
                "name": "Biblioteca Comunale"
            }
        },
        {
            "type": "Feature",
            "geometry": {
                "type": "Point",
                "coordinates": [
                    12.0324283,
                    45.457304
                ]
            }
        },
        {
            "type": "Feature",
            "geometry": {
                "type": "Point",
                "coordinates": [
                    14.9097553,
                    36.7869861
                ]
            },
            "properties": {
                "name": "Biblioteca Comunale Luigi Capuana"
            }
        },
        {
            "type": "Feature",
            "geometry": {
                "type": "Point",
                "coordinates": [
                    10.4955725,
                    45.6476411
                ]
            },
            "properties": {
                "name": "Biblioteca Comunale"
            }
        },
        {
            "type": "Feature",
            "geometry": {
                "type": "Point",
                "coordinates": [
                    7.5376378,
                    45.0080738
                ]
            },
            "properties": {
                "name": "Biblioteca Comunale \"Sandro Pertini\""
            }
        },
        {
            "type": "Feature",
            "geometry": {
                "type": "Point",
                "coordinates": [
                    11.4041086,
                    44.7010229
                ]
            },
            "properties": {
                "name": "Biblioteca Comunale \"Mario Luzi\""
            }
        },
        {
            "type": "Feature",
            "geometry": {
                "type": "Point",
                "coordinates": [
                    8.1102536,
                    45.5457547
                ]
            },
            "properties": {
                "name": "Biblioteca \"Livio Pozzo\""
            }
        },
        {
            "type": "Feature",
            "geometry": {
                "type": "Point",
                "coordinates": [
                    14.3302916,
                    40.8190016
                ]
            },
            "properties": {
                "name": "Biblioteca Comunale"
            }
        },
        {
            "type": "Feature",
            "geometry": {
                "type": "Point",
                "coordinates": [
                    11.4859825,
                    45.5850841
                ]
            },
            "properties": {
                "name": "Biblioteca - Centro culturale"
            }
        },
        {
            "type": "Feature",
            "geometry": {
                "type": "Point",
                "coordinates": [
                    11.2080438,
                    45.3804618
                ]
            },
            "properties": {
                "name": "Biblioteca comunale di Belfiore"
            }
        },
        {
            "type": "Feature",
            "geometry": {
                "type": "Point",
                "coordinates": [
                    16.556607,
                    40.390524
                ]
            },
            "properties": {
                "name": "biblioteca comunale"
            }
        },
        {
            "type": "Feature",
            "geometry": {
                "type": "Point",
                "coordinates": [
                    8.6973546,
                    45.8355121
                ]
            },
            "properties": {
                "name": "Biblioteca di Bardello"
            }
        },
        {
            "type": "Feature",
            "geometry": {
                "type": "Point",
                "coordinates": [
                    11.6564287,
                    46.716127
                ]
            },
            "properties": {
                "name": "Stadtbiblothek - Biblioteca Civica"
            }
        },
        {
            "type": "Feature",
            "geometry": {
                "type": "Point",
                "coordinates": [
                    8.9229593,
                    44.4163613
                ]
            },
            "properties": {
                "name": "Biblioteca universitaria di Genova (BUG)"
            }
        },
        {
            "type": "Feature",
            "geometry": {
                "type": "Point",
                "coordinates": [
                    10.5787783,
                    45.8491507
                ]
            },
            "properties": {
                "name": "Biblioteca comunale Nino Scaglia"
            }
        },
        {
            "type": "Feature",
            "geometry": {
                "type": "Point",
                "coordinates": [
                    13.5722946,
                    45.9025602
                ]
            },
            "properties": {
                "name": "Biblioteca Comunale"
            }
        },
        {
            "type": "Feature",
            "geometry": {
                "type": "Point",
                "coordinates": [
                    11.2212842,
                    46.1754862
                ]
            },
            "properties": {
                "name": "Biblioteca  Palazzo Maffei"
            }
        },
        {
            "type": "Feature",
            "geometry": {
                "type": "Point",
                "coordinates": [
                    11.1922298,
                    43.818776
                ]
            },
            "properties": {
                "name": "Biblioteca di Scienze"
            }
        },
        {
            "type": "Feature",
            "geometry": {
                "type": "Point",
                "coordinates": [
                    13.5869741,
                    45.7823746
                ]
            },
            "properties": {
                "name": "Biblioteca Comunale del Villaggio del Pescatore"
            }
        },
        {
            "type": "Feature",
            "geometry": {
                "type": "Point",
                "coordinates": [
                    8.7640027,
                    45.7003666
                ]
            },
            "properties": {
                "name": "Biblioteca Civica"
            }
        },
        {
            "type": "Feature",
            "geometry": {
                "type": "Point",
                "coordinates": [
                    12.853559,
                    45.9142433
                ]
            },
            "properties": {
                "name": "Biblioteca comunale"
            }
        },
        {
            "type": "Feature",
            "geometry": {
                "type": "Point",
                "coordinates": [
                    11.3504802,
                    46.4870301
                ]
            },
            "properties": {
                "name": "Biblioteca Haslach"
            }
        },
        {
            "type": "Feature",
            "geometry": {
                "type": "Point",
                "coordinates": [
                    9.0768629,
                    45.5971309
                ]
            },
            "properties": {
                "name": "Biblioteca Cesate"
            }
        },
        {
            "type": "Feature",
            "geometry": {
                "type": "Point",
                "coordinates": [
                    11.866254,
                    43.4622998
                ]
            },
            "properties": {
                "name": "Biblioteca Ospedale San Donato"
            }
        },
        {
            "type": "Feature",
            "geometry": {
                "type": "Point",
                "coordinates": [
                    12.6099193,
                    43.0727815
                ]
            },
            "properties": {
                "name": "Biblioteca comunale"
            }
        },
        {
            "type": "Feature",
            "geometry": {
                "type": "Point",
                "coordinates": [
                    12.3583654,
                    45.9210506
                ]
            }
        },
        {
            "type": "Feature",
            "geometry": {
                "type": "Point",
                "coordinates": [
                    11.5075376,
                    45.6143268
                ]
            },
            "properties": {
                "name": "Biblioteca Comunale di Caldogno"
            }
        },
        {
            "type": "Feature",
            "geometry": {
                "type": "Point",
                "coordinates": [
                    11.1136361,
                    46.1380999
                ]
            }
        },
        {
            "type": "Feature",
            "geometry": {
                "type": "Point",
                "coordinates": [
                    16.2890176,
                    41.3210832
                ]
            },
            "properties": {
                "name": "Biblioteca Comunale"
            }
        },
        {
            "type": "Feature",
            "geometry": {
                "type": "Point",
                "coordinates": [
                    12.5312408,
                    41.9476576
                ]
            },
            "properties": {
                "name": "Flaiano"
            }
        },
        {
            "type": "Feature",
            "geometry": {
                "type": "Point",
                "coordinates": [
                    12.4251951,
                    41.9104619
                ]
            },
            "properties": {
                "name": "Casa del Parco"
            }
        },
        {
            "type": "Feature",
            "geometry": {
                "type": "Point",
                "coordinates": [
                    9.2093712,
                    45.3722241
                ]
            }
        },
        {
            "type": "Feature",
            "geometry": {
                "type": "Point",
                "coordinates": [
                    16.4121853,
                    41.1519131
                ]
            },
            "properties": {
                "name": "Biblioteca Comunale M.R.Imbriani"
            }
        },
        {
            "type": "Feature",
            "geometry": {
                "type": "Point",
                "coordinates": [
                    15.0897354,
                    36.7179563
                ]
            }
        },
        {
            "type": "Feature",
            "geometry": {
                "type": "Point",
                "coordinates": [
                    11.1463518,
                    43.4733047
                ]
            },
            "properties": {
                "name": "Biblioteca Comunale"
            }
        },
        {
            "type": "Feature",
            "geometry": {
                "type": "Point",
                "coordinates": [
                    11.3423221,
                    44.4946418
                ]
            },
            "properties": {
                "name": "Biblioteca Salaborsa"
            }
        },
        {
            "type": "Feature",
            "geometry": {
                "type": "Point",
                "coordinates": [
                    11.1845383,
                    43.657648
                ]
            },
            "properties": {
                "name": "Biblioteca Comunale"
            }
        },
        {
            "type": "Feature",
            "geometry": {
                "type": "Point",
                "coordinates": [
                    12.238276,
                    45.6660883
                ]
            },
            "properties": {
                "name": "Biblioteca Civica Gil"
            }
        },
        {
            "type": "Feature",
            "geometry": {
                "type": "Point",
                "coordinates": [
                    13.7076387,
                    42.8735641
                ]
            },
            "properties": {
                "name": "Biblioteca Comunale"
            }
        },
        {
            "type": "Feature",
            "geometry": {
                "type": "Point",
                "coordinates": [
                    8.8859699,
                    45.4665582
                ]
            },
            "properties": {
                "name": "Biblioteca Oriana Fallaci"
            }
        },
        {
            "type": "Feature",
            "geometry": {
                "type": "Point",
                "coordinates": [
                    9.6933279,
                    45.6756848
                ]
            }
        },
        {
            "type": "Feature",
            "geometry": {
                "type": "Point",
                "coordinates": [
                    9.188972,
                    45.448677
                ]
            },
            "properties": {
                "name": "Biblioteca"
            }
        },
        {
            "type": "Feature",
            "geometry": {
                "type": "Point",
                "coordinates": [
                    12.046145,
                    45.7736677
                ]
            },
            "properties": {
                "name": "Biblioteca Comunale"
            }
        },
        {
            "type": "Feature",
            "geometry": {
                "type": "Point",
                "coordinates": [
                    11.2570924,
                    46.4562183
                ]
            },
            "properties": {
                "name": "Mittelpunktsbibliothek \u00dcberetsch - Biblioteca di Appiano"
            }
        },
        {
            "type": "Feature",
            "geometry": {
                "type": "Point",
                "coordinates": [
                    9.0048098,
                    44.9911498
                ]
            },
            "properties": {
                "name": "Civica Biblioteca Ricottiana"
            }
        },
        {
            "type": "Feature",
            "geometry": {
                "type": "Point",
                "coordinates": [
                    11.0986885,
                    43.8764293
                ]
            },
            "properties": {
                "name": "Biblioteca comunale A. Lazzerini"
            }
        },
        {
            "type": "Feature",
            "geometry": {
                "type": "Point",
                "coordinates": [
                    11.0961276,
                    43.8796516
                ]
            },
            "properties": {
                "name": "Biblioteca Roncioniana"
            }
        },
        {
            "type": "Feature",
            "geometry": {
                "type": "Point",
                "coordinates": [
                    11.3195214,
                    46.4040615
                ]
            }
        },
        {
            "type": "Feature",
            "geometry": {
                "type": "Point",
                "coordinates": [
                    11.3206977,
                    46.4051889
                ]
            }
        },
        {
            "type": "Feature",
            "geometry": {
                "type": "Point",
                "coordinates": [
                    8.685966,
                    44.4042498
                ]
            },
            "properties": {
                "name": "Biblioteca civica Giuseppe Mazzini"
            }
        },
        {
            "type": "Feature",
            "geometry": {
                "type": "Point",
                "coordinates": [
                    10.8945271,
                    43.0521575
                ]
            }
        },
        {
            "type": "Feature",
            "geometry": {
                "type": "Point",
                "coordinates": [
                    13.571686,
                    42.8551618
                ]
            },
            "properties": {
                "name": "Biblioteca Comunale \"Giulio Gabrielli\""
            }
        },
        {
            "type": "Feature",
            "geometry": {
                "type": "Point",
                "coordinates": [
                    11.352995,
                    44.4971104
                ]
            },
            "properties": {
                "name": "Biblioteca Universitaria"
            }
        },
        {
            "type": "Feature",
            "geometry": {
                "type": "Point",
                "coordinates": [
                    11.2498291,
                    46.5290393
                ]
            },
            "properties": {
                "name": "Bibliothek Terlan"
            }
        },
        {
            "type": "Feature",
            "geometry": {
                "type": "Point",
                "coordinates": [
                    6.9483006,
                    45.7178913
                ]
            }
        },
        {
            "type": "Feature",
            "geometry": {
                "type": "Point",
                "coordinates": [
                    10.074587,
                    45.8164478
                ]
            },
            "properties": {
                "name": "Mondadori"
            }
        },
        {
            "type": "Feature",
            "geometry": {
                "type": "Point",
                "coordinates": [
                    10.079238,
                    45.8201266
                ]
            }
        },
        {
            "type": "Feature",
            "geometry": {
                "type": "Point",
                "coordinates": [
                    13.6898848,
                    42.933856
                ]
            },
            "properties": {
                "name": "Biblioteca Comunale"
            }
        },
        {
            "type": "Feature",
            "geometry": {
                "type": "Point",
                "coordinates": [
                    8.6111784,
                    45.8139411
                ]
            },
            "properties": {
                "name": "Biblioteca comunale"
            }
        },
        {
            "type": "Feature",
            "geometry": {
                "type": "Point",
                "coordinates": [
                    12.165886,
                    45.6472457
                ]
            },
            "properties": {
                "name": "Biblioteca Comunale di Quinto di Treviso"
            }
        },
        {
            "type": "Feature",
            "geometry": {
                "type": "Point",
                "coordinates": [
                    12.1077651,
                    42.4208794
                ]
            },
            "properties": {
                "name": "Biblioteca Comunale degli Ardenti"
            }
        },
        {
            "type": "Feature",
            "geometry": {
                "type": "Point",
                "coordinates": [
                    12.3457956,
                    45.4369406
                ]
            }
        },
        {
            "type": "Feature",
            "geometry": {
                "type": "Point",
                "coordinates": [
                    13.5154966,
                    43.5871104
                ]
            },
            "properties": {
                "name": "Centro di ateneo di documentazione - Polo di Monte Dago"
            }
        },
        {
            "type": "Feature",
            "geometry": {
                "type": "Point",
                "coordinates": [
                    9.1261338,
                    45.0100636
                ]
            },
            "properties": {
                "name": "Civica"
            }
        },
        {
            "type": "Feature",
            "geometry": {
                "type": "Point",
                "coordinates": [
                    14.1480403,
                    42.512875
                ]
            },
            "properties": {
                "name": "Biblioteca Comunale \"Emidio Agostinone\""
            }
        },
        {
            "type": "Feature",
            "geometry": {
                "type": "Point",
                "coordinates": [
                    11.121074,
                    46.3952797
                ]
            },
            "properties": {
                "name": "Biblioteca Don Fabio Fattor"
            }
        },
        {
            "type": "Feature",
            "geometry": {
                "type": "Point",
                "coordinates": [
                    11.9090327,
                    44.4202183
                ]
            },
            "properties": {
                "name": "Biblioteca Trisi"
            }
        },
        {
            "type": "Feature",
            "geometry": {
                "type": "Point",
                "coordinates": [
                    8.9465657,
                    44.3978077
                ]
            },
            "properties": {
                "name": "Biblioteca Servitana"
            }
        },
        {
            "type": "Feature",
            "geometry": {
                "type": "Point",
                "coordinates": [
                    10.4431674,
                    43.7637045
                ]
            },
            "properties": {
                "name": "Biblioteca Comunale \"Uliano Martini\""
            }
        },
        {
            "type": "Feature",
            "geometry": {
                "type": "Point",
                "coordinates": [
                    11.5861872,
                    45.4432742
                ]
            },
            "properties": {
                "name": "Biblioteca Comunale di Castegnero"
            }
        },
        {
            "type": "Feature",
            "geometry": {
                "type": "Point",
                "coordinates": [
                    11.8302203,
                    46.1763325
                ]
            },
            "properties": {
                "name": "Biblioteca Intercomunale Di Primiero"
            }
        },
        {
            "type": "Feature",
            "geometry": {
                "type": "Point",
                "coordinates": [
                    8.8232487,
                    45.8187024
                ]
            },
            "properties": {
                "name": "Biblioteca civica"
            }
        },
        {
            "type": "Feature",
            "geometry": {
                "type": "Point",
                "coordinates": [
                    10.2166782,
                    45.4912513
                ]
            },
            "properties": {
                "name": "Biblioteca comunale"
            }
        },
        {
            "type": "Feature",
            "geometry": {
                "type": "Point",
                "coordinates": [
                    12.2297173,
                    45.492153
                ]
            },
            "properties": {
                "name": "Biblioteca Civica di Mestre"
            }
        },
        {
            "type": "Feature",
            "geometry": {
                "type": "Point",
                "coordinates": [
                    15.0856899,
                    37.5050653
                ]
            }
        },
        {
            "type": "Feature",
            "geometry": {
                "type": "Point",
                "coordinates": [
                    11.3216967,
                    44.2703
                ]
            }
        },
        {
            "type": "Feature",
            "geometry": {
                "type": "Point",
                "coordinates": [
                    11.2398741,
                    44.0013725
                ]
            },
            "properties": {
                "name": "Biblioteca Comunale"
            }
        },
        {
            "type": "Feature",
            "geometry": {
                "type": "Point",
                "coordinates": [
                    10.9540848,
                    45.8175528
                ]
            },
            "properties": {
                "name": "Biblioteca"
            }
        },
        {
            "type": "Feature",
            "geometry": {
                "type": "Point",
                "coordinates": [
                    11.4593605,
                    46.5388045
                ]
            }
        },
        {
            "type": "Feature",
            "geometry": {
                "type": "Point",
                "coordinates": [
                    10.5405423,
                    45.8083746
                ]
            }
        },
        {
            "type": "Feature",
            "geometry": {
                "type": "Point",
                "coordinates": [
                    12.344918,
                    45.4289582
                ]
            },
            "properties": {
                "name": "Fondazione Eni Enrico Mattei"
            }
        },
        {
            "type": "Feature",
            "geometry": {
                "type": "Point",
                "coordinates": [
                    11.6629831,
                    46.7080271
                ]
            },
            "properties": {
                "name": "Millander Dorfbibliothek"
            }
        },
        {
            "type": "Feature",
            "geometry": {
                "type": "Point",
                "coordinates": [
                    11.2036701,
                    46.5438536
                ]
            },
            "properties": {
                "name": "Bilbliothek"
            }
        },
        {
            "type": "Feature",
            "geometry": {
                "type": "Point",
                "coordinates": [
                    13.3655338,
                    45.7665061
                ]
            },
            "properties": {
                "name": "Biblioteca comunale \"Giovanni Battista Brusin\""
            }
        },
        {
            "type": "Feature",
            "geometry": {
                "type": "Point",
                "coordinates": [
                    8.4014528,
                    40.8348645
                ]
            },
            "properties": {
                "name": "Biblioteca Comunale"
            }
        },
        {
            "type": "Feature",
            "geometry": {
                "type": "Point",
                "coordinates": [
                    11.032498,
                    45.4383065
                ]
            },
            "properties": {
                "name": "Biblioteca comunale"
            }
        },
        {
            "type": "Feature",
            "geometry": {
                "type": "Point",
                "coordinates": [
                    10.6292248,
                    44.6965226
                ]
            },
            "properties": {
                "name": "Biblioteca Panizzi"
            }
        },
        {
            "type": "Feature",
            "geometry": {
                "type": "Point",
                "coordinates": [
                    9.6445104,
                    39.843111
                ]
            },
            "properties": {
                "name": "Biblioteca Comunale"
            }
        },
        {
            "type": "Feature",
            "geometry": {
                "type": "Point",
                "coordinates": [
                    8.7811274,
                    45.7407043
                ]
            },
            "properties": {
                "name": "Biblioteca Comunale di Sumirago"
            }
        },
        {
            "type": "Feature",
            "geometry": {
                "type": "Point",
                "coordinates": [
                    9.7631926,
                    45.6695838
                ]
            },
            "properties": {
                "name": "Biblioteca"
            }
        },
        {
            "type": "Feature",
            "geometry": {
                "type": "Point",
                "coordinates": [
                    10.6289046,
                    44.70193
                ]
            },
            "properties": {
                "name": "Biblioteca Universitaria"
            }
        },
        {
            "type": "Feature",
            "geometry": {
                "type": "Point",
                "coordinates": [
                    8.2413996,
                    44.1090916
                ]
            },
            "properties": {
                "name": "Biblioteca"
            }
        },
        {
            "type": "Feature",
            "geometry": {
                "type": "Point",
                "coordinates": [
                    10.6501206,
                    44.7038913
                ]
            },
            "properties": {
                "name": "Biblioteca di Santa Croce"
            }
        },
        {
            "type": "Feature",
            "geometry": {
                "type": "Point",
                "coordinates": [
                    12.9161541,
                    41.7776046
                ]
            },
            "properties": {
                "name": "Biblioteca comunale"
            }
        },
        {
            "type": "Feature",
            "geometry": {
                "type": "Point",
                "coordinates": [
                    11.8063545,
                    45.5911619
                ]
            }
        },
        {
            "type": "Feature",
            "geometry": {
                "type": "Point",
                "coordinates": [
                    11.1593781,
                    46.6710138
                ]
            },
            "properties": {
                "name": "Stadtbibliothek - Biblioteca Civica"
            }
        },
        {
            "type": "Feature",
            "geometry": {
                "type": "Point",
                "coordinates": [
                    11.3462576,
                    46.4945158
                ]
            },
            "properties": {
                "name": "EURAC Library"
            }
        },
        {
            "type": "Feature",
            "geometry": {
                "type": "Point",
                "coordinates": [
                    12.2322984,
                    45.9732777
                ]
            },
            "properties": {
                "name": "Biblioteca comunale"
            }
        },
        {
            "type": "Feature",
            "geometry": {
                "type": "Point",
                "coordinates": [
                    11.1224302,
                    46.0664051
                ]
            },
            "properties": {
                "name": "Viaggeria"
            }
        },
        {
            "type": "Feature",
            "geometry": {
                "type": "Point",
                "coordinates": [
                    11.1305997,
                    46.0663863
                ]
            },
            "properties": {
                "name": "Il papiro"
            }
        },
        {
            "type": "Feature",
            "geometry": {
                "type": "Point",
                "coordinates": [
                    12.4341165,
                    37.8000164
                ]
            },
            "properties": {
                "name": "Biblioteca Comunale"
            }
        },
        {
            "type": "Feature",
            "geometry": {
                "type": "Point",
                "coordinates": [
                    10.6620277,
                    45.6876213
                ]
            },
            "properties": {
                "name": "Biblioteca Comunale di Gargnano"
            }
        },
        {
            "type": "Feature",
            "geometry": {
                "type": "Point",
                "coordinates": [
                    9.3514909,
                    45.4351108
                ]
            },
            "properties": {
                "name": "Biblioteca di Pantigliate"
            }
        },
        {
            "type": "Feature",
            "geometry": {
                "type": "Point",
                "coordinates": [
                    11.3535141,
                    44.4957057
                ]
            },
            "properties": {
                "name": "Biblioteca. Dipartimento di Scienze Farmaceutiche"
            }
        },
        {
            "type": "Feature",
            "geometry": {
                "type": "Point",
                "coordinates": [
                    11.3553523,
                    44.5003826
                ]
            },
            "properties": {
                "name": "Biblioteca Biomedica Centrale"
            }
        },
        {
            "type": "Feature",
            "geometry": {
                "type": "Point",
                "coordinates": [
                    11.9973884,
                    45.9019437
                ]
            },
            "properties": {
                "name": "Biblioteca Comunale Celestino Piva"
            }
        },
        {
            "type": "Feature",
            "geometry": {
                "type": "Point",
                "coordinates": [
                    11.7875501,
                    45.6498697
                ]
            },
            "properties": {
                "name": "Biblioteca Civica di Cittadella"
            }
        },
        {
            "type": "Feature",
            "geometry": {
                "type": "Point",
                "coordinates": [
                    11.8686139,
                    45.3462482
                ]
            },
            "properties": {
                "name": "Biblioteca di Albignasego"
            }
        },
        {
            "type": "Feature",
            "geometry": {
                "type": "Point",
                "coordinates": [
                    12.589862,
                    37.6514844
                ]
            },
            "properties": {
                "name": "Biblioteca del Seminario Vescovile"
            }
        },
        {
            "type": "Feature",
            "geometry": {
                "type": "Point",
                "coordinates": [
                    9.7255069,
                    45.3448844
                ]
            }
        },
        {
            "type": "Feature",
            "geometry": {
                "type": "Point",
                "coordinates": [
                    9.0613796,
                    45.6987539
                ]
            },
            "properties": {
                "name": "Biblioteca comunale"
            }
        },
        {
            "type": "Feature",
            "geometry": {
                "type": "Point",
                "coordinates": [
                    9.0384395,
                    45.7200233
                ]
            },
            "properties": {
                "name": "Biblioteca comunale"
            }
        },
        {
            "type": "Feature",
            "geometry": {
                "type": "Point",
                "coordinates": [
                    8.0537626,
                    45.3495365
                ]
            },
            "properties": {
                "name": "Biblioteca \"Mons. Luigi Bongianino\""
            }
        },
        {
            "type": "Feature",
            "geometry": {
                "type": "Point",
                "coordinates": [
                    9.5924338,
                    45.2318501
                ]
            }
        },
        {
            "type": "Feature",
            "geometry": {
                "type": "Point",
                "coordinates": [
                    11.754987,
                    46.8135301
                ]
            }
        },
        {
            "type": "Feature",
            "geometry": {
                "type": "Point",
                "coordinates": [
                    8.4516043,
                    45.1342742
                ]
            },
            "properties": {
                "name": "Biblioteca civica Giovanni Canna"
            }
        },
        {
            "type": "Feature",
            "geometry": {
                "type": "Point",
                "coordinates": [
                    9.5250099,
                    45.857073
                ]
            },
            "properties": {
                "name": "Biblioteca di Fuipiano"
            }
        },
        {
            "type": "Feature",
            "geometry": {
                "type": "Point",
                "coordinates": [
                    9.6909203,
                    40.3801198
                ]
            },
            "properties": {
                "name": "Biblioteca Comunale"
            }
        },
        {
            "type": "Feature",
            "geometry": {
                "type": "Point",
                "coordinates": [
                    10.8504552,
                    44.5724509
                ]
            },
            "properties": {
                "name": "Biblioteca Matilda"
            }
        },
        {
            "type": "Feature",
            "geometry": {
                "type": "Point",
                "coordinates": [
                    9.6287688,
                    45.6667634
                ]
            },
            "properties": {
                "name": "Biblioteca civica"
            }
        },
        {
            "type": "Feature",
            "geometry": {
                "type": "Point",
                "coordinates": [
                    13.7792683,
                    45.6532327
                ]
            },
            "properties": {
                "name": "Biblioteca nazionale slovena"
            }
        },
        {
            "type": "Feature",
            "geometry": {
                "type": "Point",
                "coordinates": [
                    10.5922456,
                    43.5654613
                ]
            },
            "properties": {
                "name": "Biblioteca Comunale"
            }
        },
        {
            "type": "Feature",
            "geometry": {
                "type": "Point",
                "coordinates": [
                    8.4460942,
                    45.1375331
                ]
            },
            "properties": {
                "name": "Biblioteca per Ragazzi \"Emanuele Luzzati\""
            }
        },
        {
            "type": "Feature",
            "geometry": {
                "type": "Point",
                "coordinates": [
                    9.6960579,
                    45.0525583
                ]
            },
            "properties": {
                "name": "Biblioteca comunale"
            }
        },
        {
            "type": "Feature",
            "geometry": {
                "type": "Point",
                "coordinates": [
                    10.8888687,
                    45.9204214
                ]
            },
            "properties": {
                "name": "Biblioteca di Arco"
            }
        },
        {
            "type": "Feature",
            "geometry": {
                "type": "Point",
                "coordinates": [
                    11.1818205,
                    46.0886643
                ]
            }
        },
        {
            "type": "Feature",
            "geometry": {
                "type": "Point",
                "coordinates": [
                    9.1888654,
                    45.4723532
                ]
            },
            "properties": {
                "name": "Biblioteca Nazionale Braidense"
            }
        },
        {
            "type": "Feature",
            "geometry": {
                "type": "Point",
                "coordinates": [
                    9.1673769,
                    45.5166084
                ]
            },
            "properties": {
                "name": "biblioteca comunale rionale affori"
            }
        },
        {
            "type": "Feature",
            "geometry": {
                "type": "Point",
                "coordinates": [
                    11.3347376,
                    46.5041244
                ]
            }
        },
        {
            "type": "Feature",
            "geometry": {
                "type": "Point",
                "coordinates": [
                    9.250886,
                    45.8660568
                ]
            }
        },
        {
            "type": "Feature",
            "geometry": {
                "type": "Point",
                "coordinates": [
                    11.3485064,
                    46.4999175
                ]
            },
            "properties": {
                "name": "Biblioteca civica \"Cesare Battisti\" - Stadtbibliothek"
            }
        },
        {
            "type": "Feature",
            "geometry": {
                "type": "Point",
                "coordinates": [
                    9.2711063,
                    45.4806088
                ]
            }
        },
        {
            "type": "Feature",
            "geometry": {
                "type": "Point",
                "coordinates": [
                    11.171851,
                    43.55976
                ]
            },
            "properties": {
                "name": "Libreria Tempolibri"
            }
        },
        {
            "type": "Feature",
            "geometry": {
                "type": "Point",
                "coordinates": [
                    8.8888244,
                    45.6291551
                ]
            },
            "properties": {
                "name": "Biblioteca comunale Gianna e Carlo Schapira"
            }
        },
        {
            "type": "Feature",
            "geometry": {
                "type": "Point",
                "coordinates": [
                    13.3626564,
                    45.870633
                ]
            },
            "properties": {
                "name": "Biblioteca Comunale"
            }
        },
        {
            "type": "Feature",
            "geometry": {
                "type": "Point",
                "coordinates": [
                    9.8834632,
                    45.6000977
                ]
            },
            "properties": {
                "name": "Biblioteca di Palazzolo S/O G.U. Lanfranchi"
            }
        },
        {
            "type": "Feature",
            "geometry": {
                "type": "Point",
                "coordinates": [
                    11.3288945,
                    44.4877901
                ]
            },
            "properties": {
                "name": "Biblioteca di ingegneria Gian Paolo Dore"
            }
        },
        {
            "type": "Feature",
            "geometry": {
                "type": "Point",
                "coordinates": [
                    13.6732543,
                    45.7499162
                ]
            },
            "properties": {
                "name": "Biblioteca comunale / Ob\u010dinska knji\u017enica Nade Pertot"
            }
        },
        {
            "type": "Feature",
            "geometry": {
                "type": "Point",
                "coordinates": [
                    8.8512593,
                    45.6138225
                ]
            },
            "properties": {
                "name": "Biblioteca comunale Gian Battista Roggia"
            }
        },
        {
            "type": "Feature",
            "geometry": {
                "type": "Point",
                "coordinates": [
                    11.1703279,
                    43.5416272
                ]
            },
            "properties": {
                "name": "Casa della Cultura \"Alda Merini\""
            }
        },
        {
            "type": "Feature",
            "geometry": {
                "type": "Point",
                "coordinates": [
                    12.1735647,
                    45.452917
                ]
            },
            "properties": {
                "name": "Biblioteca Comunale di Oriago"
            }
        },
        {
            "type": "Feature",
            "geometry": {
                "type": "Point",
                "coordinates": [
                    11.028131,
                    46.1832646
                ]
            },
            "properties": {
                "name": "Biblioteca Comunale di Cavedago"
            }
        },
        {
            "type": "Feature",
            "geometry": {
                "type": "Point",
                "coordinates": [
                    11.6081253,
                    45.7179393
                ]
            },
            "properties": {
                "name": "Biblioteca civica"
            }
        },
        {
            "type": "Feature",
            "geometry": {
                "type": "Point",
                "coordinates": [
                    11.0937547,
                    45.9356343
                ]
            },
            "properties": {
                "name": "Biblioteca di Calliano"
            }
        },
        {
            "type": "Feature",
            "geometry": {
                "type": "Point",
                "coordinates": [
                    11.6270949,
                    46.8398437
                ]
            }
        },
        {
            "type": "Feature",
            "geometry": {
                "type": "Point",
                "coordinates": [
                    9.2268098,
                    45.4795274
                ]
            },
            "properties": {
                "name": "Biblioteca Campus Leonardo - Politecnico di Milano"
            }
        },
        {
            "type": "Feature",
            "geometry": {
                "type": "Point",
                "coordinates": [
                    9.1701199,
                    39.2540246
                ]
            },
            "properties": {
                "name": "Biblioteca e Mediateca Comunale"
            }
        },
        {
            "type": "Feature",
            "geometry": {
                "type": "Point",
                "coordinates": [
                    11.8265646,
                    44.3899789
                ]
            },
            "properties": {
                "name": "Biblioteca"
            }
        },
        {
            "type": "Feature",
            "geometry": {
                "type": "Point",
                "coordinates": [
                    12.5809905,
                    43.3486765
                ]
            },
            "properties": {
                "name": "Biblioteca comunale Sperelliana"
            }
        },
        {
            "type": "Feature",
            "geometry": {
                "type": "Point",
                "coordinates": [
                    11.8289281,
                    44.5125434
                ]
            },
            "properties": {
                "name": "Biblioteca comunale"
            }
        },
        {
            "type": "Feature",
            "geometry": {
                "type": "Point",
                "coordinates": [
                    11.6672623,
                    46.796189
                ]
            }
        },
        {
            "type": "Feature",
            "geometry": {
                "type": "Point",
                "coordinates": [
                    12.5899971,
                    37.651224
                ]
            },
            "properties": {
                "name": "Biblioteca Comunale \"Leonardo Bonanno\""
            }
        },
        {
            "type": "Feature",
            "geometry": {
                "type": "Point",
                "coordinates": [
                    9.2079111,
                    46.0308373
                ]
            }
        },
        {
            "type": "Feature",
            "geometry": {
                "type": "Point",
                "coordinates": [
                    10.7191253,
                    45.7402781
                ]
            }
        },
        {
            "type": "Feature",
            "geometry": {
                "type": "Point",
                "coordinates": [
                    9.2235036,
                    45.3598417
                ]
            },
            "properties": {
                "name": "Biblioteca comunale"
            }
        },
        {
            "type": "Feature",
            "geometry": {
                "type": "Point",
                "coordinates": [
                    11.532504,
                    44.6444382
                ]
            },
            "properties": {
                "name": "Biblioteca A. Gramsci"
            }
        },
        {
            "type": "Feature",
            "geometry": {
                "type": "Point",
                "coordinates": [
                    11.9582409,
                    42.0165392
                ]
            },
            "properties": {
                "name": "Museo del Mare e della Navigazione Antica"
            }
        },
        {
            "type": "Feature",
            "geometry": {
                "type": "Point",
                "coordinates": [
                    11.3384514,
                    46.2638058
                ]
            },
            "properties": {
                "name": "Casa della Lettura"
            }
        },
        {
            "type": "Feature",
            "geometry": {
                "type": "Point",
                "coordinates": [
                    15.3835889,
                    41.6913948
                ]
            },
            "properties": {
                "name": "Biblioteca Nardella"
            }
        },
        {
            "type": "Feature",
            "geometry": {
                "type": "Point",
                "coordinates": [
                    9.678072,
                    45.4962817
                ]
            },
            "properties": {
                "name": "Biblioteca comunale"
            }
        },
        {
            "type": "Feature",
            "geometry": {
                "type": "Point",
                "coordinates": [
                    11.9343008,
                    45.5704461
                ]
            },
            "properties": {
                "name": "Biblioteca comunale"
            }
        },
        {
            "type": "Feature",
            "geometry": {
                "type": "Point",
                "coordinates": [
                    15.0561662,
                    40.6187245
                ]
            },
            "properties": {
                "name": "Biblioteca Comunale \"S. Angelluzzi\""
            }
        },
        {
            "type": "Feature",
            "geometry": {
                "type": "Point",
                "coordinates": [
                    9.3232164,
                    45.7723352
                ]
            },
            "properties": {
                "name": "Biblioteca di Sirone"
            }
        },
        {
            "type": "Feature",
            "geometry": {
                "type": "Point",
                "coordinates": [
                    11.4206537,
                    44.6347162
                ]
            }
        },
        {
            "type": "Feature",
            "geometry": {
                "type": "Point",
                "coordinates": [
                    7.592766,
                    45.8044063
                ]
            },
            "properties": {
                "name": "Biblioteca Comunale"
            }
        },
        {
            "type": "Feature",
            "geometry": {
                "type": "Point",
                "coordinates": [
                    10.0780961,
                    45.5270333
                ]
            },
            "properties": {
                "name": "Biblioteca comunale"
            }
        },
        {
            "type": "Feature",
            "geometry": {
                "type": "Point",
                "coordinates": [
                    10.2434806,
                    45.5916565
                ]
            },
            "properties": {
                "name": "Biblioteca Comunale di Bovezzo Peppino Impastato"
            }
        },
        {
            "type": "Feature",
            "geometry": {
                "type": "Point",
                "coordinates": [
                    12.3572413,
                    46.1211241
                ]
            }
        },
        {
            "type": "Feature",
            "geometry": {
                "type": "Point",
                "coordinates": [
                    12.0444869,
                    44.2203521
                ]
            },
            "properties": {
                "name": "Biblioteca Comunale"
            }
        },
        {
            "type": "Feature",
            "geometry": {
                "type": "Point",
                "coordinates": [
                    12.5900415,
                    37.6512664
                ]
            },
            "properties": {
                "name": "Biblioteca dei Bambini \"L'isola che non c'\u00e8\""
            }
        },
        {
            "type": "Feature",
            "geometry": {
                "type": "Point",
                "coordinates": [
                    12.2919693,
                    45.9771801
                ]
            },
            "properties": {
                "name": "Biblioteca Civica Citt\u00e0 di Vittorio Veneto"
            }
        },
        {
            "type": "Feature",
            "geometry": {
                "type": "Point",
                "coordinates": [
                    11.9345549,
                    46.7960462
                ]
            },
            "properties": {
                "name": "LibriKa Stadtbibliothek und Universit\u00e4tsbibliothek / Biblioteca civica ed universitaria"
            }
        },
        {
            "type": "Feature",
            "geometry": {
                "type": "Point",
                "coordinates": [
                    9.5278313,
                    45.2707501
                ]
            },
            "properties": {
                "name": "Biblioteca Comunale \"Don Lorenzo Milani\""
            }
        },
        {
            "type": "Feature",
            "geometry": {
                "type": "Point",
                "coordinates": [
                    11.2539465,
                    43.7697484
                ]
            },
            "properties": {
                "name": "Biblioteca di Palagio di Parte Guelfa"
            }
        },
        {
            "type": "Feature",
            "geometry": {
                "type": "Point",
                "coordinates": [
                    15.0786282,
                    37.5035252
                ]
            },
            "properties": {
                "name": "Emeroteca"
            }
        },
        {
            "type": "Feature",
            "geometry": {
                "type": "Point",
                "coordinates": [
                    15.0786271,
                    37.5038256
                ]
            },
            "properties": {
                "name": "Facolt\u00e0 di Lettere"
            }
        },
        {
            "type": "Feature",
            "geometry": {
                "type": "Point",
                "coordinates": [
                    11.2596986,
                    43.7723468
                ]
            },
            "properties": {
                "name": "Biblioteca delle Oblate"
            }
        },
        {
            "type": "Feature",
            "geometry": {
                "type": "Point",
                "coordinates": [
                    11.5281528,
                    43.6757124
                ]
            },
            "properties": {
                "name": "Biblioteca Comunale"
            }
        },
        {
            "type": "Feature",
            "geometry": {
                "type": "Point",
                "coordinates": [
                    11.3367514,
                    46.498419
                ]
            }
        },
        {
            "type": "Feature",
            "geometry": {
                "type": "Point",
                "coordinates": [
                    9.1191992,
                    45.6002305
                ]
            },
            "properties": {
                "name": "Biblioteca Comunale"
            }
        },
        {
            "type": "Feature",
            "geometry": {
                "type": "Point",
                "coordinates": [
                    10.8414238,
                    45.8852272
                ]
            },
            "properties": {
                "name": "Biblioteca Comunale"
            }
        },
        {
            "type": "Feature",
            "geometry": {
                "type": "Point",
                "coordinates": [
                    12.1108583,
                    42.715872
                ]
            },
            "properties": {
                "name": "Biblioteca comunale Luigi Fumi"
            }
        },
        {
            "type": "Feature",
            "geometry": {
                "type": "Point",
                "coordinates": [
                    9.368251,
                    45.5171342
                ]
            },
            "properties": {
                "name": "Biblioteca Civica \"Roberto Camerani\" di Cassina de' Pecchi"
            }
        },
        {
            "type": "Feature",
            "geometry": {
                "type": "Point",
                "coordinates": [
                    9.0163023,
                    45.5988686
                ]
            },
            "properties": {
                "name": "Biblioteca Comunale"
            }
        },
        {
            "type": "Feature",
            "geometry": {
                "type": "Point",
                "coordinates": [
                    12.4372052,
                    41.9049616
                ]
            },
            "properties": {
                "name": "Biblioteca Valle Aurelia"
            }
        },
        {
            "type": "Feature",
            "geometry": {
                "type": "Point",
                "coordinates": [
                    9.491999,
                    45.0592619
                ]
            },
            "properties": {
                "name": "Libreria Comunale"
            }
        },
        {
            "type": "Feature",
            "geometry": {
                "type": "Point",
                "coordinates": [
                    11.4338761,
                    46.8974826
                ]
            },
            "properties": {
                "name": "Stadtbibliothek"
            }
        },
        {
            "type": "Feature",
            "geometry": {
                "type": "Point",
                "coordinates": [
                    8.9029606,
                    45.9028486
                ]
            }
        },
        {
            "type": "Feature",
            "geometry": {
                "type": "Point",
                "coordinates": [
                    16.0842431,
                    39.9728963
                ]
            }
        },
        {
            "type": "Feature",
            "geometry": {
                "type": "Point",
                "coordinates": [
                    11.7501904,
                    46.0444049
                ]
            }
        },
        {
            "type": "Feature",
            "geometry": {
                "type": "Point",
                "coordinates": [
                    9.0337642,
                    45.4464176
                ]
            }
        },
        {
            "type": "Feature",
            "geometry": {
                "type": "Point",
                "coordinates": [
                    10.6748756,
                    43.8151758
                ]
            },
            "properties": {
                "name": "Biblioteca comunale Aldo Carrara"
            }
        },
        {
            "type": "Feature",
            "geometry": {
                "type": "Point",
                "coordinates": [
                    9.1813945,
                    45.0339204
                ]
            },
            "properties": {
                "name": "Biblioteca pubblica Stellio Lozza"
            }
        },
        {
            "type": "Feature",
            "geometry": {
                "type": "Point",
                "coordinates": [
                    7.4238523,
                    45.873737
                ]
            }
        },
        {
            "type": "Feature",
            "geometry": {
                "type": "Point",
                "coordinates": [
                    9.7460673,
                    45.9567177
                ]
            },
            "properties": {
                "name": "Biblioteca"
            }
        },
        {
            "type": "Feature",
            "geometry": {
                "type": "Point",
                "coordinates": [
                    11.2405392,
                    46.2725018
                ]
            },
            "properties": {
                "name": "Bibliothek - Biblioteca"
            }
        },
        {
            "type": "Feature",
            "geometry": {
                "type": "Point",
                "coordinates": [
                    11.7730044,
                    46.476649
                ]
            }
        },
        {
            "type": "Feature",
            "geometry": {
                "type": "Point",
                "coordinates": [
                    14.197489,
                    42.4816391
                ]
            },
            "properties": {
                "name": "Micro Biblioteca Sociale \"Andrea Pazienza\""
            }
        },
        {
            "type": "Feature",
            "geometry": {
                "type": "Point",
                "coordinates": [
                    8.7825748,
                    45.5800888
                ]
            },
            "properties": {
                "name": "Biblioteca comunale"
            }
        },
        {
            "type": "Feature",
            "geometry": {
                "type": "Point",
                "coordinates": [
                    8.8542265,
                    45.5015604
                ]
            }
        },
        {
            "type": "Feature",
            "geometry": {
                "type": "Point",
                "coordinates": [
                    8.5759626,
                    40.0495744
                ]
            },
            "properties": {
                "name": "Biblioteca di Narbolia"
            }
        },
        {
            "type": "Feature",
            "geometry": {
                "type": "Point",
                "coordinates": [
                    11.0916158,
                    46.2134435
                ]
            }
        },
        {
            "type": "Feature",
            "geometry": {
                "type": "Point",
                "coordinates": [
                    9.3320483,
                    45.9960176
                ]
            },
            "properties": {
                "name": "Biblioteca civica di Esino Lario"
            }
        },
        {
            "type": "Feature",
            "geometry": {
                "type": "Point",
                "coordinates": [
                    9.1469459,
                    45.3769022
                ]
            },
            "properties": {
                "name": "Biblioteca Civica di Rozzano"
            }
        },
        {
            "type": "Feature",
            "geometry": {
                "type": "Point",
                "coordinates": [
                    9.1890594,
                    45.5369066
                ]
            },
            "properties": {
                "name": "Biblioteca Comunale di Bresso"
            }
        },
        {
            "type": "Feature",
            "geometry": {
                "type": "Point",
                "coordinates": [
                    11.8589157,
                    45.5865053
                ]
            },
            "properties": {
                "name": "Biblioteca comunale"
            }
        },
        {
            "type": "Feature",
            "geometry": {
                "type": "Point",
                "coordinates": [
                    11.6154737,
                    45.5196857
                ]
            }
        },
        {
            "type": "Feature",
            "geometry": {
                "type": "Point",
                "coordinates": [
                    11.2101612,
                    46.2400773
                ]
            },
            "properties": {
                "name": "Biblioteca Comunale - Gemeindebibliothek"
            }
        },
        {
            "type": "Feature",
            "geometry": {
                "type": "Point",
                "coordinates": [
                    12.4818296,
                    41.8963829
                ]
            },
            "properties": {
                "name": "Biblioteca di Archeologia e Storia dell'Arte"
            }
        },
        {
            "type": "Feature",
            "geometry": {
                "type": "Point",
                "coordinates": [
                    12.4685792,
                    41.8990685
                ]
            },
            "properties": {
                "name": "Casa delle letterature"
            }
        },
        {
            "type": "Feature",
            "geometry": {
                "type": "Point",
                "coordinates": [
                    11.7717931,
                    45.774847
                ]
            },
            "properties": {
                "name": "Biblioteca Comunale di Romano"
            }
        },
        {
            "type": "Feature",
            "geometry": {
                "type": "Point",
                "coordinates": [
                    11.1699249,
                    46.2485123
                ]
            },
            "properties": {
                "name": "Biblioteca Comunale"
            }
        },
        {
            "type": "Feature",
            "geometry": {
                "type": "Point",
                "coordinates": [
                    9.227092,
                    45.5937364
                ]
            },
            "properties": {
                "name": "Biblioteca Civica di Muggi\u00f2"
            }
        },
        {
            "type": "Feature",
            "geometry": {
                "type": "Point",
                "coordinates": [
                    12.2709884,
                    41.7320258
                ]
            },
            "properties": {
                "name": "Biblioteca Elsa Morante"
            }
        },
        {
            "type": "Feature",
            "geometry": {
                "type": "Point",
                "coordinates": [
                    11.6639566,
                    45.2268975
                ]
            },
            "properties": {
                "name": "Biblioteca Centrale"
            }
        },
        {
            "type": "Feature",
            "geometry": {
                "type": "Point",
                "coordinates": [
                    11.6980888,
                    45.31139
                ]
            },
            "properties": {
                "name": "Biblioteca didattica"
            }
        },
        {
            "type": "Feature",
            "geometry": {
                "type": "Point",
                "coordinates": [
                    9.0549165,
                    45.4859283
                ]
            },
            "properties": {
                "name": "Biblioteca"
            }
        },
        {
            "type": "Feature",
            "geometry": {
                "type": "Point",
                "coordinates": [
                    9.9345855,
                    45.637087
                ]
            },
            "properties": {
                "name": "Biblioteca Comunale di Capriolo"
            }
        },
        {
            "type": "Feature",
            "geometry": {
                "type": "Point",
                "coordinates": [
                    16.0771884,
                    38.4080548
                ]
            },
            "properties": {
                "name": "Biblioteca Comunale"
            }
        },
        {
            "type": "Feature",
            "geometry": {
                "type": "Point",
                "coordinates": [
                    11.9190463,
                    45.7879144
                ]
            },
            "properties": {
                "name": "Biblioteca Comunale"
            }
        },
        {
            "type": "Feature",
            "geometry": {
                "type": "Point",
                "coordinates": [
                    12.3871242,
                    43.1129206
                ]
            },
            "properties": {
                "name": "Biblioteca Umanistica"
            }
        },
        {
            "type": "Feature",
            "geometry": {
                "type": "Point",
                "coordinates": [
                    11.9363522,
                    45.9385816
                ]
            },
            "properties": {
                "name": "Biblioteca comunale"
            }
        },
        {
            "type": "Feature",
            "geometry": {
                "type": "Point",
                "coordinates": [
                    12.4731335,
                    41.8932457
                ]
            },
            "properties": {
                "name": "Biblioteca Comunale Ragazzi"
            }
        },
        {
            "type": "Feature",
            "geometry": {
                "type": "Point",
                "coordinates": [
                    8.843704,
                    44.42409
                ]
            },
            "properties": {
                "name": "Biblioteca Civica Dino Bruschi"
            }
        },
        {
            "type": "Feature",
            "geometry": {
                "type": "Point",
                "coordinates": [
                    8.5415252,
                    39.9716415
                ]
            }
        },
        {
            "type": "Feature",
            "geometry": {
                "type": "Point",
                "coordinates": [
                    8.5383366,
                    39.9971604
                ]
            }
        },
        {
            "type": "Feature",
            "geometry": {
                "type": "Point",
                "coordinates": [
                    11.8807689,
                    45.6934288
                ]
            },
            "properties": {
                "name": "Villa Priuli"
            }
        },
        {
            "type": "Feature",
            "geometry": {
                "type": "Point",
                "coordinates": [
                    8.9950175,
                    39.0338424
                ]
            },
            "properties": {
                "name": "Bibblioteca comunale"
            }
        },
        {
            "type": "Feature",
            "geometry": {
                "type": "Point",
                "coordinates": [
                    11.8407274,
                    45.8291786
                ]
            },
            "properties": {
                "name": "Biblioteca Comunale"
            }
        },
        {
            "type": "Feature",
            "geometry": {
                "type": "Point",
                "coordinates": [
                    11.7378514,
                    45.7673063
                ]
            },
            "properties": {
                "name": "La Bassanese"
            }
        },
        {
            "type": "Feature",
            "geometry": {
                "type": "Point",
                "coordinates": [
                    11.7368614,
                    45.7672703
                ]
            },
            "properties": {
                "name": "Libreria Palazzo Roberti"
            }
        },
        {
            "type": "Feature",
            "geometry": {
                "type": "Point",
                "coordinates": [
                    11.7359785,
                    45.7658175
                ]
            },
            "properties": {
                "name": "Biblioteca Comunale"
            }
        },