{
    "type": "FeatureCollection",
    "features": [
        {
            "type": "Feature",
            "geometry": {
                "type": "Point",
                "coordinates": [
                    4.8829856,
                    52.0866057
                ]
            },
            "properties": {
                "name": "Bibliotheek De Beuk"
            }
        },
        {
            "type": "Feature",
            "geometry": {
                "type": "Point",
                "coordinates": [
                    4.7911545,
                    51.9351101
                ]
            },
            "properties": {
                "name": "Openbare Bibliotheek"
            }
        },
        {
            "type": "Feature",
            "geometry": {
                "type": "Point",
                "coordinates": [
                    5.8354842,
                    50.8625052
                ]
            }
        },
        {
            "type": "Feature",
            "geometry": {
                "type": "Point",
                "coordinates": [
                    5.6902818,
                    50.8445507
                ]
            },
            "properties": {
                "name": "Universiteitsbibliotheek"
            }
        },
        {
            "type": "Feature",
            "geometry": {
                "type": "Point",
                "coordinates": [
                    5.4875047,
                    51.4478102
                ]
            },
            "properties": {
                "name": "Bibliotheek TU/e"
            }
        },
        {
            "type": "Feature",
            "geometry": {
                "type": "Point",
                "coordinates": [
                    5.4747252,
                    52.5078979
                ]
            },
            "properties": {
                "name": "Flevomeer Bibliotheek Lelystad"
            }
        },
        {
            "type": "Feature",
            "geometry": {
                "type": "Point",
                "coordinates": [
                    4.4710566,
                    52.1858979
                ]
            },
            "properties": {
                "name": "Bibliotheek Bollenstreek"
            }
        },
        {
            "type": "Feature",
            "geometry": {
                "type": "Point",
                "coordinates": [
                    4.9427324,
                    51.6295989
                ]
            },
            "properties": {
                "name": "Theek 5"
            }
        },
        {
            "type": "Feature",
            "geometry": {
                "type": "Point",
                "coordinates": [
                    5.6671456,
                    52.0464963
                ]
            },
            "properties": {
                "name": "Cultura"
            }
        },
        {
            "type": "Feature",
            "geometry": {
                "type": "Point",
                "coordinates": [
                    5.0434039,
                    52.1048276
                ]
            }
        },
        {
            "type": "Feature",
            "geometry": {
                "type": "Point",
                "coordinates": [
                    4.3738441,
                    51.9347838
                ]
            },
            "properties": {
                "name": "Waterweg Schiedam Noord"
            }
        },
        {
            "type": "Feature",
            "geometry": {
                "type": "Point",
                "coordinates": [
                    4.9081983,
                    52.3762463
                ]
            },
            "properties": {
                "name": "IHLIA Homodok"
            }
        },
        {
            "type": "Feature",
            "geometry": {
                "type": "Point",
                "coordinates": [
                    4.3235507,
                    52.0372236
                ]
            },
            "properties": {
                "name": "Biblioteek Rijswijk"
            }
        },
        {
            "type": "Feature",
            "geometry": {
                "type": "Point",
                "coordinates": [
                    5.6501851,
                    52.0179304
                ]
            },
            "properties": {
                "name": "Bieb"
            }
        },
        {
            "type": "Feature",
            "geometry": {
                "type": "Point",
                "coordinates": [
                    4.85578,
                    52.3453125
                ]
            },
            "properties": {
                "name": "Bibl. Olympisch Kwartier"
            }
        },
        {
            "type": "Feature",
            "geometry": {
                "type": "Point",
                "coordinates": [
                    4.9576187,
                    52.5049071
                ]
            },
            "properties": {
                "name": "Centrale Bibliotheek Purmerend"
            }
        },
        {
            "type": "Feature",
            "geometry": {
                "type": "Point",
                "coordinates": [
                    4.6538706,
                    51.8225158
                ]
            },
            "properties": {
                "name": "Bibliotheek Walburg"
            }
        },
        {
            "type": "Feature",
            "geometry": {
                "type": "Point",
                "coordinates": [
                    4.8608678,
                    51.6458408
                ]
            },
            "properties": {
                "name": "Theek5"
            }
        },
        {
            "type": "Feature",
            "geometry": {
                "type": "Point",
                "coordinates": [
                    4.4538703,
                    52.1504661
                ]
            },
            "properties": {
                "name": "Stevenshof"
            }
        },
        {
            "type": "Feature",
            "geometry": {
                "type": "Point",
                "coordinates": [
                    4.4931796,
                    52.1584323
                ]
            },
            "properties": {
                "name": "Bibliotheek"
            }
        },
        {
            "type": "Feature",
            "geometry": {
                "type": "Point",
                "coordinates": [
                    5.9273869,
                    50.8821112
                ]
            },
            "properties": {
                "name": "Openbare Bibliotheek Voerendaal"
            }
        },
        {
            "type": "Feature",
            "geometry": {
                "type": "Point",
                "coordinates": [
                    4.6401207,
                    51.5719569
                ]
            }
        },
        {
            "type": "Feature",
            "geometry": {
                "type": "Point",
                "coordinates": [
                    4.8825724,
                    52.3525874
                ]
            },
            "properties": {
                "name": "Bibliotheek Roelof Hartplein"
            }
        },
        {
            "type": "Feature",
            "geometry": {
                "type": "Point",
                "coordinates": [
                    6.8812299,
                    52.6630402
                ]
            },
            "properties": {
                "name": "Bibliotheek Schoonebeek"
            }
        },
        {
            "type": "Feature",
            "geometry": {
                "type": "Point",
                "coordinates": [
                    5.095486,
                    51.9941828
                ]
            },
            "properties": {
                "name": "Bibliotheek Vianen"
            }
        },
        {
            "type": "Feature",
            "geometry": {
                "type": "Point",
                "coordinates": [
                    4.8256208,
                    52.3559939
                ]
            },
            "properties": {
                "name": "Bibliotheek"
            }
        },
        {
            "type": "Feature",
            "geometry": {
                "type": "Point",
                "coordinates": [
                    5.8183871,
                    50.8254815
                ]
            },
            "properties": {
                "name": "Heuvelland bibliotheek Margraten"
            }
        },
        {
            "type": "Feature",
            "geometry": {
                "type": "Point",
                "coordinates": [
                    5.3758169,
                    52.0650551
                ]
            },
            "properties": {
                "name": "Bibliotheek Z-O-U-T"
            }
        },
        {
            "type": "Feature",
            "geometry": {
                "type": "Point",
                "coordinates": [
                    6.1700734,
                    51.3694814
                ]
            },
            "properties": {
                "name": "Bibliotheek Venlo"
            }
        },
        {
            "type": "Feature",
            "geometry": {
                "type": "Point",
                "coordinates": [
                    5.1191159,
                    52.0915106
                ]
            },
            "properties": {
                "name": "Bibliotheek Utrecht"
            }
        },
        {
            "type": "Feature",
            "geometry": {
                "type": "Point",
                "coordinates": [
                    6.9570287,
                    52.9883544
                ]
            },
            "properties": {
                "name": "Openbare Bibliotheek"
            }
        },
        {
            "type": "Feature",
            "geometry": {
                "type": "Point",
                "coordinates": [
                    4.7721289,
                    51.8235529
                ]
            },
            "properties": {
                "name": "Openbare bibliotheek Sliedrecht"
            }
        },
        {
            "type": "Feature",
            "geometry": {
                "type": "Point",
                "coordinates": [
                    4.7798208,
                    52.3372851
                ]
            },
            "properties": {
                "name": "Bibliotheek Badhoevedorp"
            }
        },
        {
            "type": "Feature",
            "geometry": {
                "type": "Point",
                "coordinates": [
                    6.8580599,
                    52.2287494
                ]
            },
            "properties": {
                "name": "Bibliotheek Twekkelerveld"
            }
        },
        {
            "type": "Feature",
            "geometry": {
                "type": "Point",
                "coordinates": [
                    4.8759451,
                    52.3326071
                ]
            },
            "properties": {
                "name": "Bibl. Buitenveldert"
            }
        },
        {
            "type": "Feature",
            "geometry": {
                "type": "Point",
                "coordinates": [
                    6.461484,
                    52.3643464
                ]
            },
            "properties": {
                "name": "ZINiN Bibliotheek"
            }
        },
        {
            "type": "Feature",
            "geometry": {
                "type": "Point",
                "coordinates": [
                    4.9114441,
                    52.3635334
                ]
            },
            "properties": {
                "name": "LLC"
            }
        },
        {
            "type": "Feature",
            "geometry": {
                "type": "Point",
                "coordinates": [
                    4.8897127,
                    52.3676855
                ]
            },
            "properties": {
                "name": "Universiteitsbibliotheek"
            }
        },
        {
            "type": "Feature",
            "geometry": {
                "type": "Point",
                "coordinates": [
                    5.8657597,
                    51.8610888
                ]
            },
            "properties": {
                "name": "Bibliotheek Gelderland Zuid - Lent"
            }
        },
        {
            "type": "Feature",
            "geometry": {
                "type": "Point",
                "coordinates": [
                    5.7854793,
                    53.3041201
                ]
            }
        },
        {
            "type": "Feature",
            "geometry": {
                "type": "Point",
                "coordinates": [
                    6.047781,
                    51.3573263
                ]
            },
            "properties": {
                "name": "Bibliotheek Maasbree"
            }
        },
        {
            "type": "Feature",
            "geometry": {
                "type": "Point",
                "coordinates": [
                    5.2863384,
                    53.3808239
                ]
            },
            "properties": {
                "name": "Openbare Bibliotheek Terschelling"
            }
        },
        {
            "type": "Feature",
            "geometry": {
                "type": "Point",
                "coordinates": [
                    5.8441127,
                    51.917233
                ]
            }
        },
        {
            "type": "Feature",
            "geometry": {
                "type": "Point",
                "coordinates": [
                    6.6243715,
                    52.4106922
                ]
            },
            "properties": {
                "name": "Openbare Bibliotheek"
            }
        },
        {
            "type": "Feature",
            "geometry": {
                "type": "Point",
                "coordinates": [
                    5.0855652,
                    52.6531693
                ]
            },
            "properties": {
                "name": "Bibliotheek Kersenboogerd"
            }
        },
        {
            "type": "Feature",
            "geometry": {
                "type": "Point",
                "coordinates": [
                    5.1021154,
                    52.7707704
                ]
            },
            "properties": {
                "name": "Bibliotheek Medemblik"
            }
        },
        {
            "type": "Feature",
            "geometry": {
                "type": "Point",
                "coordinates": [
                    6.8979443,
                    52.4074085
                ]
            },
            "properties": {
                "name": "Bibliotheek Dinkelland"
            }
        },
        {
            "type": "Feature",
            "geometry": {
                "type": "Point",
                "coordinates": [
                    7.0003049,
                    52.3774852
                ]
            },
            "properties": {
                "name": "Denekamp"
            }
        },
        {
            "type": "Feature",
            "geometry": {
                "type": "Point",
                "coordinates": [
                    6.0341087,
                    51.4109858
                ]
            },
            "properties": {
                "name": "Bibliotheek"
            }
        },
        {
            "type": "Feature",
            "geometry": {
                "type": "Point",
                "coordinates": [
                    5.0333362,
                    51.9635677
                ]
            }
        },
        {
            "type": "Feature",
            "geometry": {
                "type": "Point",
                "coordinates": [
                    5.4044808,
                    51.6767117
                ]
            },
            "properties": {
                "name": "Bibliotheek"
            }
        },
        {
            "type": "Feature",
            "geometry": {
                "type": "Point",
                "coordinates": [
                    4.3629297,
                    52.0087609
                ]
            },
            "properties": {
                "name": "DOK"
            }
        },
        {
            "type": "Feature",
            "geometry": {
                "type": "Point",
                "coordinates": [
                    4.6767646,
                    51.7848671
                ]
            },
            "properties": {
                "name": "servicepunt Sterrenburg"
            }
        },
        {
            "type": "Feature",
            "geometry": {
                "type": "Point",
                "coordinates": [
                    5.4744395,
                    51.4390734
                ]
            },
            "properties": {
                "name": "De Bibliotheek Eindhoven"
            }
        },
        {
            "type": "Feature",
            "geometry": {
                "type": "Point",
                "coordinates": [
                    5.4418057,
                    51.4189154
                ]
            },
            "properties": {
                "name": "Openbare Bibliotheek Eindhoven filiaal Gestel"
            }
        },
        {
            "type": "Feature",
            "geometry": {
                "type": "Point",
                "coordinates": [
                    5.4917166,
                    51.5109476
                ]
            },
            "properties": {
                "name": "Openbare bibliotheek"
            }
        },
        {
            "type": "Feature",
            "geometry": {
                "type": "Point",
                "coordinates": [
                    6.7095167,
                    52.2646646
                ]
            },
            "properties": {
                "name": "Bibliotheek Delden"
            }
        },
        {
            "type": "Feature",
            "geometry": {
                "type": "Point",
                "coordinates": [
                    4.8177223,
                    52.8613601
                ]
            },
            "properties": {
                "name": "Bibliotheek Anna Paulowna"
            }
        },
        {
            "type": "Feature",
            "geometry": {
                "type": "Point",
                "coordinates": [
                    4.5041657,
                    52.1984104
                ]
            },
            "properties": {
                "name": "Bibliotheek"
            }
        },
        {
            "type": "Feature",
            "geometry": {
                "type": "Point",
                "coordinates": [
                    7.0061557,
                    52.3743863
                ]
            },
            "properties": {
                "name": "'t Heemhoes"
            }
        },
        {
            "type": "Feature",
            "geometry": {
                "type": "Point",
                "coordinates": [
                    5.6717839,
                    51.6030951
                ]
            },
            "properties": {
                "name": "Bibliotheek Boekel"
            }
        },
        {
            "type": "Feature",
            "geometry": {
                "type": "Point",
                "coordinates": [
                    4.4334907,
                    52.0159285
                ]
            },
            "properties": {
                "name": "Bibliotheek"
            }
        },
        {
            "type": "Feature",
            "geometry": {
                "type": "Point",
                "coordinates": [
                    5.1234708,
                    52.0727704
                ]
            },
            "properties": {
                "name": "Bibliotheek Hoograven"
            }
        },
        {
            "type": "Feature",
            "geometry": {
                "type": "Point",
                "coordinates": [
                    5.3632599,
                    51.7159165
                ]
            },
            "properties": {
                "name": "Openbare bibliotheek"
            }
        },
        {
            "type": "Feature",
            "geometry": {
                "type": "Point",
                "coordinates": [
                    6.6509559,
                    52.3381497
                ]
            },
            "properties": {
                "name": "bibliotheek stadion"
            }
        },
        {
            "type": "Feature",
            "geometry": {
                "type": "Point",
                "coordinates": [
                    6.7601507,
                    53.0058816
                ]
            },
            "properties": {
                "name": "Bibliotheek Gieten"
            }
        },
        {
            "type": "Feature",
            "geometry": {
                "type": "Point",
                "coordinates": [
                    6.6846637,
                    53.0944505
                ]
            },
            "properties": {
                "name": "Bibliotheek Zuidlaren"
            }
        },
        {
            "type": "Feature",
            "geometry": {
                "type": "Point",
                "coordinates": [
                    5.1675968,
                    52.0340708
                ]
            },
            "properties": {
                "name": "Bibliotheek Houten-Centrum"
            }
        },
        {
            "type": "Feature",
            "geometry": {
                "type": "Point",
                "coordinates": [
                    5.9857115,
                    51.1942953
                ]
            },
            "properties": {
                "name": "Openbare Bibliotheek Roermond"
            }
        },
        {
            "type": "Feature",
            "geometry": {
                "type": "Point",
                "coordinates": [
                    5.9833386,
                    51.9877694
                ]
            },
            "properties": {
                "name": "de Bibliotheek Velp"
            }
        },
        {
            "type": "Feature",
            "geometry": {
                "type": "Point",
                "coordinates": [
                    4.3921438,
                    52.093766
                ]
            },
            "properties": {
                "name": "Bibliotheek Leidschendam-Voorburg"
            }
        },
        {
            "type": "Feature",
            "geometry": {
                "type": "Point",
                "coordinates": [
                    6.5606836,
                    53.2118136
                ]
            },
            "properties": {
                "name": "Groninger Archieven"
            }
        },
        {
            "type": "Feature",
            "geometry": {
                "type": "Point",
                "coordinates": [
                    5.4581376,
                    51.4114422
                ]
            }
        },
        {
            "type": "Feature",
            "geometry": {
                "type": "Point",
                "coordinates": [
                    4.4814724,
                    52.1573512
                ]
            },
            "properties": {
                "name": "Universiteitsbibliotheek Leiden"
            }
        },
        {
            "type": "Feature",
            "geometry": {
                "type": "Point",
                "coordinates": [
                    5.8671262,
                    51.8453418
                ]
            },
            "properties": {
                "name": "Centrale bibliotheek De Mari\u00ebnburg"
            }
        },
        {
            "type": "Feature",
            "geometry": {
                "type": "Point",
                "coordinates": [
                    4.3935006,
                    52.0455738
                ]
            },
            "properties": {
                "name": "Bibliotheek Nootdorp"
            }
        },
        {
            "type": "Feature",
            "geometry": {
                "type": "Point",
                "coordinates": [
                    6.0965809,
                    51.3306805
                ]
            },
            "properties": {
                "name": "Openbare Bibliotheek Baarlo"
            }
        },
        {
            "type": "Feature",
            "geometry": {
                "type": "Point",
                "coordinates": [
                    5.6576311,
                    53.0332367
                ]
            },
            "properties": {
                "name": "Bibliotheek Sneek"
            }
        },
        {
            "type": "Feature",
            "geometry": {
                "type": "Point",
                "coordinates": [
                    4.6558299,
                    52.355739
                ]
            },
            "properties": {
                "name": "Bibliotheek Schalkwijk"
            }
        },
        {
            "type": "Feature",
            "geometry": {
                "type": "Point",
                "coordinates": [
                    4.2858264,
                    51.49614
                ]
            },
            "properties": {
                "name": "Het Makiezaat"
            }
        },
        {
            "type": "Feature",
            "geometry": {
                "type": "Point",
                "coordinates": [
                    6.0568129,
                    52.5326797
                ]
            },
            "properties": {
                "name": "Bibliotheek Zwolle Stadshagen"
            }
        },
        {
            "type": "Feature",
            "geometry": {
                "type": "Point",
                "coordinates": [
                    3.9366835,
                    51.8108627
                ]
            },
            "properties": {
                "name": "Openbare Bibliotheek"
            }
        },
        {
            "type": "Feature",
            "geometry": {
                "type": "Point",
                "coordinates": [
                    4.2375541,
                    51.9289685
                ]
            },
            "properties": {
                "name": "Bibliotheek Maassluis"
            }
        },
        {
            "type": "Feature",
            "geometry": {
                "type": "Point",
                "coordinates": [
                    4.272753,
                    52.0223805
                ]
            },
            "properties": {
                "name": "BIB Westland"
            }
        },
        {
            "type": "Feature",
            "geometry": {
                "type": "Point",
                "coordinates": [
                    5.0379833,
                    52.4505186
                ]
            },
            "properties": {
                "name": "Bibliotheek Waterland"
            }
        },
        {
            "type": "Feature",
            "geometry": {
                "type": "Point",
                "coordinates": [
                    5.2205995,
                    52.3712022
                ]
            },
            "properties": {
                "name": "De Nieuwe Bibliotheek, afdeling Stad"
            }
        },
        {
            "type": "Feature",
            "geometry": {
                "type": "Point",
                "coordinates": [
                    4.2400137,
                    51.8655447
                ]
            },
            "properties": {
                "name": "BZHD Vestiging Geervliet-Heenvliet"
            }
        },
        {
            "type": "Feature",
            "geometry": {
                "type": "Point",
                "coordinates": [
                    4.6584349,
                    52.4864673
                ]
            },
            "properties": {
                "name": "Bibliotheek IJmond Noord"
            }
        },
        {
            "type": "Feature",
            "geometry": {
                "type": "Point",
                "coordinates": [
                    5.8352616,
                    51.830403
                ]
            },
            "properties": {
                "name": "Bibliotheek Muntweg"
            }
        },
        {
            "type": "Feature",
            "geometry": {
                "type": "Point",
                "coordinates": [
                    5.7977374,
                    51.8238285
                ]
            },
            "properties": {
                "name": "Bibliotheek Zwanenveld"
            }
        },
        {
            "type": "Feature",
            "geometry": {
                "type": "Point",
                "coordinates": [
                    6.1595356,
                    52.2516045
                ]
            },
            "properties": {
                "name": "OB-Deventer"
            }
        },
        {
            "type": "Feature",
            "geometry": {
                "type": "Point",
                "coordinates": [
                    4.5471513,
                    51.9416646
                ]
            },
            "properties": {
                "name": "Bibliotheek Alexanderpolder"
            }
        },
        {
            "type": "Feature",
            "geometry": {
                "type": "Point",
                "coordinates": [
                    6.7467376,
                    53.3309878
                ]
            }
        },
        {
            "type": "Feature",
            "geometry": {
                "type": "Point",
                "coordinates": [
                    5.6657855,
                    51.9676155
                ]
            },
            "properties": {
                "name": "Openbare Bibliotheek"
            }
        },
        {
            "type": "Feature",
            "geometry": {
                "type": "Point",
                "coordinates": [
                    4.6978423,
                    52.3010493
                ]
            },
            "properties": {
                "name": "Bibliotheek Hoofddorp-Centrale"
            }
        },
        {
            "type": "Feature",
            "geometry": {
                "type": "Point",
                "coordinates": [
                    4.4708953,
                    51.9146161
                ]
            },
            "properties": {
                "name": "Het Nieuwe Instituut"
            }
        },
        {
            "type": "Feature",
            "geometry": {
                "type": "Point",
                "coordinates": [
                    4.3255204,
                    51.4232902
                ]
            },
            "properties": {
                "name": "Bibliotheek Hoogerheide"
            }
        },
        {
            "type": "Feature",
            "geometry": {
                "type": "Point",
                "coordinates": [
                    4.6175768,
                    51.967775
                ]
            },
            "properties": {
                "name": "Bibliotheek Nieuwerkerk aan den IJssel (gesloten)"
            }
        },
        {
            "type": "Feature",
            "geometry": {
                "type": "Point",
                "coordinates": [
                    4.9388798,
                    52.3641458
                ]
            },
            "properties": {
                "name": "Bibliotheek Indische Buurt"
            }
        },
        {
            "type": "Feature",
            "geometry": {
                "type": "Point",
                "coordinates": [
                    4.3929531,
                    52.1440963
                ]
            },
            "properties": {
                "name": "Biblioteek Voorschoten-Wassenaar"
            }
        },
        {
            "type": "Feature",
            "geometry": {
                "type": "Point",
                "coordinates": [
                    4.2684171,
                    52.0798075
                ]
            },
            "properties": {
                "name": "Openbare Bibliotheek Bomenbuurt"
            }
        },
        {
            "type": "Feature",
            "geometry": {
                "type": "Point",
                "coordinates": [
                    6.0536799,
                    50.9161271
                ]
            },
            "properties": {
                "name": "Bibliotheek Ubach over Worms"
            }
        },
        {
            "type": "Feature",
            "geometry": {
                "type": "Point",
                "coordinates": [
                    5.0116907,
                    52.0940625
                ]
            },
            "properties": {
                "name": "Bibliotheek Vleuterweide"
            }
        },
        {
            "type": "Feature",
            "geometry": {
                "type": "Point",
                "coordinates": [
                    6.153736,
                    51.3662587
                ]
            },
            "properties": {
                "name": "Bibliotheek Blerick"
            }
        },
        {
            "type": "Feature",
            "geometry": {
                "type": "Point",
                "coordinates": [
                    6.605538,
                    53.1732298
                ]
            },
            "properties": {
                "name": "Bibliotheek Haren"
            }
        },
        {
            "type": "Feature",
            "geometry": {
                "type": "Point",
                "coordinates": [
                    6.6765767,
                    52.3790229
                ]
            },
            "properties": {
                "name": "Bibliotheek Schelfhorst"
            }
        },
        {
            "type": "Feature",
            "geometry": {
                "type": "Point",
                "coordinates": [
                    5.0108608,
                    52.1073056
                ]
            },
            "properties": {
                "name": "Bibliotheek Vleuten"
            }
        },
        {
            "type": "Feature",
            "geometry": {
                "type": "Point",
                "coordinates": [
                    6.0529963,
                    51.454363
                ]
            },
            "properties": {
                "name": "Bibliotheek Horst"
            }
        },
        {
            "type": "Feature",
            "geometry": {
                "type": "Point",
                "coordinates": [
                    6.1029705,
                    52.5297846
                ]
            }
        },
        {
            "type": "Feature",
            "geometry": {
                "type": "Point",
                "coordinates": [
                    6.4487928,
                    52.0875003
                ]
            },
            "properties": {
                "name": "Oost Achterhoek/Ruurlo"
            }
        },
        {
            "type": "Feature",
            "geometry": {
                "type": "Point",
                "coordinates": [
                    5.9186669,
                    50.9400585
                ]
            },
            "properties": {
                "name": "BiblioNova"
            }
        },
        {
            "type": "Feature",
            "geometry": {
                "type": "Point",
                "coordinates": [
                    5.8261502,
                    53.0890931
                ]
            },
            "properties": {
                "name": "Openbare Bibliotheek"
            }
        },
        {
            "type": "Feature",
            "geometry": {
                "type": "Point",
                "coordinates": [
                    4.939193,
                    52.3690197
                ]
            },
            "properties": {
                "name": "Internationaal Instituut voor Sociale Geschiedenis"
            }
        },
        {
            "type": "Feature",
            "geometry": {
                "type": "Point",
                "coordinates": [
                    6.5533901,
                    53.3918428
                ]
            },
            "properties": {
                "name": "Bibliotheek"
            }
        },
        {
            "type": "Feature",
            "geometry": {
                "type": "Point",
                "coordinates": [
                    5.4041785,
                    51.4209084
                ]
            },
            "properties": {
                "name": "Bibliotheek Veldhoven"
            }
        },
        {
            "type": "Feature",
            "geometry": {
                "type": "Point",
                "coordinates": [
                    5.1785364,
                    52.6945596
                ]
            },
            "properties": {
                "name": "Openbare bibliotheek Hoogkarspel"
            }
        },
        {
            "type": "Feature",
            "geometry": {
                "type": "Point",
                "coordinates": [
                    6.5141149,
                    53.3634121
                ]
            },
            "properties": {
                "name": "Bibliotheek"
            }
        },
        {
            "type": "Feature",
            "geometry": {
                "type": "Point",
                "coordinates": [
                    4.698583,
                    51.5143874
                ]
            },
            "properties": {
                "name": "Bibliotheek"
            }
        },
        {
            "type": "Feature",
            "geometry": {
                "type": "Point",
                "coordinates": [
                    6.1439847,
                    51.4231333
                ]
            },
            "properties": {
                "name": "Biblionu Grubbenvorst"
            }
        },
        {
            "type": "Feature",
            "geometry": {
                "type": "Point",
                "coordinates": [
                    4.9734425,
                    52.2745591
                ]
            },
            "properties": {
                "name": "Bibliotheek AVV"
            }
        },
        {
            "type": "Feature",
            "geometry": {
                "type": "Point",
                "coordinates": [
                    4.3613276,
                    51.8344006
                ]
            },
            "properties": {
                "name": "Mobiele Bibliotheek"
            }
        },
        {
            "type": "Feature",
            "geometry": {
                "type": "Point",
                "coordinates": [
                    4.974148,
                    51.8293032
                ]
            },
            "properties": {
                "name": "Bibliotheek Gorinchem"
            }
        },
        {
            "type": "Feature",
            "geometry": {
                "type": "Point",
                "coordinates": [
                    5.026905,
                    52.1356317
                ]
            },
            "properties": {
                "name": "Bibliotheek Maarssen"
            }
        },
        {
            "type": "Feature",
            "geometry": {
                "type": "Point",
                "coordinates": [
                    5.2348887,
                    52.6974063
                ]
            },
            "properties": {
                "name": "Bibliotheek"
            }
        },
        {
            "type": "Feature",
            "geometry": {
                "type": "Point",
                "coordinates": [
                    4.350516,
                    51.9294344
                ]
            },
            "properties": {
                "name": "Gemeentebibliotheek Vlaardingen"
            }
        },
        {
            "type": "Feature",
            "geometry": {
                "type": "Point",
                "coordinates": [
                    5.6198843,
                    52.3006701
                ]
            },
            "properties": {
                "name": "Bibliotheek Ermelo"
            }
        },
        {
            "type": "Feature",
            "geometry": {
                "type": "Point",
                "coordinates": [
                    4.9071622,
                    51.5896294
                ]
            }
        },
        {
            "type": "Feature",
            "geometry": {
                "type": "Point",
                "coordinates": [
                    4.6012521,
                    51.8699493
                ]
            },
            "properties": {
                "name": "Bibliotheek Ridderkerk"
            }
        },
        {
            "type": "Feature",
            "geometry": {
                "type": "Point",
                "coordinates": [
                    5.194813,
                    52.0700186
                ]
            },
            "properties": {
                "name": "Bibliotheek Bunnik"
            }
        },
        {
            "type": "Feature",
            "geometry": {
                "type": "Point",
                "coordinates": [
                    5.9793013,
                    50.8878014
                ]
            },
            "properties": {
                "name": "Schunck Bibliotheek"
            }
        },
        {
            "type": "Feature",
            "geometry": {
                "type": "Point",
                "coordinates": [
                    5.1738966,
                    52.016138
                ]
            },
            "properties": {
                "name": "Bibliotheek Houten-Schoneveld"
            }
        },
        {
            "type": "Feature",
            "geometry": {
                "type": "Point",
                "coordinates": [
                    4.2967841,
                    52.06713
                ]
            },
            "properties": {
                "name": "Bibliotheek Transvaalkwartier"
            }
        },
        {
            "type": "Feature",
            "geometry": {
                "type": "Point",
                "coordinates": [
                    6.6228007,
                    52.5758295
                ]
            },
            "properties": {
                "name": "Bibliotheek Hardenberg"
            }
        },
        {
            "type": "Feature",
            "geometry": {
                "type": "Point",
                "coordinates": [
                    4.4417934,
                    51.9125405
                ]
            },
            "properties": {
                "name": "Delfshaven"
            }
        },
        {
            "type": "Feature",
            "geometry": {
                "type": "Point",
                "coordinates": [
                    4.637441,
                    52.388167
                ]
            },
            "properties": {
                "name": "De Bibliotheek op het Station"
            }
        },
        {
            "type": "Feature",
            "geometry": {
                "type": "Point",
                "coordinates": [
                    6.5685585,
                    53.1377414
                ]
            },
            "properties": {
                "name": "Openbare Bibliotheek Eelde"
            }
        },
        {
            "type": "Feature",
            "geometry": {
                "type": "Point",
                "coordinates": [
                    4.7161307,
                    51.802484
                ]
            },
            "properties": {
                "name": "bibliotheek Stadspolders"
            }
        },
        {
            "type": "Feature",
            "geometry": {
                "type": "Point",
                "coordinates": [
                    4.5404449,
                    52.0583844
                ]
            },
            "properties": {
                "name": "Wijkbibliotheek Oosterheem"
            }
        },
        {
            "type": "Feature",
            "geometry": {
                "type": "Point",
                "coordinates": [
                    4.997476,
                    52.1776994
                ]
            },
            "properties": {
                "name": "Bibliotheek Breukelen"
            }
        },
        {
            "type": "Feature",
            "geometry": {
                "type": "Point",
                "coordinates": [
                    4.5226469,
                    52.1428448
                ]
            },
            "properties": {
                "name": "Openbare Bibliotheek Meerburg"
            }
        },
        {
            "type": "Feature",
            "geometry": {
                "type": "Point",
                "coordinates": [
                    5.0430886,
                    52.3061682
                ]
            },
            "properties": {
                "name": "Bibliotheek Weesp"
            }
        },
        {
            "type": "Feature",
            "geometry": {
                "type": "Point",
                "coordinates": [
                    6.4800902,
                    52.7291871
                ]
            },
            "properties": {
                "name": "Openbare bibliotheek Hoogeveen Hoofdvestiging"
            }
        },
        {
            "type": "Feature",
            "geometry": {
                "type": "Point",
                "coordinates": [
                    6.2113228,
                    52.6434649
                ]
            },
            "properties": {
                "name": "Bibliotheek Staphorst"
            }
        },
        {
            "type": "Feature",
            "geometry": {
                "type": "Point",
                "coordinates": [
                    4.9300671,
                    52.2137
                ]
            }
        },
        {
            "type": "Feature",
            "geometry": {
                "type": "Point",
                "coordinates": [
                    5.3961364,
                    51.5114604
                ]
            },
            "properties": {
                "name": "Openbare Bibliotheek"
            }
        },
        {
            "type": "Feature",
            "geometry": {
                "type": "Point",
                "coordinates": [
                    4.5297556,
                    52.0093418
                ]
            },
            "properties": {
                "name": "Bibliotheek Oostland"
            }
        },
        {
            "type": "Feature",
            "geometry": {
                "type": "Point",
                "coordinates": [
                    5.0723972,
                    53.2993906
                ]
            }
        },
        {
            "type": "Feature",
            "geometry": {
                "type": "Point",
                "coordinates": [
                    5.8418362,
                    51.9891929
                ]
            },
            "properties": {
                "name": "Oosterbeek public library"
            }
        },
        {
            "type": "Feature",
            "geometry": {
                "type": "Point",
                "coordinates": [
                    6.0986522,
                    53.1044062
                ]
            },
            "properties": {
                "name": "Beleefbibliotheek"
            }
        },
        {
            "type": "Feature",
            "geometry": {
                "type": "Point",
                "coordinates": [
                    6.9267437,
                    53.3299846
                ]
            },
            "properties": {
                "name": "Bibliotheek Oude Schans"
            }
        },
        {
            "type": "Feature",
            "geometry": {
                "type": "Point",
                "coordinates": [
                    6.0716067,
                    51.9971371
                ]
            }
        },
        {
            "type": "Feature",
            "geometry": {
                "type": "Point",
                "coordinates": [
                    4.4667614,
                    51.9578462
                ]
            },
            "properties": {
                "name": "Bibliotheek Schiebroek"
            }
        },
        {
            "type": "Feature",
            "geometry": {
                "type": "Point",
                "coordinates": [
                    4.3051556,
                    52.0939545
                ]
            },
            "properties": {
                "name": "Internationaal Esperanto-Instituut"
            }
        },
        {
            "type": "Feature",
            "geometry": {
                "type": "Point",
                "coordinates": [
                    6.0933755,
                    52.5086316
                ]
            },
            "properties": {
                "name": "Bibliotheek Stadkamer Centrum"
            }
        },
        {
            "type": "Feature",
            "geometry": {
                "type": "Point",
                "coordinates": [
                    5.7959463,
                    50.9417218
                ]
            },
            "properties": {
                "name": "Biblionova"
            }
        },
        {
            "type": "Feature",
            "geometry": {
                "type": "Point",
                "coordinates": [
                    6.7659646,
                    52.372433
                ]
            },
            "properties": {
                "name": "Bibliotheek Albergen"
            }
        },
        {
            "type": "Feature",
            "geometry": {
                "type": "Point",
                "coordinates": [
                    6.6737042,
                    53.4084446
                ]
            },
            "properties": {
                "name": "Bibliotheek Uithuizen"
            }
        },
        {
            "type": "Feature",
            "geometry": {
                "type": "Point",
                "coordinates": [
                    3.9076829,
                    51.6514226
                ]
            },
            "properties": {
                "name": "Bibliotheek"
            }
        },
        {
            "type": "Feature",
            "geometry": {
                "type": "Point",
                "coordinates": [
                    6.558683,
                    52.9946471
                ]
            },
            "properties": {
                "name": "Bibliotheek Assen"
            }
        },
        {
            "type": "Feature",
            "geometry": {
                "type": "Point",
                "coordinates": [
                    5.0941016,
                    51.5559157
                ]
            },
            "properties": {
                "name": "Regionaal Archief Tilburg"
            }
        },
        {
            "type": "Feature",
            "geometry": {
                "type": "Point",
                "coordinates": [
                    5.6428296,
                    52.5713382
                ]
            },
            "properties": {
                "name": "Bibliotheek"
            }
        },
        {
            "type": "Feature",
            "geometry": {
                "type": "Point",
                "coordinates": [
                    5.8350416,
                    53.0497546
                ]
            },
            "properties": {
                "name": "Bibliotheek Akkrum"
            }
        },
        {
            "type": "Feature",
            "geometry": {
                "type": "Point",
                "coordinates": [
                    4.4791696,
                    52.2198544
                ]
            },
            "properties": {
                "name": "Voorhout"
            }
        },
        {
            "type": "Feature",
            "geometry": {
                "type": "Point",
                "coordinates": [
                    5.5601343,
                    51.4227157
                ]
            },
            "properties": {
                "name": "Bibliotheek Dommeldal"
            }
        },
        {
            "type": "Feature",
            "geometry": {
                "type": "Point",
                "coordinates": [
                    4.3607279,
                    52.0761443
                ]
            },
            "properties": {
                "name": "Bibliotheek Voorburg"
            }
        },
        {
            "type": "Feature",
            "geometry": {
                "type": "Point",
                "coordinates": [
                    5.409548,
                    52.118678
                ]
            },
            "properties": {
                "name": "de Beep Leusden Zuid"
            }
        },
        {
            "type": "Feature",
            "geometry": {
                "type": "Point",
                "coordinates": [
                    4.6594792,
                    52.3753599
                ]
            },
            "properties": {
                "name": "Bibliotheek Haarlem Oost"
            }
        },
        {
            "type": "Feature",
            "geometry": {
                "type": "Point",
                "coordinates": [
                    5.136226,
                    52.0640879
                ]
            },
            "properties": {
                "name": "Openbare bibliotheek"
            }
        },
        {
            "type": "Feature",
            "geometry": {
                "type": "Point",
                "coordinates": [
                    5.7287237,
                    51.9731749
                ]
            },
            "properties": {
                "name": "Bibliotheek Renkum"
            }
        },
        {
            "type": "Feature",
            "geometry": {
                "type": "Point",
                "coordinates": [
                    4.5837898,
                    51.9537283
                ]
            },
            "properties": {
                "name": "Bibliotheek Schollevaar"
            }
        },
        {
            "type": "Feature",
            "geometry": {
                "type": "Point",
                "coordinates": [
                    4.7496987,
                    52.2679063
                ]
            },
            "properties": {
                "name": "Amstelland Bibliotheken Aalsmeer"
            }
        },
        {
            "type": "Feature",
            "geometry": {
                "type": "Point",
                "coordinates": [
                    6.0239749,
                    51.9507373
                ]
            },
            "properties": {
                "name": "Bibliotheek Duiven"
            }
        },
        {
            "type": "Feature",
            "geometry": {
                "type": "Point",
                "coordinates": [
                    6.5033773,
                    53.2056575
                ]
            },
            "properties": {
                "name": "OB Groningen filiaal Hoogkerk"
            }
        },
        {
            "type": "Feature",
            "geometry": {
                "type": "Point",
                "coordinates": [
                    6.8933855,
                    52.2191018
                ]
            },
            "properties": {
                "name": "Centrale Bibliotheek"
            }
        },
        {
            "type": "Feature",
            "geometry": {
                "type": "Point",
                "coordinates": [
                    5.1235846,
                    52.0946054
                ]
            },
            "properties": {
                "name": "Universiteitsbibliotheek Binnenstad"
            }
        },
        {
            "type": "Feature",
            "geometry": {
                "type": "Point",
                "coordinates": [
                    5.2411363,
                    52.2988481
                ]
            },
            "properties": {
                "name": "Bibliotheek Huizen"
            }
        },
        {
            "type": "Feature",
            "geometry": {
                "type": "Point",
                "coordinates": [
                    4.2748307,
                    52.072389
                ]
            },
            "properties": {
                "name": "Bibliotheek Segbroek"
            }
        },
        {
            "type": "Feature",
            "geometry": {
                "type": "Point",
                "coordinates": [
                    5.746911,
                    52.7107009
                ]
            },
            "properties": {
                "name": "de Bibliotheek Flevomeer"
            }
        },
        {
            "type": "Feature",
            "geometry": {
                "type": "Point",
                "coordinates": [
                    4.5429198,
                    51.9612921
                ]
            }
        },
        {
            "type": "Feature",
            "geometry": {
                "type": "Point",
                "coordinates": [
                    5.1425866,
                    51.6097923
                ]
            },
            "properties": {
                "name": "Bibliotheek Udenhout"
            }
        },
        {
            "type": "Feature",
            "geometry": {
                "type": "Point",
                "coordinates": [
                    5.1401419,
                    51.5840063
                ]
            },
            "properties": {
                "name": "Bibliotheek midden brabant"
            }
        },
        {
            "type": "Feature",
            "geometry": {
                "type": "Point",
                "coordinates": [
                    5.9735438,
                    52.19222
                ]
            },
            "properties": {
                "name": "Dok Zuid"
            }
        },
        {
            "type": "Feature",
            "geometry": {
                "type": "Point",
                "coordinates": [
                    5.7208029,
                    50.7784027
                ]
            },
            "properties": {
                "name": "Heuvelland Bibliotheken Eijsden"
            }
        },
        {
            "type": "Feature",
            "geometry": {
                "type": "Point",
                "coordinates": [
                    5.5594884,
                    52.0273575
                ]
            },
            "properties": {
                "name": "De Cultuurfabriek / Bibliotheek"
            }
        },
        {
            "type": "Feature",
            "geometry": {
                "type": "Point",
                "coordinates": [
                    4.6634443,
                    51.7898451
                ]
            },
            "properties": {
                "name": "Openbare Bibliotheek Crabbehof"
            }
        },
        {
            "type": "Feature",
            "geometry": {
                "type": "Point",
                "coordinates": [
                    4.47909,
                    51.935187
                ]
            },
            "properties": {
                "name": "Oude Noorden"
            }
        },
        {
            "type": "Feature",
            "geometry": {
                "type": "Point",
                "coordinates": [
                    4.4601522,
                    51.5877437
                ]
            },
            "properties": {
                "name": "Bibliotheek VANnU Oud Gastel"
            }
        },
        {
            "type": "Feature",
            "geometry": {
                "type": "Point",
                "coordinates": [
                    5.4313447,
                    52.1944158
                ]
            },
            "properties": {
                "name": "bibliotheek Vathorst"
            }
        },
        {
            "type": "Feature",
            "geometry": {
                "type": "Point",
                "coordinates": [
                    4.5885363,
                    51.931738
                ]
            },
            "properties": {
                "name": "Bibliotheek aan den IJssel, hoofdvestiging"
            }
        },
        {
            "type": "Feature",
            "geometry": {
                "type": "Point",
                "coordinates": [
                    5.7982232,
                    53.2152425
                ]
            },
            "properties": {
                "name": "Bibliotheek"
            }
        },
        {
            "type": "Feature",
            "geometry": {
                "type": "Point",
                "coordinates": [
                    5.8433438,
                    51.87717
                ]
            },
            "properties": {
                "name": "Bibliotheek Oosterhout"
            }
        },
        {
            "type": "Feature",
            "geometry": {
                "type": "Point",
                "coordinates": [
                    6.4033804,
                    53.2445961
                ]
            },
            "properties": {
                "name": "Bibliotheek Zuidhorn"
            }
        },
        {
            "type": "Feature",
            "geometry": {
                "type": "Point",
                "coordinates": [
                    5.3084787,
                    51.9970925
                ]
            },
            "properties": {
                "name": "Bibliotheek"
            }
        },
        {
            "type": "Feature",
            "geometry": {
                "type": "Point",
                "coordinates": [
                    5.5680514,
                    51.9614726
                ]
            },
            "properties": {
                "name": "Bibliotheek Rhenen"
            }
        },
        {
            "type": "Feature",
            "geometry": {
                "type": "Point",
                "coordinates": [
                    5.4376423,
                    51.6222949
                ]
            },
            "properties": {
                "name": "Bibliotheek Schijndel (SpectruM)"
            }
        },
        {
            "type": "Feature",
            "geometry": {
                "type": "Point",
                "coordinates": [
                    4.8068695,
                    52.3589218
                ]
            },
            "properties": {
                "name": "OBA"
            }
        },
        {
            "type": "Feature",
            "geometry": {
                "type": "Point",
                "coordinates": [
                    6.7127988,
                    51.9681022
                ]
            }
        },
        {
            "type": "Feature",
            "geometry": {
                "type": "Point",
                "coordinates": [
                    5.4247174,
                    52.0104305
                ]
            },
            "properties": {
                "name": "Regio Bilbiotheek Z-O-U-T"
            }
        },
        {
            "type": "Feature",
            "geometry": {
                "type": "Point",
                "coordinates": [
                    4.6332474,
                    52.2648298
                ]
            }
        },
        {
            "type": "Feature",
            "geometry": {
                "type": "Point",
                "coordinates": [
                    5.9873049,
                    51.2611963
                ]
            },
            "properties": {
                "name": "Biblioptheek Neer"
            }
        },
        {
            "type": "Feature",
            "geometry": {
                "type": "Point",
                "coordinates": [
                    4.6588067,
                    51.9854062
                ]
            },
            "properties": {
                "name": "Bibliotheek"
            }
        },
        {
            "type": "Feature",
            "geometry": {
                "type": "Point",
                "coordinates": [
                    4.6233078,
                    52.4610936
                ]
            }
        },
        {
            "type": "Feature",
            "geometry": {
                "type": "Point",
                "coordinates": [
                    5.1226328,
                    52.3275948
                ]
            }
        },
        {
            "type": "Feature",
            "geometry": {
                "type": "Point",
                "coordinates": [
                    6.1123031,
                    52.4833071
                ]
            },
            "properties": {
                "name": "Bibliotheek Zwolle Zuid"
            }
        },
        {
            "type": "Feature",
            "geometry": {
                "type": "Point",
                "coordinates": [
                    5.3439423,
                    52.0335247
                ]
            },
            "properties": {
                "name": "Openbare bibliotheek Doorn"
            }
        },
        {
            "type": "Feature",
            "geometry": {
                "type": "Point",
                "coordinates": [
                    4.1036646,
                    51.9151538
                ]
            },
            "properties": {
                "name": "BZHD Vestiging Oostvoorne"
            }
        },
        {
            "type": "Feature",
            "geometry": {
                "type": "Point",
                "coordinates": [
                    4.0661162,
                    51.8714683
                ]
            },
            "properties": {
                "name": "BZHD Vestiging Rockanje"
            }
        },
        {
            "type": "Feature",
            "geometry": {
                "type": "Point",
                "coordinates": [
                    4.9474704,
                    52.6278696
                ]
            },
            "properties": {
                "name": "Biblioththeek De Goorn"
            }
        },
        {
            "type": "Feature",
            "geometry": {
                "type": "Point",
                "coordinates": [
                    5.8012189,
                    52.9648462
                ]
            },
            "properties": {
                "name": "Bibliotheek Joure"
            }
        },
        {
            "type": "Feature",
            "geometry": {
                "type": "Point",
                "coordinates": [
                    5.1839459,
                    51.5451571
                ]
            },
            "properties": {
                "name": "Bibliotheek Moergestel"
            }
        },
        {
            "type": "Feature",
            "geometry": {
                "type": "Point",
                "coordinates": [
                    4.9385384,
                    52.3324721
                ]
            },
            "properties": {
                "name": "OBA Duivendrecht"
            }
        },
        {
            "type": "Feature",
            "geometry": {
                "type": "Point",
                "coordinates": [
                    5.975716,
                    50.8341119
                ]
            }
        },
        {
            "type": "Feature",
            "geometry": {
                "type": "Point",
                "coordinates": [
                    6.2337536,
                    52.7738645
                ]
            },
            "properties": {
                "name": "Bibliotheek Havelte"
            }
        },
        {
            "type": "Feature",
            "geometry": {
                "type": "Point",
                "coordinates": [
                    5.9705598,
                    51.876516
                ]
            },
            "properties": {
                "name": "Bibliotheek Lingewaard"
            }
        },
        {
            "type": "Feature",
            "geometry": {
                "type": "Point",
                "coordinates": [
                    5.7711214,
                    51.8625065
                ]
            },
            "properties": {
                "name": "Bibliotheek"
            }
        },
        {
            "type": "Feature",
            "geometry": {
                "type": "Point",
                "coordinates": [
                    6.4516511,
                    52.7195593
                ]
            },
            "properties": {
                "name": "De Weide"
            }
        },
        {
            "type": "Feature",
            "geometry": {
                "type": "Point",
                "coordinates": [
                    6.6615368,
                    52.3573142
                ]
            },
            "properties": {
                "name": "Bibliotheek Almelo"
            }
        },
        {
            "type": "Feature",
            "geometry": {
                "type": "Point",
                "coordinates": [
                    4.8720052,
                    52.3796205
                ]
            },
            "properties": {
                "name": "Staatsliedenbuurt"
            }
        },
        {
            "type": "Feature",
            "geometry": {
                "type": "Point",
                "coordinates": [
                    4.9263588,
                    51.4414079
                ]
            },
            "properties": {
                "name": "Theek 5"
            }
        },
        {
            "type": "Feature",
            "geometry": {
                "type": "Point",
                "coordinates": [
                    5.005521,
                    51.5785098
                ]
            }
        },
        {
            "type": "Feature",
            "geometry": {
                "type": "Point",
                "coordinates": [
                    4.2526121,
                    51.8266208
                ]
            },
            "properties": {
                "name": "Bibliotheek Zuid-Hollandse Delta, filiaal Zuidland"
            }
        },
        {
            "type": "Feature",
            "geometry": {
                "type": "Point",
                "coordinates": [
                    5.0436445,
                    51.563636
                ]
            },
            "properties": {
                "name": "Tilburg University Library"
            }
        },
        {
            "type": "Feature",
            "geometry": {
                "type": "Point",
                "coordinates": [
                    4.4449267,
                    52.2404383
                ]
            },
            "properties": {
                "name": "Bibliotheek Noordwijk"
            }
        },
        {
            "type": "Feature",
            "geometry": {
                "type": "Point",
                "coordinates": [
                    6.5856367,
                    52.2331882
                ]
            },
            "properties": {
                "name": "Bibliotheek"
            }
        },
        {
            "type": "Feature",
            "geometry": {
                "type": "Point",
                "coordinates": [
                    6.1995443,
                    52.1996712
                ]
            },
            "properties": {
                "name": "de Bibliotheek Gorssel"
            }
        },
        {
            "type": "Feature",
            "geometry": {
                "type": "Point",
                "coordinates": [
                    4.4650469,
                    52.0959717
                ]
            },
            "properties": {
                "name": "Bibliotheek"
            }
        },
        {
            "type": "Feature",
            "geometry": {
                "type": "Point",
                "coordinates": [
                    6.032969,
                    50.905801
                ]
            }
        },
        {
            "type": "Feature",
            "geometry": {
                "type": "Point",
                "coordinates": [
                    4.5333222,
                    52.3719107
                ]
            },
            "properties": {
                "name": "Bibliotheek"
            }
        },
        {
            "type": "Feature",
            "geometry": {
                "type": "Point",
                "coordinates": [
                    5.6186459,
                    52.0860969
                ]
            },
            "properties": {
                "name": "Cultura"
            }
        },
        {
            "type": "Feature",
            "geometry": {
                "type": "Point",
                "coordinates": [
                    5.5834911,
                    52.8988536
                ]
            }
        },
        {
            "type": "Feature",
            "geometry": {
                "type": "Point",
                "coordinates": [
                    5.1998363,
                    52.6634229
                ]
            }
        },
        {
            "type": "Feature",
            "geometry": {
                "type": "Point",
                "coordinates": [
                    4.5043177,
                    52.1772347
                ]
            },
            "properties": {
                "name": "Merenwijk Bibliotheek"
            }
        },
        {
            "type": "Feature",
            "geometry": {
                "type": "Point",
                "coordinates": [
                    6.5928778,
                    53.1168397
                ]
            },
            "properties": {
                "name": "Bibliotheek"
            }
        },
        {
            "type": "Feature",
            "geometry": {
                "type": "Point",
                "coordinates": [
                    5.1625795,
                    51.3614979
                ]
            },
            "properties": {
                "name": "Bibliotheek"
            }
        },
        {
            "type": "Feature",
            "geometry": {
                "type": "Point",
                "coordinates": [
                    4.4999151,
                    52.1173607
                ]
            },
            "properties": {
                "name": "de bibliotheek rijn en veenen - zoeterwoude dorp"
            }
        },
        {
            "type": "Feature",
            "geometry": {
                "type": "Point",
                "coordinates": [
                    7.0068504,
                    52.2612006
                ]
            },
            "properties": {
                "name": "Bibliotheek Losser"
            }
        },
        {
            "type": "Feature",
            "geometry": {
                "type": "Point",
                "coordinates": [
                    6.232057,
                    52.4357657
                ]
            },
            "properties": {
                "name": "Bibliotheek Heino"
            }
        },
        {
            "type": "Feature",
            "geometry": {
                "type": "Point",
                "coordinates": [
                    5.0410169,
                    52.017394
                ]
            },
            "properties": {
                "name": "Bibliotheek Lek & IJssel"
            }
        },
        {
            "type": "Feature",
            "geometry": {
                "type": "Point",
                "coordinates": [
                    6.9862726,
                    52.3166146
                ]
            },
            "properties": {
                "name": "Bibliotheek"
            }
        },
        {
            "type": "Feature",
            "geometry": {
                "type": "Point",
                "coordinates": [
                    4.3543011,
                    51.8649167
                ]
            },
            "properties": {
                "name": "Bibliotheek"
            }
        },
        {
            "type": "Feature",
            "geometry": {
                "type": "Point",
                "coordinates": [
                    6.0063958,
                    52.6774719
                ]
            },
            "properties": {
                "name": "Bibliotheek Sint Jansklooster"
            }
        },
        {
            "type": "Feature",
            "geometry": {
                "type": "Point",
                "coordinates": [
                    6.3122912,
                    52.103139
                ]
            },
            "properties": {
                "name": "Bibliotheek Vorden"
            }
        },
        {
            "type": "Feature",
            "geometry": {
                "type": "Point",
                "coordinates": [
                    4.8030853,
                    53.0554912
                ]
            }
        },
        {
            "type": "Feature",
            "geometry": {
                "type": "Point",
                "coordinates": [
                    5.111179,
                    52.1148908
                ]
            },
            "properties": {
                "name": "Bibliotheek Overvecht"
            }
        },
        {
            "type": "Feature",
            "geometry": {
                "type": "Point",
                "coordinates": [
                    -68.8945691,
                    12.1288366
                ]
            }
        },
        {
            "type": "Feature",
            "geometry": {
                "type": "Point",
                "coordinates": [
                    4.3966954,
                    52.2010933
                ]
            },
            "properties": {
                "name": "Hoofdbibliotheek Katwijk"
            }
        },
        {
            "type": "Feature",
            "geometry": {
                "type": "Point",
                "coordinates": [
                    6.4289521,
                    52.6715312
                ]
            },
            "properties": {
                "name": "bibliotheek"
            }
        },
        {
            "type": "Feature",
            "geometry": {
                "type": "Point",
                "coordinates": [
                    5.2186265,
                    52.3363865
                ]
            },
            "properties": {
                "name": "De Nieuwe Bibliotheek, afdeling Haven"
            }
        },
        {
            "type": "Feature",
            "geometry": {
                "type": "Point",
                "coordinates": [
                    4.4786864,
                    51.9938217
                ]
            },
            "properties": {
                "name": "Bibliotheek Berkel en Rodenrijs"
            }
        },
        {
            "type": "Feature",
            "geometry": {
                "type": "Point",
                "coordinates": [
                    4.331144,
                    52.003134
                ]
            },
            "properties": {
                "name": "Bibliotheek Den Hoorn"
            }
        },
        {
            "type": "Feature",
            "geometry": {
                "type": "Point",
                "coordinates": [
                    4.3706405,
                    52.0415963
                ]
            },
            "properties": {
                "name": "Bibliotheek Ypenburg"
            }
        },
        {
            "type": "Feature",
            "geometry": {
                "type": "Point",
                "coordinates": [
                    6.1237279,
                    52.7873954
                ]
            },
            "properties": {
                "name": "Bibliotheek Steenwijk"
            }
        },
        {
            "type": "Feature",
            "geometry": {
                "type": "Point",
                "coordinates": [
                    4.4023217,
                    52.0656019
                ]
            },
            "properties": {
                "name": "Bibliotheek Leidschenveen"
            }
        },
        {
            "type": "Feature",
            "geometry": {
                "type": "Point",
                "coordinates": [
                    5.4603938,
                    51.349759
                ]
            },
            "properties": {
                "name": "Bibliotheek De Kempen"
            }
        },
        {
            "type": "Feature",
            "geometry": {
                "type": "Point",
                "coordinates": [
                    4.1746473,
                    52.0250983
                ]
            },
            "properties": {
                "name": "Bibliotheek Monster"
            }
        },
        {
            "type": "Feature",
            "geometry": {
                "type": "Point",
                "coordinates": [
                    6.0227761,
                    52.0061614
                ]
            },
            "properties": {
                "name": "Jeugdbibliotheek Rheden"
            }
        },
        {
            "type": "Feature",
            "geometry": {
                "type": "Point",
                "coordinates": [
                    6.3080054,
                    52.0525209
                ]
            },
            "properties": {
                "name": "Bibliotheek West Achterhoek (Hengelo gld)"
            }
        },
        {
            "type": "Feature",
            "geometry": {
                "type": "Point",
                "coordinates": [
                    6.8923492,
                    52.7882204
                ]
            },
            "properties": {
                "name": "Bibliotheek Emmen"
            }
        },
        {
            "type": "Feature",
            "geometry": {
                "type": "Point",
                "coordinates": [
                    4.5338537,
                    51.6630103
                ]
            },
            "properties": {
                "name": "Bibliotheek VANnU"
            }
        },
        {
            "type": "Feature",
            "geometry": {
                "type": "Point",
                "coordinates": [
                    6.6960079,
                    53.2766876
                ]
            },
            "properties": {
                "name": "Bibliotheek en VVV"
            }
        },
        {
            "type": "Feature",
            "geometry": {
                "type": "Point",
                "coordinates": [
                    5.2766666,
                    52.3940622
                ]
            },
            "properties": {
                "name": "De Nieuwe Bibliotheek - vestiging Buiten"
            }
        },
        {
            "type": "Feature",
            "geometry": {
                "type": "Point",
                "coordinates": [
                    4.8502319,
                    52.3693887
                ]
            },
            "properties": {
                "name": "Bibliotheek"
            }
        },
        {
            "type": "Feature",
            "geometry": {
                "type": "Point",
                "coordinates": [
                    6.152634,
                    52.2532934
                ]
            },
            "properties": {
                "name": "Athenaeumbibliotheek Deventer"
            }
        },
        {
            "type": "Feature",
            "geometry": {
                "type": "Point",
                "coordinates": [
                    6.6474053,
                    52.9830587
                ]
            },
            "properties": {
                "name": "Bibliotheek Rolde"
            }
        },
        {
            "type": "Feature",
            "geometry": {
                "type": "Point",
                "coordinates": [
                    6.0037069,
                    52.1935377
                ]
            },
            "properties": {
                "name": "Coda De Maten"
            }
        },
        {
            "type": "Feature",
            "geometry": {
                "type": "Point",
                "coordinates": [
                    4.5826353,
                    52.0960473
                ]
            },
            "properties": {
                "name": "Bibliotheek Hazerswoude-Dorp"
            }
        },
        {
            "type": "Feature",
            "geometry": {
                "type": "Point",
                "coordinates": [
                    4.6560706,
                    52.0760436
                ]
            },
            "properties": {
                "name": "Bibliotheek Boskoop"
            }
        },
        {
            "type": "Feature",
            "geometry": {
                "type": "Point",
                "coordinates": [
                    4.5285396,
                    52.1594145
                ]
            }
        },
        {
            "type": "Feature",
            "geometry": {
                "type": "Point",
                "coordinates": [
                    4.8919253,
                    51.8142468
                ]
            },
            "properties": {
                "name": "Altena"
            }
        },
        {
            "type": "Feature",
            "geometry": {
                "type": "Point",
                "coordinates": [
                    4.6380156,
                    52.38317
                ]
            },
            "properties": {
                "name": "Noord-Hollands Archief"
            }
        },
        {
            "type": "Feature",
            "geometry": {
                "type": "Point",
                "coordinates": [
                    5.1176307,
                    52.0945303
                ]
            },
            "properties": {
                "name": "MangaKissa"
            }
        },
        {
            "type": "Feature",
            "geometry": {
                "type": "Point",
                "coordinates": [
                    4.6481001,
                    52.4083687
                ]
            },
            "properties": {
                "name": "Bibliotheek Haarlem Noord"
            }
        },
        {
            "type": "Feature",
            "geometry": {
                "type": "Point",
                "coordinates": [
                    5.4825416,
                    52.2204748
                ]
            },
            "properties": {
                "name": "Bibliotheek Nijkerk"
            }
        },
        {
            "type": "Feature",
            "geometry": {
                "type": "Point",
                "coordinates": [
                    4.3141238,
                    52.0689042
                ]
            }
        },
        {
            "type": "Feature",
            "geometry": {
                "type": "Point",
                "coordinates": [
                    4.215891,
                    52.0247144
                ]
            },
            "properties": {
                "name": "Bibliotheek Westland"
            }
        },
        {
            "type": "Feature",
            "geometry": {
                "type": "Point",
                "coordinates": [
                    5.5403925,
                    52.071628
                ]
            },
            "properties": {
                "name": "Bibliotheek Renswoude"
            }
        },
        {
            "type": "Feature",
            "geometry": {
                "type": "Point",
                "coordinates": [
                    5.9148034,
                    52.5516646
                ]
            }
        },
        {
            "type": "Feature",
            "geometry": {
                "type": "Point",
                "coordinates": [
                    6.1953349,
                    52.6978892
                ]
            },
            "properties": {
                "name": "bibliotheek Meppel"
            }
        },
        {
            "type": "Feature",
            "geometry": {
                "type": "Point",
                "coordinates": [
                    5.064352,
                    52.0916222
                ]
            },
            "properties": {
                "name": "Bibliotheek Parkwijk"
            }
        },
        {
            "type": "Feature",
            "geometry": {
                "type": "Point",
                "coordinates": [
                    6.1115118,
                    52.336444
                ]
            },
            "properties": {
                "name": "Bibliotheek Olst"
            }
        },
        {
            "type": "Feature",
            "geometry": {
                "type": "Point",
                "coordinates": [
                    6.5248243,
                    53.2247992
                ]
            },
            "properties": {
                "name": "Groninger Forum Vinkhuizen"
            }
        },
        {
            "type": "Feature",
            "geometry": {
                "type": "Point",
                "coordinates": [
                    6.1877148,
                    52.0633397
                ]
            },
            "properties": {
                "name": "Bibliotheek West Achterhoek (Steenderen)"
            }
        },
        {
            "type": "Feature",
            "geometry": {
                "type": "Point",
                "coordinates": [
                    5.9284099,
                    52.9573089
                ]
            },
            "properties": {
                "name": "Openbare Bibliotheek"
            }
        },
        {
            "type": "Feature",
            "geometry": {
                "type": "Point",
                "coordinates": [
                    3.7952702,
                    51.227707
                ]
            },
            "properties": {
                "name": "Sas van Gent"
            }
        },
        {
            "type": "Feature",
            "geometry": {
                "type": "Point",
                "coordinates": [
                    6.6008124,
                    53.2491097
                ]
            },
            "properties": {
                "name": "Groninger Forum Beijum | Bibliotheek"
            }
        },
        {
            "type": "Feature",
            "geometry": {
                "type": "Point",
                "coordinates": [
                    5.9681544,
                    51.9627042
                ]
            },
            "properties": {
                "name": "Bibliotheek Liemers"
            }
        },
        {
            "type": "Feature",
            "geometry": {
                "type": "Point",
                "coordinates": [
                    6.6473877,
                    52.1032422
                ]
            },
            "properties": {
                "name": "Bibliotheek Oost Achterhoek"
            }
        },
        {
            "type": "Feature",
            "geometry": {
                "type": "Point",
                "coordinates": [
                    3.7565792,
                    51.2850223
                ]
            },
            "properties": {
                "name": "Bibliotheek Zeeuws-Vlaanderen"
            }
        },
        {
            "type": "Feature",
            "geometry": {
                "type": "Point",
                "coordinates": [
                    6.3810955,
                    52.3604452
                ]
            }
        },
        {
            "type": "Feature",
            "geometry": {
                "type": "Point",
                "coordinates": [
                    3.6883856,
                    51.3269285
                ]
            },
            "properties": {
                "name": "Bibliotheek Biervliet"
            }
        },
        {
            "type": "Feature",
            "geometry": {
                "type": "Point",
                "coordinates": [
                    3.7803149,
                    51.3140499
                ]
            },
            "properties": {
                "name": "Bibliotheek"
            }
        },
        {
            "type": "Feature",
            "geometry": {
                "type": "Point",
                "coordinates": [
                    4.3246562,
                    51.8495839
                ]
            },
            "properties": {
                "name": "De Boekenberg"
            }
        },
        {
            "type": "Feature",
            "geometry": {
                "type": "Point",
                "coordinates": [
                    5.5205602,
                    53.0615229
                ]
            }
        },
        {
            "type": "Feature",
            "geometry": {
                "type": "Point",
                "coordinates": [
                    6.5141725,
                    53.3317677
                ]
            },
            "properties": {
                "name": "Bibliotheek Winsum"
            }
        },
        {
            "type": "Feature",
            "geometry": {
                "type": "Point",
                "coordinates": [
                    5.3380551,
                    51.7712143
                ]
            },
            "properties": {
                "name": "Bibliotheek Kerkdriel"
            }
        },
        {
            "type": "Feature",
            "geometry": {
                "type": "Point",
                "coordinates": [
                    4.0540368,
                    51.2905045
                ]
            },
            "properties": {
                "name": "Bibliotheek"
            }
        },
        {
            "type": "Feature",
            "geometry": {
                "type": "Point",
                "coordinates": [
                    4.8688921,
                    52.366904
                ]
            },
            "properties": {
                "name": "Bibliotheek"
            }
        },
        {
            "type": "Feature",
            "geometry": {
                "type": "Point",
                "coordinates": [
                    4.2946853,
                    52.0801879
                ]
            },
            "properties": {
                "name": "Deutsche Bibliothek"
            }
        },
        {
            "type": "Feature",
            "geometry": {
                "type": "Point",
                "coordinates": [
                    4.4846586,
                    52.1591933
                ]
            },
            "properties": {
                "name": "Bibliotheca Thysiana"
            }
        },
        {
            "type": "Feature",
            "geometry": {
                "type": "Point",
                "coordinates": [
                    6.4294479,
                    53.139851
                ]
            },
            "properties": {
                "name": "De Cirkel Roden"
            }
        },
        {
            "type": "Feature",
            "geometry": {
                "type": "Point",
                "coordinates": [
                    6.1056803,
                    52.2366487
                ]
            },
            "properties": {
                "name": "De Bibliotheek Brummen | Voorst"
            }
        },
        {
            "type": "Feature",
            "geometry": {
                "type": "Point",
                "coordinates": [
                    4.3397147,
                    51.9091422
                ]
            },
            "properties": {
                "name": "Bibliotheek"
            }
        },
        {
            "type": "Feature",
            "geometry": {
                "type": "Point",
                "coordinates": [
                    4.7163344,
                    52.0122921
                ]
            },
            "properties": {
                "name": "De Chocoladefabriek (Openbare Bibliotheek)"
            }
        },
        {
            "type": "Feature",
            "geometry": {
                "type": "Point",
                "coordinates": [
                    3.8188685,
                    51.4736902
                ]
            },
            "properties": {
                "name": "Bibliotheek"
            }
        },
        {
            "type": "Feature",
            "geometry": {
                "type": "Point",
                "coordinates": [
                    4.4290857,
                    51.9350926
                ]
            },
            "properties": {
                "name": "Bibliotheek Overschie"
            }
        },
        {
            "type": "Feature",
            "geometry": {
                "type": "Point",
                "coordinates": [
                    5.3253714,
                    51.5875276
                ]
            },
            "properties": {
                "name": "Openbare Bibliotheek De Meijerij"
            }
        },
        {
            "type": "Feature",
            "geometry": {
                "type": "Point",
                "coordinates": [
                    3.9064867,
                    51.4596832
                ]
            },
            "properties": {
                "name": "Bibliotheek"
            }
        },
        {
            "type": "Feature",
            "geometry": {
                "type": "Point",
                "coordinates": [
                    6.1593203,
                    51.4937232
                ]
            }
        },
        {
            "type": "Feature",
            "geometry": {
                "type": "Point",
                "coordinates": [
                    5.474433,
                    51.6500051
                ]
            },
            "properties": {
                "name": "Bibliotheek Heeswijk-Dinther"
            }
        },
        {
            "type": "Feature",
            "geometry": {
                "type": "Point",
                "coordinates": [
                    6.1447421,
                    53.2522263
                ]
            },
            "properties": {
                "name": "Bibliotheek Buitenpost"
            }
        },
        {
            "type": "Feature",
            "geometry": {
                "type": "Point",
                "coordinates": [
                    5.5280453,
                    51.7341031
                ]
            },
            "properties": {
                "name": "Bibliotheek Heesch"
            }
        },
        {
            "type": "Feature",
            "geometry": {
                "type": "Point",
                "coordinates": [
                    5.561632,
                    51.701834
                ]
            },
            "properties": {
                "name": "Bibliotheek Nistelrode"
            }
        },