{
    "type": "FeatureCollection",
    "features": [
        {
            "type": "Feature",
            "geometry": {
                "type": "Point",
                "coordinates": [
                    5.2389793,
                    60.5178256
                ]
            },
            "properties": {
                "name": "Meland Bibliotet"
            }
        },
        {
            "type": "Feature",
            "geometry": {
                "type": "Point",
                "coordinates": [
                    5.6508802,
                    58.7338123
                ]
            },
            "properties": {
                "name": "Time bibliotek"
            }
        },
        {
            "type": "Feature",
            "geometry": {
                "type": "Point",
                "coordinates": [
                    5.3294192,
                    60.3844957
                ]
            },
            "properties": {
                "name": "Bibliotek for realfag"
            }
        },
        {
            "type": "Feature",
            "geometry": {
                "type": "Point",
                "coordinates": [
                    5.2888569,
                    60.547889
                ]
            },
            "properties": {
                "name": "Lind\u00e5s bibliotek"
            }
        },
        {
            "type": "Feature",
            "geometry": {
                "type": "Point",
                "coordinates": [
                    11.3537765,
                    59.1286533
                ]
            }
        },
        {
            "type": "Feature",
            "geometry": {
                "type": "Point",
                "coordinates": [
                    11.4692429,
                    60.1226647
                ]
            },
            "properties": {
                "name": "Nes Bibliotek"
            }
        },
        {
            "type": "Feature",
            "geometry": {
                "type": "Point",
                "coordinates": [
                    10.4011067,
                    63.4308036
                ]
            },
            "properties": {
                "name": "Trondheim Folkebibliotek"
            }
        },
        {
            "type": "Feature",
            "geometry": {
                "type": "Point",
                "coordinates": [
                    5.2351799,
                    60.3630032
                ]
            }
        },
        {
            "type": "Feature",
            "geometry": {
                "type": "Point",
                "coordinates": [
                    10.4448556,
                    63.4117186
                ]
            },
            "properties": {
                "name": "Moholt bibliotek"
            }
        },
        {
            "type": "Feature",
            "geometry": {
                "type": "Point",
                "coordinates": [
                    19.9617386,
                    69.2729424
                ]
            },
            "properties": {
                "name": "Storfjord folkebibliotek"
            }
        },
        {
            "type": "Feature",
            "geometry": {
                "type": "Point",
                "coordinates": [
                    18.5120506,
                    69.0459644
                ]
            },
            "properties": {
                "name": "istindportalen"
            }
        },
        {
            "type": "Feature",
            "geometry": {
                "type": "Point",
                "coordinates": [
                    9.1273312,
                    62.0743609
                ]
            },
            "properties": {
                "name": "Domb\u00e5s bibliotek"
            }
        },
        {
            "type": "Feature",
            "geometry": {
                "type": "Point",
                "coordinates": [
                    13.6113864,
                    68.148194
                ]
            },
            "properties": {
                "name": "Library"
            }
        },
        {
            "type": "Feature",
            "geometry": {
                "type": "Point",
                "coordinates": [
                    10.0673077,
                    63.3239735
                ]
            },
            "properties": {
                "name": "Skaun folkebibliotek"
            }
        },
        {
            "type": "Feature",
            "geometry": {
                "type": "Point",
                "coordinates": [
                    10.8113089,
                    59.8742126
                ]
            },
            "properties": {
                "name": "Deichmanske bibliotek, avdeling Lambertseter"
            }
        },
        {
            "type": "Feature",
            "geometry": {
                "type": "Point",
                "coordinates": [
                    10.7162596,
                    59.9306084
                ]
            },
            "properties": {
                "name": "Deichmanske bibliotek, Majorstuen filial"
            }
        },
        {
            "type": "Feature",
            "geometry": {
                "type": "Point",
                "coordinates": [
                    7.9707895,
                    58.2704188
                ]
            },
            "properties": {
                "name": "Vennesla bibliotek"
            }
        },
        {
            "type": "Feature",
            "geometry": {
                "type": "Point",
                "coordinates": [
                    11.4873074,
                    64.0184648
                ]
            },
            "properties": {
                "name": "Steinkjer folkebibliotek"
            }
        },
        {
            "type": "Feature",
            "geometry": {
                "type": "Point",
                "coordinates": [
                    9.8498997,
                    63.3058321
                ]
            },
            "properties": {
                "name": "Orkdal folkebibliotek"
            }
        },
        {
            "type": "Feature",
            "geometry": {
                "type": "Point",
                "coordinates": [
                    9.6058441,
                    59.2075564
                ]
            },
            "properties": {
                "name": "Skien folkebibliotek"
            }
        },
        {
            "type": "Feature",
            "geometry": {
                "type": "Point",
                "coordinates": [
                    5.353614,
                    60.3176936
                ]
            },
            "properties": {
                "name": "Nesttun Folkebibliotek"
            }
        },
        {
            "type": "Feature",
            "geometry": {
                "type": "Point",
                "coordinates": [
                    10.767963,
                    59.9375756
                ]
            }
        },
        {
            "type": "Feature",
            "geometry": {
                "type": "Point",
                "coordinates": [
                    10.7464394,
                    59.9166457
                ]
            },
            "properties": {
                "name": "Deichmanske bibliotek"
            }
        },
        {
            "type": "Feature",
            "geometry": {
                "type": "Point",
                "coordinates": [
                    10.6777981,
                    59.8403585
                ]
            }
        },
        {
            "type": "Feature",
            "geometry": {
                "type": "Point",
                "coordinates": [
                    5.3679048,
                    60.3614922
                ]
            },
            "properties": {
                "name": "Bergen Offentlige Bibliotek, Land\u00e5s filial"
            }
        },
        {
            "type": "Feature",
            "geometry": {
                "type": "Point",
                "coordinates": [
                    10.7155471,
                    59.9479701
                ]
            },
            "properties": {
                "name": "Universitetsbiblioteket i Oslo - Bibliotek for medisin og helsefag"
            }
        },
        {
            "type": "Feature",
            "geometry": {
                "type": "Point",
                "coordinates": [
                    5.7396493,
                    58.8512378
                ]
            },
            "properties": {
                "name": "Sandnes bibliotek"
            }
        },
        {
            "type": "Feature",
            "geometry": {
                "type": "Point",
                "coordinates": [
                    10.4326293,
                    59.836078
                ]
            },
            "properties": {
                "name": "Asker folkebibliotek"
            }
        },
        {
            "type": "Feature",
            "geometry": {
                "type": "Point",
                "coordinates": [
                    11.3009644,
                    63.7456419
                ]
            },
            "properties": {
                "name": "Levanger Bibliotek"
            }
        },
        {
            "type": "Feature",
            "geometry": {
                "type": "Point",
                "coordinates": [
                    10.4031193,
                    59.6068524
                ]
            },
            "properties": {
                "name": "Svelvik folkebibliotek"
            }
        },
        {
            "type": "Feature",
            "geometry": {
                "type": "Point",
                "coordinates": [
                    7.8026689,
                    58.6671341
                ]
            },
            "properties": {
                "name": "Byglandsfjord folkebibliotek"
            }
        },
        {
            "type": "Feature",
            "geometry": {
                "type": "Point",
                "coordinates": [
                    11.1744997,
                    60.1436176
                ]
            },
            "properties": {
                "name": "Ullensaker bibliotek"
            }
        },
        {
            "type": "Feature",
            "geometry": {
                "type": "Point",
                "coordinates": [
                    5.7334782,
                    58.9715275
                ]
            },
            "properties": {
                "name": "Stavanger Bibliotek"
            }
        },
        {
            "type": "Feature",
            "geometry": {
                "type": "Point",
                "coordinates": [
                    10.8924843,
                    59.9635353
                ]
            },
            "properties": {
                "name": "Deichmanske Bibliotek Roms\u00e5s"
            }
        },
        {
            "type": "Feature",
            "geometry": {
                "type": "Point",
                "coordinates": [
                    10.3648121,
                    63.3949026
                ]
            },
            "properties": {
                "name": "Trondheim folkebibliotek By\u00e5sen"
            }
        },
        {
            "type": "Feature",
            "geometry": {
                "type": "Point",
                "coordinates": [
                    10.3595727,
                    63.3525929
                ]
            },
            "properties": {
                "name": "Heimdal bibliotek"
            }
        },
        {
            "type": "Feature",
            "geometry": {
                "type": "Point",
                "coordinates": [
                    14.4550325,
                    68.6190164
                ]
            },
            "properties": {
                "name": "B\u00f8 folkebibliotek"
            }
        },
        {
            "type": "Feature",
            "geometry": {
                "type": "Point",
                "coordinates": [
                    10.4064438,
                    63.4159751
                ]
            },
            "properties": {
                "name": "Realfagbiblioteket"
            }
        },
        {
            "type": "Feature",
            "geometry": {
                "type": "Point",
                "coordinates": [
                    10.4023556,
                    63.4191316
                ]
            },
            "properties": {
                "name": "Teknologibiblioteket"
            }
        },
        {
            "type": "Feature",
            "geometry": {
                "type": "Point",
                "coordinates": [
                    10.4046638,
                    63.4170866
                ]
            },
            "properties": {
                "name": "Biblioteket arkitektur, bygg og design"
            }
        },
        {
            "type": "Feature",
            "geometry": {
                "type": "Point",
                "coordinates": [
                    10.4356502,
                    63.4226627
                ]
            },
            "properties": {
                "name": "Marinbiblioteket"
            }
        },
        {
            "type": "Feature",
            "geometry": {
                "type": "Point",
                "coordinates": [
                    10.4702642,
                    63.4080357
                ]
            },
            "properties": {
                "name": "Biblioteket Dragvoll"
            }
        },
        {
            "type": "Feature",
            "geometry": {
                "type": "Point",
                "coordinates": [
                    10.3877747,
                    63.4207757
                ]
            },
            "properties": {
                "name": "Bibliotek for medisin og helse"
            }
        },
        {
            "type": "Feature",
            "geometry": {
                "type": "Point",
                "coordinates": [
                    10.4139156,
                    63.4338776
                ]
            },
            "properties": {
                "name": "Biblioteket Kunstakademiet"
            }
        },
        {
            "type": "Feature",
            "geometry": {
                "type": "Point",
                "coordinates": [
                    10.4035908,
                    63.4333238
                ]
            },
            "properties": {
                "name": "Musikkbiblioteket"
            }
        },
        {
            "type": "Feature",
            "geometry": {
                "type": "Point",
                "coordinates": [
                    10.4066984,
                    63.4089694
                ]
            },
            "properties": {
                "name": "Biblioteket Valgrinda"
            }
        },
        {
            "type": "Feature",
            "geometry": {
                "type": "Point",
                "coordinates": [
                    10.4549797,
                    63.4528718
                ]
            },
            "properties": {
                "name": "Psykiatrisk fagbibliotek"
            }
        },
        {
            "type": "Feature",
            "geometry": {
                "type": "Point",
                "coordinates": [
                    10.4212085,
                    63.4392952
                ]
            },
            "properties": {
                "name": "Dorabiblioteket"
            }
        },
        {
            "type": "Feature",
            "geometry": {
                "type": "Point",
                "coordinates": [
                    12.0015502,
                    60.1910102
                ]
            },
            "properties": {
                "name": "Kongsvinger bibliotek"
            }
        },
        {
            "type": "Feature",
            "geometry": {
                "type": "Point",
                "coordinates": [
                    10.4098936,
                    59.2658708
                ]
            },
            "properties": {
                "name": "T\u00f8nsberg bibliotek"
            }
        },
        {
            "type": "Feature",
            "geometry": {
                "type": "Point",
                "coordinates": [
                    5.650278,
                    58.8888717
                ]
            },
            "properties": {
                "name": "Sola folkebibliotek"
            }
        },
        {
            "type": "Feature",
            "geometry": {
                "type": "Point",
                "coordinates": [
                    10.8115456,
                    59.9424408
                ]
            },
            "properties": {
                "name": "Deichmanske bibliotek, Bjerke"
            }
        },
        {
            "type": "Feature",
            "geometry": {
                "type": "Point",
                "coordinates": [
                    10.348964,
                    63.3660714
                ]
            },
            "properties": {
                "name": "Saupstad bibliotek"
            }
        },
        {
            "type": "Feature",
            "geometry": {
                "type": "Point",
                "coordinates": [
                    5.6949131,
                    58.9382424
                ]
            },
            "properties": {
                "name": "Universitetsbiblioteket"
            }
        },
        {
            "type": "Feature",
            "geometry": {
                "type": "Point",
                "coordinates": [
                    5.4441037,
                    59.4236568
                ]
            },
            "properties": {
                "name": "Tysv\u00e6r bibliotek"
            }
        },
        {
            "type": "Feature",
            "geometry": {
                "type": "Point",
                "coordinates": [
                    7.9530508,
                    58.1252236
                ]
            },
            "properties": {
                "name": "V\u00e5gsbygd Bibliotek"
            }
        },
        {
            "type": "Feature",
            "geometry": {
                "type": "Point",
                "coordinates": [
                    10.8708127,
                    59.3520993
                ]
            },
            "properties": {
                "name": "R\u00e5de Bibliotek"
            }
        },
        {
            "type": "Feature",
            "geometry": {
                "type": "Point",
                "coordinates": [
                    6.8046109,
                    58.093633
                ]
            },
            "properties": {
                "name": "Farsund bibliotek"
            }
        },
        {
            "type": "Feature",
            "geometry": {
                "type": "Point",
                "coordinates": [
                    8.4603021,
                    62.9200888
                ]
            }
        },
        {
            "type": "Feature",
            "geometry": {
                "type": "Point",
                "coordinates": [
                    7.934881,
                    58.1470467
                ]
            },
            "properties": {
                "name": "Hellemyr bibliotek"
            }
        },
        {
            "type": "Feature",
            "geometry": {
                "type": "Point",
                "coordinates": [
                    10.4339507,
                    63.4140031
                ]
            },
            "properties": {
                "name": "Universitetsbibliotek (ubetjent filial)"
            }
        },
        {
            "type": "Feature",
            "geometry": {
                "type": "Point",
                "coordinates": [
                    5.875932,
                    59.1727064
                ]
            }
        },
        {
            "type": "Feature",
            "geometry": {
                "type": "Point",
                "coordinates": [
                    5.6807031,
                    58.9526077
                ]
            },
            "properties": {
                "name": "Stavanger bibiliotek"
            }
        },
        {
            "type": "Feature",
            "geometry": {
                "type": "Point",
                "coordinates": [
                    5.4972183,
                    59.7783264
                ]
            },
            "properties": {
                "name": "Stord folkebibliotek"
            }
        },
        {
            "type": "Feature",
            "geometry": {
                "type": "Point",
                "coordinates": [
                    11.1937202,
                    60.717084
                ]
            },
            "properties": {
                "name": "Stange bibliotek"
            }
        },
        {
            "type": "Feature",
            "geometry": {
                "type": "Point",
                "coordinates": [
                    10.7756415,
                    59.9141126
                ]
            },
            "properties": {
                "name": "Deichmanske bibliotek, filial  T\u00f8yen"
            }
        },
        {
            "type": "Feature",
            "geometry": {
                "type": "Point",
                "coordinates": [
                    17.4275602,
                    68.4392578
                ]
            }
        },
        {
            "type": "Feature",
            "geometry": {
                "type": "Point",
                "coordinates": [
                    7.9938446,
                    58.1457912
                ]
            },
            "properties": {
                "name": "Folkebibliotek"
            }
        },
        {
            "type": "Feature",
            "geometry": {
                "type": "Point",
                "coordinates": [
                    17.6935759,
                    69.0922863
                ]
            },
            "properties": {
                "name": "Nordavindshagen"
            }
        },
        {
            "type": "Feature",
            "geometry": {
                "type": "Point",
                "coordinates": [
                    10.618829,
                    59.9466694
                ]
            },
            "properties": {
                "name": "Eiksmarka bibliotek"
            }
        },
        {
            "type": "Feature",
            "geometry": {
                "type": "Point",
                "coordinates": [
                    10.1940736,
                    59.7437367
                ]
            },
            "properties": {
                "name": "Drammensbiblioteket"
            }
        },
        {
            "type": "Feature",
            "geometry": {
                "type": "Point",
                "coordinates": [
                    18.9929512,
                    69.645368
                ]
            },
            "properties": {
                "name": "Troms\u00f8 Bibliotek avd. Tromsdalen"
            }
        },
        {
            "type": "Feature",
            "geometry": {
                "type": "Point",
                "coordinates": [
                    10.2200274,
                    59.1283038
                ]
            },
            "properties": {
                "name": "Sandefjord Bibliotek"
            }
        },
        {
            "type": "Feature",
            "geometry": {
                "type": "Point",
                "coordinates": [
                    7.0689817,
                    58.1384413
                ]
            },
            "properties": {
                "name": "Lyngdal Bibliotek"
            }
        },
        {
            "type": "Feature",
            "geometry": {
                "type": "Point",
                "coordinates": [
                    10.6677776,
                    59.4384339
                ]
            },
            "properties": {
                "name": "Moss Bibliotek"
            }
        },
        {
            "type": "Feature",
            "geometry": {
                "type": "Point",
                "coordinates": [
                    12.3128319,
                    64.4644335
                ]
            },
            "properties": {
                "name": "Grong Bibliotek"
            }
        },
        {
            "type": "Feature",
            "geometry": {
                "type": "Point",
                "coordinates": [
                    11.3392429,
                    60.8206606
                ]
            }
        },
        {
            "type": "Feature",
            "geometry": {
                "type": "Point",
                "coordinates": [
                    10.7683582,
                    59.9381578
                ]
            }
        },
        {
            "type": "Feature",
            "geometry": {
                "type": "Point",
                "coordinates": [
                    5.8450493,
                    58.9264814
                ]
            },
            "properties": {
                "name": "Riska bibliotek"
            }
        },
        {
            "type": "Feature",
            "geometry": {
                "type": "Point",
                "coordinates": [
                    5.8550596,
                    58.7653914
                ]
            },
            "properties": {
                "name": "Gjesdal Folkebibliotek"
            }
        },
        {
            "type": "Feature",
            "geometry": {
                "type": "Point",
                "coordinates": [
                    11.0742868,
                    60.796329
                ]
            }
        },
        {
            "type": "Feature",
            "geometry": {
                "type": "Point",
                "coordinates": [
                    5.5967093,
                    58.9346664
                ]
            }
        },
        {
            "type": "Feature",
            "geometry": {
                "type": "Point",
                "coordinates": [
                    10.2568145,
                    60.1668834
                ]
            },
            "properties": {
                "name": "Ringerike Bibliotek"
            }
        },
        {
            "type": "Feature",
            "geometry": {
                "type": "Point",
                "coordinates": [
                    10.5774445,
                    59.8989514
                ]
            }
        },
        {
            "type": "Feature",
            "geometry": {
                "type": "Point",
                "coordinates": [
                    9.2372239,
                    60.9855458
                ]
            }
        },
        {
            "type": "Feature",
            "geometry": {
                "type": "Point",
                "coordinates": [
                    8.0649453,
                    59.6946697
                ]
            }
        },
        {
            "type": "Feature",
            "geometry": {
                "type": "Point",
                "coordinates": [
                    5.8680423,
                    61.4534227
                ]
            },
            "properties": {
                "name": "F\u00f8rde bibliotek"
            }
        },
        {
            "type": "Feature",
            "geometry": {
                "type": "Point",
                "coordinates": [
                    11.659585,
                    59.4795167
                ]
            },
            "properties": {
                "name": "Marker Bibliotek"
            }
        },
        {
            "type": "Feature",
            "geometry": {
                "type": "Point",
                "coordinates": [
                    8.5899931,
                    58.343189
                ]
            }
        },
        {
            "type": "Feature",
            "geometry": {
                "type": "Point",
                "coordinates": [
                    6.264429,
                    62.6761971
                ]
            }
        },
        {
            "type": "Feature",
            "geometry": {
                "type": "Point",
                "coordinates": [
                    9.6567095,
                    59.1411699
                ]
            },
            "properties": {
                "name": "Porsgrunn bibliotek"
            }
        },
        {
            "type": "Feature",
            "geometry": {
                "type": "Point",
                "coordinates": [
                    23.2751665,
                    69.966651
                ]
            },
            "properties": {
                "name": "Alta Bibliotek"
            }
        },
        {
            "type": "Feature",
            "geometry": {
                "type": "Point",
                "coordinates": [
                    8.377965,
                    58.2483753
                ]
            },
            "properties": {
                "name": "Lillesand Bibliotek"
            }
        },
        {
            "type": "Feature",
            "geometry": {
                "type": "Point",
                "coordinates": [
                    9.4123677,
                    58.8696416
                ]
            },
            "properties": {
                "name": "Krager\u00f8 bibliotek"
            }
        },
        {
            "type": "Feature",
            "geometry": {
                "type": "Point",
                "coordinates": [
                    10.7906703,
                    59.6641338
                ]
            },
            "properties": {
                "name": "\u00c5s bibliotek"
            }
        },
        {
            "type": "Feature",
            "geometry": {
                "type": "Point",
                "coordinates": [
                    30.045036,
                    69.7273989
                ]
            },
            "properties": {
                "name": "S\u00f8r-Varanger bibliotek"
            }
        },
        {
            "type": "Feature",
            "geometry": {
                "type": "Point",
                "coordinates": [
                    10.8739756,
                    59.9512857
                ]
            }
        },
        {
            "type": "Feature",
            "geometry": {
                "type": "Point",
                "coordinates": [
                    10.1408941,
                    61.5297022
                ]
            },
            "properties": {
                "name": "Ringebu bibliotek"
            }
        },
        {
            "type": "Feature",
            "geometry": {
                "type": "Point",
                "coordinates": [
                    10.4128442,
                    59.7455454
                ]
            },
            "properties": {
                "name": "Midtbygda bibliotek"
            }
        },
        {
            "type": "Feature",
            "geometry": {
                "type": "Point",
                "coordinates": [
                    10.4972226,
                    59.7817639
                ]
            },
            "properties": {
                "name": "Slemmestad bibliotek"
            }
        },
        {
            "type": "Feature",
            "geometry": {
                "type": "Point",
                "coordinates": [
                    11.035495,
                    60.0728252
                ]
            }
        },
        {
            "type": "Feature",
            "geometry": {
                "type": "Point",
                "coordinates": [
                    7.3021457,
                    58.0841367
                ]
            },
            "properties": {
                "name": "Lindesnes bibliotek, Kulturtorvet"
            }
        },
        {
            "type": "Feature",
            "geometry": {
                "type": "Point",
                "coordinates": [
                    6.0410541,
                    59.023596
                ]
            }
        },
        {
            "type": "Feature",
            "geometry": {
                "type": "Point",
                "coordinates": [
                    12.2132375,
                    65.468159
                ]
            }
        },
        {
            "type": "Feature",
            "geometry": {
                "type": "Point",
                "coordinates": [
                    11.0019257,
                    59.6588704
                ]
            },
            "properties": {
                "name": "Hob\u00f8l Bibliotek"
            }
        },
        {
            "type": "Feature",
            "geometry": {
                "type": "Point",
                "coordinates": [
                    9.5519138,
                    60.8240123
                ]
            },
            "properties": {
                "name": "S\u00f8r Aurdal Folkebibliotek"
            }
        },
        {
            "type": "Feature",
            "geometry": {
                "type": "Point",
                "coordinates": [
                    10.7946001,
                    59.8351239
                ]
            },
            "properties": {
                "name": "Deichmanske bibliotek"
            }
        },
        {
            "type": "Feature",
            "geometry": {
                "type": "Point",
                "coordinates": [
                    5.3556051,
                    62.0415838
                ]
            },
            "properties": {
                "name": "Selje Bibliotek"
            }
        },
        {
            "type": "Feature",
            "geometry": {
                "type": "Point",
                "coordinates": [
                    12.3984579,
                    60.4214912
                ]
            },
            "properties": {
                "name": "Grue folkebibliotek filial Svullrya"
            }
        },
        {
            "type": "Feature",
            "geometry": {
                "type": "Point",
                "coordinates": [
                    11.1693953,
                    59.2666845
                ]
            },
            "properties": {
                "name": "Skjeberg bibliotek"
            }
        },
        {
            "type": "Feature",
            "geometry": {
                "type": "Point",
                "coordinates": [
                    10.6624383,
                    59.8555232
                ]
            },
            "properties": {
                "name": "Nesodden Bibliotek"
            }
        },
        {
            "type": "Feature",
            "geometry": {
                "type": "Point",
                "coordinates": [
                    6.4108214,
                    60.6281384
                ]
            },
            "properties": {
                "name": "Voss Bibliotek"
            }
        },
        {
            "type": "Feature",
            "geometry": {
                "type": "Point",
                "coordinates": [
                    5.4118432,
                    59.7837737
                ]
            },
            "properties": {
                "name": "Stord folkebibliotek, Litlab\u00f8"
            }
        },
        {
            "type": "Feature",
            "geometry": {
                "type": "Point",
                "coordinates": [
                    7.1968114,
                    60.9040427
                ]
            },
            "properties": {
                "name": "Aurland Folkebibliotek"
            }
        },
        {
            "type": "Feature",
            "geometry": {
                "type": "Point",
                "coordinates": [
                    13.2336844,
                    68.09177
                ]
            }
        },
        {
            "type": "Feature",
            "geometry": {
                "type": "Point",
                "coordinates": [
                    17.9883354,
                    69.2312079
                ]
            }
        },
        {
            "type": "Feature",
            "geometry": {
                "type": "Point",
                "coordinates": [
                    10.961401,
                    59.9280486
                ]
            },
            "properties": {
                "name": "L\u00f8renskog bibliotek"
            }
        },
        {
            "type": "Feature",
            "geometry": {
                "type": "Point",
                "coordinates": [
                    28.1845552,
                    70.1994912
                ]
            },
            "properties": {
                "name": "Tana Bibliotek"
            }
        },
        {
            "type": "Feature",
            "geometry": {
                "type": "Point",
                "coordinates": [
                    8.5612372,
                    60.6298446
                ]
            },
            "properties": {
                "name": "\u00c5l bibliotek"
            }
        },
        {
            "type": "Feature",
            "geometry": {
                "type": "Point",
                "coordinates": [
                    29.7557097,
                    70.0727403
                ]
            },
            "properties": {
                "name": "Vads\u00f8 bibliotek"
            }
        },
        {
            "type": "Feature",
            "geometry": {
                "type": "Point",
                "coordinates": [
                    10.7233881,
                    59.9401407
                ]
            },
            "properties": {
                "name": "Realfagsbiblioteket"
            }
        },
        {
            "type": "Feature",
            "geometry": {
                "type": "Point",
                "coordinates": [
                    8.8283317,
                    63.7304291
                ]
            },
            "properties": {
                "name": "Fr\u00f8ya folkebibliotek"
            }
        },
        {
            "type": "Feature",
            "geometry": {
                "type": "Point",
                "coordinates": [
                    10.8419131,
                    59.8942785
                ]
            },
            "properties": {
                "name": "Oppsal Filial"
            }
        },
        {
            "type": "Feature",
            "geometry": {
                "type": "Point",
                "coordinates": [
                    5.3253081,
                    60.3882238
                ]
            },
            "properties": {
                "name": "Bibliotek for Samfunnsvitenskap"
            }
        },
        {
            "type": "Feature",
            "geometry": {
                "type": "Point",
                "coordinates": [
                    6.4965502,
                    59.4888079
                ]
            },
            "properties": {
                "name": "Ryfylkebiblioteket, Suldalsosen filial"
            }
        },
        {
            "type": "Feature",
            "geometry": {
                "type": "Point",
                "coordinates": [
                    6.1349625,
                    62.5007471
                ]
            },
            "properties": {
                "name": "Giske Bibliotek"
            }
        },
        {
            "type": "Feature",
            "geometry": {
                "type": "Point",
                "coordinates": [
                    11.95261,
                    65.6753662
                ]
            },
            "properties": {
                "name": "Vega folkebibliotek"
            }
        },
        {
            "type": "Feature",
            "geometry": {
                "type": "Point",
                "coordinates": [
                    7.1534195,
                    62.8546988
                ]
            },
            "properties": {
                "name": "Fr\u00e6na folkebibliotek"
            }
        },
        {
            "type": "Feature",
            "geometry": {
                "type": "Point",
                "coordinates": [
                    9.9590623,
                    63.5828492
                ]
            },
            "properties": {
                "name": "Rissa Bibliotek"
            }
        },
        {
            "type": "Feature",
            "geometry": {
                "type": "Point",
                "coordinates": [
                    10.4402968,
                    61.2398425
                ]
            },
            "properties": {
                "name": "\u00d8yer folkebibliotek"
            }
        },
        {
            "type": "Feature",
            "geometry": {
                "type": "Point",
                "coordinates": [
                    10.5234028,
                    59.8887358
                ]
            }
        },
        {
            "type": "Feature",
            "geometry": {
                "type": "Point",
                "coordinates": [
                    9.0884739,
                    63.2899815
                ]
            },
            "properties": {
                "name": "Hemne bibliotek"
            }
        },
        {
            "type": "Feature",
            "geometry": {
                "type": "Point",
                "coordinates": [
                    16.8293503,
                    68.3426396
                ]
            },
            "properties": {
                "name": "Ballanen folkebibliotek"
            }
        },
        {
            "type": "Feature",
            "geometry": {
                "type": "Point",
                "coordinates": [
                    25.515433,
                    69.4723059
                ]
            },
            "properties": {
                "name": "Karasjok bibliotek"
            }
        },
        {
            "type": "Feature",
            "geometry": {
                "type": "Point",
                "coordinates": [
                    9.8796035,
                    59.8503231
                ]
            }
        },
        {
            "type": "Feature",
            "geometry": {
                "type": "Point",
                "coordinates": [
                    8.5936263,
                    59.8786842
                ]
            },
            "properties": {
                "name": "Rjukan bibliotek"
            }
        },
        {
            "type": "Feature",
            "geometry": {
                "type": "Point",
                "coordinates": [
                    12.094103,
                    66.5025127
                ]
            },
            "properties": {
                "name": "Tr\u00e6na Folkebibliotek"
            }
        },
        {
            "type": "Feature",
            "geometry": {
                "type": "Point",
                "coordinates": [
                    11.2327337,
                    64.8619645
                ]
            }
        },
        {
            "type": "Feature",
            "geometry": {
                "type": "Point",
                "coordinates": [
                    7.4561944,
                    58.0252367
                ]
            },
            "properties": {
                "name": "Mandal Biblioteket"
            }
        },
        {
            "type": "Feature",
            "geometry": {
                "type": "Point",
                "coordinates": [
                    5.2271908,
                    60.4092175
                ]
            },
            "properties": {
                "name": "Ask\u00f8y Folkebibliotek"
            }
        },
        {
            "type": "Feature",
            "geometry": {
                "type": "Point",
                "coordinates": [
                    11.5405966,
                    60.3915385
                ]
            },
            "properties": {
                "name": "Nord-Odal bibliotek"
            }
        },
        {
            "type": "Feature",
            "geometry": {
                "type": "Point",
                "coordinates": [
                    10.6274091,
                    63.6736568
                ]
            },
            "properties": {
                "name": "Leksvik Bibliotek"
            }
        },
        {
            "type": "Feature",
            "geometry": {
                "type": "Point",
                "coordinates": [
                    20.2174576,
                    69.5751046
                ]
            }
        },
        {
            "type": "Feature",
            "geometry": {
                "type": "Point",
                "coordinates": [
                    6.3526802,
                    59.6505386
                ]
            },
            "properties": {
                "name": "Ryfylkebiblioteket"
            }
        },
        {
            "type": "Feature",
            "geometry": {
                "type": "Point",
                "coordinates": [
                    5.7406191,
                    62.0892766
                ]
            }
        },
        {
            "type": "Feature",
            "geometry": {
                "type": "Point",
                "coordinates": [
                    17.1572998,
                    68.7853346
                ]
            }
        },
        {
            "type": "Feature",
            "geometry": {
                "type": "Point",
                "coordinates": [
                    6.1548112,
                    62.471335
                ]
            },
            "properties": {
                "name": "\u00c5lesund bibliotek"
            }
        },
        {
            "type": "Feature",
            "geometry": {
                "type": "Point",
                "coordinates": [
                    7.155583,
                    62.7363025
                ]
            },
            "properties": {
                "name": "Molde bibliotek"
            }
        },
        {
            "type": "Feature",
            "geometry": {
                "type": "Point",
                "coordinates": [
                    10.9170778,
                    63.4678706
                ]
            },
            "properties": {
                "name": "Stj\u00f8rdal bibliotek"
            }
        },
        {
            "type": "Feature",
            "geometry": {
                "type": "Point",
                "coordinates": [
                    11.502399,
                    64.4681415
                ]
            },
            "properties": {
                "name": "Namsos bibliotek"
            }
        },
        {
            "type": "Feature",
            "geometry": {
                "type": "Point",
                "coordinates": [
                    15.4167534,
                    68.6968413
                ]
            }
        },
        {
            "type": "Feature",
            "geometry": {
                "type": "Point",
                "coordinates": [
                    8.6300346,
                    58.508764
                ]
            },
            "properties": {
                "name": "Froland Folkebibliotek"
            }
        },
        {
            "type": "Feature",
            "geometry": {
                "type": "Point",
                "coordinates": [
                    11.066864,
                    60.795036
                ]
            },
            "properties": {
                "name": "Hamar folkebibliotek"
            }
        },
        {
            "type": "Feature",
            "geometry": {
                "type": "Point",
                "coordinates": [
                    8.0799414,
                    63.3301882
                ]
            },
            "properties": {
                "name": "Sm\u00f8la folkebibliotek"
            }
        },
        {
            "type": "Feature",
            "geometry": {
                "type": "Point",
                "coordinates": [
                    10.8973799,
                    59.9410716
                ]
            },
            "properties": {
                "name": "Furuset bibliotek"
            }
        },
        {
            "type": "Feature",
            "geometry": {
                "type": "Point",
                "coordinates": [
                    6.9583902,
                    58.3193128
                ]
            }
        },
        {
            "type": "Feature",
            "geometry": {
                "type": "Point",
                "coordinates": [
                    5.3232342,
                    59.9202566
                ]
            },
            "properties": {
                "name": "Fitjar Bibliotek"
            }
        },
        {
            "type": "Feature",
            "geometry": {
                "type": "Point",
                "coordinates": [
                    7.8149223,
                    58.0966235
                ]
            },
            "properties": {
                "name": "S\u00f8gne Bibliotek"
            }
        },
        {
            "type": "Feature",
            "geometry": {
                "type": "Point",
                "coordinates": [
                    7.0022059,
                    58.019152
                ]
            },
            "properties": {
                "name": "Korshamn bibliotek"
            }
        },
        {
            "type": "Feature",
            "geometry": {
                "type": "Point",
                "coordinates": [
                    11.036361,
                    59.0251422
                ]
            },
            "properties": {
                "name": "Hvaler Folkebibliotek"
            }
        },
        {
            "type": "Feature",
            "geometry": {
                "type": "Point",
                "coordinates": [
                    11.0644242,
                    59.294347
                ]
            },
            "properties": {
                "name": "Tune omr\u00e5debibliotek"
            }
        },
        {
            "type": "Feature",
            "geometry": {
                "type": "Point",
                "coordinates": [
                    12.1234253,
                    59.9856969
                ]
            },
            "properties": {
                "name": "Eidskog bibliotek"
            }
        },
        {
            "type": "Feature",
            "geometry": {
                "type": "Point",
                "coordinates": [
                    5.0375061,
                    61.5999295
                ]
            },
            "properties": {
                "name": "Flora Folkebibliotek"
            }
        },
        {
            "type": "Feature",
            "geometry": {
                "type": "Point",
                "coordinates": [
                    20.5314302,
                    69.6038018
                ]
            },
            "properties": {
                "name": "Olderdalen girjer\u00e1dju/bibliotek"
            }
        },
        {
            "type": "Feature",
            "geometry": {
                "type": "Point",
                "coordinates": [
                    9.6443966,
                    59.6646525
                ]
            },
            "properties": {
                "name": "Kongsberg bibliotek"
            }
        },
        {
            "type": "Feature",
            "geometry": {
                "type": "Point",
                "coordinates": [
                    21.015971,
                    69.7672879
                ]
            },
            "properties": {
                "name": "Nordreisa Bibliotek"
            }
        },
        {
            "type": "Feature",
            "geometry": {
                "type": "Point",
                "coordinates": [
                    10.8174159,
                    60.6770928
                ]
            },
            "properties": {
                "name": "\u00d8stre Toten folkebibliotek"
            }
        },
        {
            "type": "Feature",
            "geometry": {
                "type": "Point",
                "coordinates": [
                    10.9977812,
                    62.409861
                ]
            }
        },
        {
            "type": "Feature",
            "geometry": {
                "type": "Point",
                "coordinates": [
                    5.1255891,
                    60.3577269
                ]
            },
            "properties": {
                "name": "Fjell Folkeboksamling"
            }
        },
        {
            "type": "Feature",
            "geometry": {
                "type": "Point",
                "coordinates": [
                    10.5252527,
                    59.3794762
                ]
            },
            "properties": {
                "name": "Fengselsbiblioteket"
            }
        },
        {
            "type": "Feature",
            "geometry": {
                "type": "Point",
                "coordinates": [
                    5.351036,
                    60.3690802
                ]
            },
            "properties": {
                "name": "Biblioteket HiB Kronstad"
            }
        },
        {
            "type": "Feature",
            "geometry": {
                "type": "Point",
                "coordinates": [
                    10.718416,
                    59.943615
                ]
            },
            "properties": {
                "name": "Informatikkbiblioteket"
            }
        },
        {
            "type": "Feature",
            "geometry": {
                "type": "Point",
                "coordinates": [
                    10.2677997,
                    59.8111257
                ]
            },
            "properties": {
                "name": "Tranby Bibliotek"
            }
        },
        {
            "type": "Feature",
            "geometry": {
                "type": "Point",
                "coordinates": [
                    13.5931456,
                    64.4638829
                ]
            }
        },
        {
            "type": "Feature",
            "geometry": {
                "type": "Point",
                "coordinates": [
                    11.1610147,
                    59.5844949
                ]
            },
            "properties": {
                "name": "Askim bibliotek"
            }
        },
        {
            "type": "Feature",
            "geometry": {
                "type": "Point",
                "coordinates": [
                    10.7022003,
                    60.9304741
                ]
            },
            "properties": {
                "name": "Moelv bibliotek"
            }
        },
        {
            "type": "Feature",
            "geometry": {
                "type": "Point",
                "coordinates": [
                    5.2915204,
                    60.348332
                ]
            },
            "properties": {
                "name": "Oasen bibliotek"
            }
        },
        {
            "type": "Feature",
            "geometry": {
                "type": "Point",
                "coordinates": [
                    14.9123942,
                    68.5693544
                ]
            }
        },
        {
            "type": "Feature",
            "geometry": {
                "type": "Point",
                "coordinates": [
                    15.6416572,
                    78.2191487
                ]
            },
            "properties": {
                "name": "Longyearbyen Folkebibliotek"
            }
        },
        {
            "type": "Feature",
            "geometry": {
                "type": "Point",
                "coordinates": [
                    8.9821186,
                    61.0888448
                ]
            },
            "properties": {
                "name": "Gemeindehaus"
            }
        },
        {
            "type": "Feature",
            "geometry": {
                "type": "Point",
                "coordinates": [
                    9.2538502,
                    59.5561179
                ]
            },
            "properties": {
                "name": "Notodden bibliotek"
            }
        },
        {
            "type": "Feature",
            "geometry": {
                "type": "Point",
                "coordinates": [
                    7.7979684,
                    58.8309236
                ]
            },
            "properties": {
                "name": "Bygland Bibliothek"
            }
        },
        {
            "type": "Feature",
            "geometry": {
                "type": "Point",
                "coordinates": [
                    12.3775613,
                    65.0877348
                ]
            }
        },
        {
            "type": "Feature",
            "geometry": {
                "type": "Point",
                "coordinates": [
                    10.4297856,
                    63.3911125
                ]
            },
            "properties": {
                "name": "Trondheim folkebibliotek, Risvollan"
            }
        },
        {
            "type": "Feature",
            "geometry": {
                "type": "Point",
                "coordinates": [
                    10.8379785,
                    59.7183991
                ]
            },
            "properties": {
                "name": "Ski bibliotek og Ski lokalhistoriske arkiv"
            }
        },
        {
            "type": "Feature",
            "geometry": {
                "type": "Point",
                "coordinates": [
                    10.8802349,
                    60.0494109
                ]
            },
            "properties": {
                "name": "Nittedal bibliotek"
            }
        },
        {
            "type": "Feature",
            "geometry": {
                "type": "Point",
                "coordinates": [
                    9.2288918,
                    58.7194765
                ]
            },
            "properties": {
                "name": "Ris\u00f8r bibliotek"
            }
        },
        {
            "type": "Feature",
            "geometry": {
                "type": "Point",
                "coordinates": [
                    9.9640661,
                    59.4009381
                ]
            },
            "properties": {
                "name": "Lardal bibliotek"
            }
        },
        {
            "type": "Feature",
            "geometry": {
                "type": "Point",
                "coordinates": [
                    6.9460265,
                    62.3079642
                ]
            },
            "properties": {
                "name": "Stranda folkebibliotek"
            }
        },
        {
            "type": "Feature",
            "geometry": {
                "type": "Point",
                "coordinates": [
                    7.3550195,
                    59.56348
                ]
            },
            "properties": {
                "name": "Hovden Grendehus"
            }
        },
        {
            "type": "Feature",
            "geometry": {
                "type": "Point",
                "coordinates": [
                    10.8584115,
                    59.4901503
                ]
            }
        },
        {
            "type": "Feature",
            "geometry": {
                "type": "Point",
                "coordinates": [
                    9.5652738,
                    59.2156586
                ]
            },
            "properties": {
                "name": "Gulset bibliotek"
            }
        },
        {
            "type": "Feature",
            "geometry": {
                "type": "Point",
                "coordinates": [
                    6.720854,
                    60.5249707
                ]
            },
            "properties": {
                "name": "Granvin Folkebibliotek"
            }
        },
        {
            "type": "Feature",
            "geometry": {
                "type": "Point",
                "coordinates": [
                    5.3207807,
                    59.3793101
                ]
            }
        },
        {
            "type": "Feature",
            "geometry": {
                "type": "Point",
                "coordinates": [
                    6.2528146,
                    59.4835643
                ]
            },
            "properties": {
                "name": "Ryfylkebiblioteket Suldal"
            }
        },
        {
            "type": "Feature",
            "geometry": {
                "type": "Point",
                "coordinates": [
                    4.9088153,
                    60.5132214
                ]
            }
        },
        {
            "type": "Feature",
            "geometry": {
                "type": "Point",
                "coordinates": [
                    7.2955963,
                    61.403417
                ]
            },
            "properties": {
                "name": "Luster Bibliotek"
            }
        },
        {
            "type": "Feature",
            "geometry": {
                "type": "Point",
                "coordinates": [
                    10.7602213,
                    59.9208034
                ]
            },
            "properties": {
                "name": "Deichmanske bibliotek avd. Gr\u00fcnerl\u00f8kka"
            }
        },
        {
            "type": "Feature",
            "geometry": {
                "type": "Point",
                "coordinates": [
                    10.7625645,
                    59.9502876
                ]
            },
            "properties": {
                "name": "Deichmanske bibliotek"
            }
        },
        {
            "type": "Feature",
            "geometry": {
                "type": "Point",
                "coordinates": [
                    11.2466284,
                    59.9866602
                ]
            }
        },
        {
            "type": "Feature",
            "geometry": {
                "type": "Point",
                "coordinates": [
                    10.6289862,
                    59.6634055
                ]
            }
        },
        {
            "type": "Feature",
            "geometry": {
                "type": "Point",
                "coordinates": [
                    10.9259004,
                    59.9616212
                ]
            },
            "properties": {
                "name": "Deichman bibliotek"
            }
        },
        {
            "type": "Feature",
            "geometry": {
                "type": "Point",
                "coordinates": [
                    7.6790349,
                    62.89262
                ]
            }
        },
        {
            "type": "Feature",
            "geometry": {
                "type": "Point",
                "coordinates": [
                    5.2251396,
                    60.3408532
                ]
            }
        },
        {
            "type": "Feature",
            "geometry": {
                "type": "Point",
                "coordinates": [
                    6.2957841,
                    58.3438549
                ]
            }
        },
        {
            "type": "Feature",
            "geometry": {
                "type": "Point",
                "coordinates": [
                    10.8007866,
                    59.8100882
                ]
            },
            "properties": {
                "name": "Oppeg\u00e5rd bibliotek"
            }
        },
        {
            "type": "Feature",
            "geometry": {
                "type": "Point",
                "coordinates": [
                    10.7176104,
                    59.9139402
                ]
            },
            "properties": {
                "name": "Nasjonalbiblioteket"
            }
        },
        {
            "type": "Feature",
            "geometry": {
                "type": "Point",
                "coordinates": [
                    5.7128532,
                    58.9724558
                ]
            }
        },
        {
            "type": "Feature",
            "geometry": {
                "type": "Point",
                "coordinates": [
                    18.9732389,
                    69.6810477
                ]
            },
            "properties": {
                "name": "Universitetsbiblioteket"
            }
        },
        {
            "type": "Feature",
            "geometry": {
                "type": "Point",
                "coordinates": [
                    5.7552776,
                    59.860592
                ]
            },
            "properties": {
                "name": "Kvinnherad Bibliotek"
            }
        },
        {
            "type": "Feature",
            "geometry": {
                "type": "Point",
                "coordinates": [
                    10.5846146,
                    59.9178978
                ]
            },
            "properties": {
                "name": "Bekkestua Bibliotek"
            }
        },
        {
            "type": "Feature",
            "geometry": {
                "type": "Point",
                "coordinates": [
                    10.7355788,
                    59.9667072
                ]
            },
            "properties": {
                "name": "Riksarkivet"
            }
        },
        {
            "type": "Feature",
            "geometry": {
                "type": "Point",
                "coordinates": [
                    5.2711897,
                    59.4144867
                ]
            },
            "properties": {
                "name": "Haugesund Folkebibliotek"
            }
        },
        {
            "type": "Feature",
            "geometry": {
                "type": "Point",
                "coordinates": [
                    10.9468151,
                    60.8842046
                ]
            }
        },
        {
            "type": "Feature",
            "geometry": {
                "type": "Point",
                "coordinates": [
                    10.9420298,
                    59.2061954
                ]
            },
            "properties": {
                "name": "Fredrikstad Bibliotek"
            }
        },
        {
            "type": "Feature",
            "geometry": {
                "type": "Point",
                "coordinates": [
                    18.9546866,
                    69.6507221
                ]
            },
            "properties": {
                "name": "Troms\u00f8 bibliotek og byarkiv"
            }
        },
        {
            "type": "Feature",
            "geometry": {
                "type": "Point",
                "coordinates": [
                    10.9324651,
                    59.1602104
                ]
            }
        },
        {
            "type": "Feature",
            "geometry": {
                "type": "Point",
                "coordinates": [
                    19.0672594,
                    69.682001
                ]
            }
        },
        {
            "type": "Feature",
            "geometry": {
                "type": "Point",
                "coordinates": [
                    9.651834,
                    59.6840195
                ]
            },
            "properties": {
                "name": "Statsarkivet i Kongsberg"
            }
        },
        {
            "type": "Feature",
            "geometry": {
                "type": "Point",
                "coordinates": [
                    10.4632718,
                    61.1162511
                ]
            },
            "properties": {
                "name": "Lillehammer bibliotek"
            }
        },
        {
            "type": "Feature",
            "geometry": {
                "type": "Point",
                "coordinates": [
                    11.1079439,
                    59.2818289
                ]
            },
            "properties": {
                "name": "Sarpsborg folkebibliotek"
            }
        },
        {
            "type": "Feature",
            "geometry": {
                "type": "Point",
                "coordinates": [
                    10.3857017,
                    63.4287953
                ]
            },
            "properties": {
                "name": "Gunnerusbiblioteket"
            }
        },
        {
            "type": "Feature",
            "geometry": {
                "type": "Point",
                "coordinates": [
                    9.6057079,
                    59.2081221
                ]
            },
            "properties": {
                "name": "Skien folkebibliotek"
            }
        },
        {
            "type": "Feature",
            "geometry": {
                "type": "Point",
                "coordinates": [
                    7.7303264,
                    63.1099461
                ]
            },
            "properties": {
                "name": "Kristiansund folkebibliotek"
            }
        },
        {
            "type": "Feature",
            "geometry": {
                "type": "Point",
                "coordinates": [
                    11.1560471,
                    59.9244899
                ]
            },
            "properties": {
                "name": "Fet folkebibliotek"
            }
        },
        {
            "type": "Feature",
            "geometry": {
                "type": "Point",
                "coordinates": [
                    10.8441368,
                    59.8826415
                ]
            },
            "properties": {
                "name": "B\u00f8ler filal"
            }
        },
        {
            "type": "Feature",
            "geometry": {
                "type": "Point",
                "coordinates": [
                    10.6919262,
                    60.7948002
                ]
            },
            "properties": {
                "name": "Gj\u00f8vik bibliotek; Oppland fylkesbibliotek"
            }
        },
        {
            "type": "Feature",
            "geometry": {
                "type": "Point",
                "coordinates": [
                    11.3847098,
                    59.1230556
                ]
            }
        },
        {
            "type": "Feature",
            "geometry": {
                "type": "Point",
                "coordinates": [
                    6.5330383,
                    61.2016609
                ]
            }
        },
        {
            "type": "Feature",
            "geometry": {
                "type": "Point",
                "coordinates": [
                    15.0778665,
                    68.9148426
                ]
            },
            "properties": {
                "name": "\u00d8ksnes Folkebibliotek"
            }
        },
        {
            "type": "Feature",
            "geometry": {
                "type": "Point",
                "coordinates": [
                    6.093583,
                    58.6384277
                ]
            },
            "properties": {
                "name": "Bjerkreim Folkebibliotek"
            }
        },
        {
            "type": "Feature",
            "geometry": {
                "type": "Point",
                "coordinates": [
                    23.6823647,
                    70.664035
                ]
            }
        },
        {
            "type": "Feature",
            "geometry": {
                "type": "Point",
                "coordinates": [
                    10.4854216,
                    59.4154115
                ]
            },
            "properties": {
                "name": "Horten Bibliotek"
            }
        },
        {
            "type": "Feature",
            "geometry": {
                "type": "Point",
                "coordinates": [
                    16.9969522,
                    68.5266232
                ]
            },
            "properties": {
                "name": "Bogen folkebibliotek"
            }
        },
        {
            "type": "Feature",
            "geometry": {
                "type": "Point",
                "coordinates": [
                    25.5155683,
                    69.4723557
                ]
            },
            "properties": {
                "name": "Karasjok Bibliotek"
            }
        },
        {
            "type": "Feature",
            "geometry": {
                "type": "Point",
                "coordinates": [
                    5.8039438,
                    58.5196233
                ]
            }
        },
        {
            "type": "Feature",
            "geometry": {
                "type": "Point",
                "coordinates": [
                    10.9045519,
                    59.2173947
                ]
            },
            "properties": {
                "name": "Ons\u00f8y Bibliotek"
            }
        },
        {
            "type": "Feature",
            "geometry": {
                "type": "Point",
                "coordinates": [
                    14.5725845,
                    67.0080247
                ]
            }
        },
        {
            "type": "Feature",
            "geometry": {
                "type": "Point",
                "coordinates": [
                    10.0319361,
                    59.056455
                ]
            },
            "properties": {
                "name": "Larvik Bibliotek"
            }
        },
        {
            "type": "Feature",
            "geometry": {
                "type": "Point",
                "coordinates": [
                    10.0156045,
                    59.7500133
                ]
            },
            "properties": {
                "name": "Nedre Eiker bibliotek"
            }
        },
        {
            "type": "Feature",
            "geometry": {
                "type": "Point",
                "coordinates": [
                    8.5635655,
                    62.673868
                ]
            },
            "properties": {
                "name": "Sunndal Folkebibliotek"
            }
        },
        {
            "type": "Feature",
            "geometry": {
                "type": "Point",
                "coordinates": [
                    8.5933344,
                    58.3398455
                ]
            },
            "properties": {
                "name": "Grimstad bibliotek"
            }
        },
        {
            "type": "Feature",
            "geometry": {
                "type": "Point",
                "coordinates": [
                    14.3738504,
                    67.2826893
                ]
            },
            "properties": {
                "name": "Stormen bibliotek"
            }
        },
        {
            "type": "Feature",
            "geometry": {
                "type": "Point",
                "coordinates": [
                    8.5614095,
                    60.8623639
                ]
            }
        },
        {
            "type": "Feature",
            "geometry": {
                "type": "Point",
                "coordinates": [
                    12.6388451,
                    66.0232934
                ]
            },
            "properties": {
                "name": "Kulturbadet"
            }
        },
        {
            "type": "Feature",
            "geometry": {
                "type": "Point",
                "coordinates": [
                    10.318053,
                    59.4875872
                ]
            },
            "properties": {
                "name": "Holmestrand bibliotek"
            }
        },
        {
            "type": "Feature",
            "geometry": {
                "type": "Point",
                "coordinates": [
                    11.0149673,
                    60.2192118
                ]
            },
            "properties": {
                "name": "Nannestad bibliotek"
            }
        },
        {
            "type": "Feature",
            "geometry": {
                "type": "Point",
                "coordinates": [
                    10.0375826,
                    58.998897
                ]
            },
            "properties": {
                "name": "Stavern bibliotek"
            }
        },
        {
            "type": "Feature",
            "geometry": {
                "type": "Point",
                "coordinates": [
                    5.3318468,
                    60.3898389
                ]
            },
            "properties": {
                "name": "Bergen Offentlige Bibliotek"
            }
        },
        {
            "type": "Feature",
            "geometry": {
                "type": "Point",
                "coordinates": [
                    5.3195154,
                    60.3878293
                ]
            },
            "properties": {
                "name": "Bibliotek for humaniora"
            }
        }
    ],
    "crs": {
        "type": "name",
        "properties": {
            "name": "urn:ogc:def:crs:OGC:1.3:CRS84"
        }
    }
}