{
    "type": "FeatureCollection",
    "features": [
        {
            "type": "Feature",
            "geometry": {
                "type": "Point",
                "coordinates": [
                    5.0516099,
                    45.0426299
                ]
            },
            "properties": {
                "name": "Biblioth\u00e8que Simone de Beauvoir"
            }
        },
        {
            "type": "Feature",
            "geometry": {
                "type": "Point",
                "coordinates": [
                    2.3034488,
                    48.8883391
                ]
            },
            "properties": {
                "name": "Edmond Rostand"
            }
        },
        {
            "type": "Feature",
            "geometry": {
                "type": "Point",
                "coordinates": [
                    1.0656344,
                    47.7926412
                ]
            },
            "properties": {
                "name": "Biblioth\u00e8que communautaire"
            }
        },
        {
            "type": "Feature",
            "geometry": {
                "type": "Point",
                "coordinates": [
                    -1.5658386,
                    48.8132298
                ]
            },
            "properties": {
                "name": "M\u00e9diath\u00e8que"
            }
        },
        {
            "type": "Feature",
            "geometry": {
                "type": "Point",
                "coordinates": [
                    4.868041,
                    45.737207
                ]
            },
            "properties": {
                "name": "M\u00e9diath\u00e8que du Bachut"
            }
        },
        {
            "type": "Feature",
            "geometry": {
                "type": "Point",
                "coordinates": [
                    3.8824745,
                    43.6263549
                ]
            },
            "properties": {
                "name": "M\u00e9diath\u00e8que Paul Langevin"
            }
        },
        {
            "type": "Feature",
            "geometry": {
                "type": "Point",
                "coordinates": [
                    2.2067946,
                    48.8914418
                ]
            },
            "properties": {
                "name": "Biblioth\u00e8que municipale Pierre et Marie Curie"
            }
        },
        {
            "type": "Feature",
            "geometry": {
                "type": "Point",
                "coordinates": [
                    2.2993261,
                    48.8417871
                ]
            },
            "properties": {
                "name": "Biblioth\u00e8que Vaugirard"
            }
        },
        {
            "type": "Feature",
            "geometry": {
                "type": "Point",
                "coordinates": [
                    2.1584226,
                    48.9387137
                ]
            },
            "properties": {
                "name": "M\u00e9diath\u00e8que de Sartrouville"
            }
        },
        {
            "type": "Feature",
            "geometry": {
                "type": "Point",
                "coordinates": [
                    2.481458,
                    48.8727188
                ]
            },
            "properties": {
                "name": "Bibliotheque municipale de Rosny sous Bois"
            }
        },
        {
            "type": "Feature",
            "geometry": {
                "type": "Point",
                "coordinates": [
                    6.1452294,
                    45.9218625
                ]
            },
            "properties": {
                "name": "Biblioth\u00e8que des Tilleuls"
            }
        },
        {
            "type": "Feature",
            "geometry": {
                "type": "Point",
                "coordinates": [
                    4.8277863,
                    45.7602643
                ]
            },
            "properties": {
                "name": "Biblioth\u00e8que du 5e arrondissement Saint-Jean"
            }
        },
        {
            "type": "Feature",
            "geometry": {
                "type": "Point",
                "coordinates": [
                    -0.558586,
                    48.7495903
                ]
            },
            "properties": {
                "name": "Centre Chauderge"
            }
        },
        {
            "type": "Feature",
            "geometry": {
                "type": "Point",
                "coordinates": [
                    6.8731411,
                    45.9261855
                ]
            },
            "properties": {
                "name": "Biblioth\u00e8que municipale"
            }
        },
        {
            "type": "Feature",
            "geometry": {
                "type": "Point",
                "coordinates": [
                    6.9882727,
                    43.6041445
                ]
            },
            "properties": {
                "name": "M\u00e9diath\u00e8que Municipale Mougins"
            }
        },
        {
            "type": "Feature",
            "geometry": {
                "type": "Point",
                "coordinates": [
                    5.0696387,
                    47.329345
                ]
            },
            "properties": {
                "name": "M\u00e9diath\u00e8que Champollion"
            }
        },
        {
            "type": "Feature",
            "geometry": {
                "type": "Point",
                "coordinates": [
                    2.3526163,
                    48.8608795
                ]
            },
            "properties": {
                "name": "Biblioth\u00e8que Publique d'Information"
            }
        },
        {
            "type": "Feature",
            "geometry": {
                "type": "Point",
                "coordinates": [
                    7.2566071,
                    43.7249994
                ]
            },
            "properties": {
                "name": "Biblioth\u00e8que Fontaine du Temple"
            }
        },
        {
            "type": "Feature",
            "geometry": {
                "type": "Point",
                "coordinates": [
                    2.3664051,
                    48.8267459
                ]
            },
            "properties": {
                "name": "M\u00e9diath\u00e8que Jean-Pierre Melville"
            }
        },
        {
            "type": "Feature",
            "geometry": {
                "type": "Point",
                "coordinates": [
                    5.0573535,
                    47.3079172
                ]
            },
            "properties": {
                "name": "Biblioth\u00e8que Mansart"
            }
        },
        {
            "type": "Feature",
            "geometry": {
                "type": "Point",
                "coordinates": [
                    4.897212,
                    45.6692213
                ]
            },
            "properties": {
                "name": "Biblioth\u00e8que municipale de Corbas"
            }
        },
        {
            "type": "Feature",
            "geometry": {
                "type": "Point",
                "coordinates": [
                    -2.945564,
                    47.5700018
                ]
            },
            "properties": {
                "name": "Biblioth\u00e8que Municipale de Locmariaquer"
            }
        },
        {
            "type": "Feature",
            "geometry": {
                "type": "Point",
                "coordinates": [
                    2.553069,
                    48.8460671
                ]
            },
            "properties": {
                "name": "Espace Michel Simon"
            }
        },
        {
            "type": "Feature",
            "geometry": {
                "type": "Point",
                "coordinates": [
                    8.1527894,
                    48.9314764
                ]
            },
            "properties": {
                "name": "Biblioth\u00e8que municipale"
            }
        },
        {
            "type": "Feature",
            "geometry": {
                "type": "Point",
                "coordinates": [
                    2.3619057,
                    48.8425359
                ]
            },
            "properties": {
                "name": "Biblioth\u00e8que Buffon"
            }
        },
        {
            "type": "Feature",
            "geometry": {
                "type": "Point",
                "coordinates": [
                    3.8862116,
                    43.6084582
                ]
            },
            "properties": {
                "name": "M\u00e9diath\u00e8que Fellini"
            }
        },
        {
            "type": "Feature",
            "geometry": {
                "type": "Point",
                "coordinates": [
                    -1.7150636,
                    48.1578145
                ]
            }
        },
        {
            "type": "Feature",
            "geometry": {
                "type": "Point",
                "coordinates": [
                    -1.8457328,
                    48.0079289
                ]
            },
            "properties": {
                "name": "M\u00e9diath\u00e8que La Parenth\u00e8se"
            }
        },
        {
            "type": "Feature",
            "geometry": {
                "type": "Point",
                "coordinates": [
                    -5.0952766,
                    48.4579812
                ]
            }
        },
        {
            "type": "Feature",
            "geometry": {
                "type": "Point",
                "coordinates": [
                    6.8706676,
                    49.2168196
                ]
            },
            "properties": {
                "name": "Biblioth\u00e8que Municipale"
            }
        },
        {
            "type": "Feature",
            "geometry": {
                "type": "Point",
                "coordinates": [
                    -1.5373577,
                    48.1343064
                ]
            },
            "properties": {
                "name": "Mediatheque La Passerelle"
            }
        },
        {
            "type": "Feature",
            "geometry": {
                "type": "Point",
                "coordinates": [
                    2.5295002,
                    48.8836517
                ]
            },
            "properties": {
                "name": "Biblioth\u00e8que-discoth\u00e8que municipale Georges Perec"
            }
        },
        {
            "type": "Feature",
            "geometry": {
                "type": "Point",
                "coordinates": [
                    -0.6112998,
                    44.7679773
                ]
            },
            "properties": {
                "name": "M\u00e9diath\u00e8que de Gradignan"
            }
        },
        {
            "type": "Feature",
            "geometry": {
                "type": "Point",
                "coordinates": [
                    2.2977567,
                    48.7547748
                ]
            },
            "properties": {
                "name": "M\u00e9diath\u00e8que Anne Fontaine"
            }
        },
        {
            "type": "Feature",
            "geometry": {
                "type": "Point",
                "coordinates": [
                    2.2373257,
                    48.8846366
                ]
            },
            "properties": {
                "name": "Palais de la M\u00e9diath\u00e8que"
            }
        },
        {
            "type": "Feature",
            "geometry": {
                "type": "Point",
                "coordinates": [
                    -0.5438627,
                    44.8052951
                ]
            },
            "properties": {
                "name": "Biblioth\u00e8que municipale"
            }
        },
        {
            "type": "Feature",
            "geometry": {
                "type": "Point",
                "coordinates": [
                    2.6945033,
                    48.4025148
                ]
            },
            "properties": {
                "name": "Biblioth\u00e8que Municipale"
            }
        },
        {
            "type": "Feature",
            "geometry": {
                "type": "Point",
                "coordinates": [
                    2.2479156,
                    48.9469786
                ]
            }
        },
        {
            "type": "Feature",
            "geometry": {
                "type": "Point",
                "coordinates": [
                    5.8844494,
                    43.1003869
                ]
            },
            "properties": {
                "name": "Biblioth\u00e8que Municipale"
            }
        },
        {
            "type": "Feature",
            "geometry": {
                "type": "Point",
                "coordinates": [
                    -2.9987322,
                    48.8452726
                ]
            },
            "properties": {
                "name": "Biblioth\u00e8que"
            }
        },
        {
            "type": "Feature",
            "geometry": {
                "type": "Point",
                "coordinates": [
                    -3.0500422,
                    48.7815525
                ]
            },
            "properties": {
                "name": "Biblioth\u00e8que Municipale"
            }
        },
        {
            "type": "Feature",
            "geometry": {
                "type": "Point",
                "coordinates": [
                    -0.858039,
                    47.3544599
                ]
            }
        },
        {
            "type": "Feature",
            "geometry": {
                "type": "Point",
                "coordinates": [
                    3.0390548,
                    45.8723319
                ]
            }
        },
        {
            "type": "Feature",
            "geometry": {
                "type": "Point",
                "coordinates": [
                    -1.8661071,
                    48.0497425
                ]
            },
            "properties": {
                "name": "Biblioth\u00e8que Pierre-Jakez Helias"
            }
        },
        {
            "type": "Feature",
            "geometry": {
                "type": "Point",
                "coordinates": [
                    -61.6443157,
                    15.9775431
                ]
            },
            "properties": {
                "name": "Biblioth\u00e8que Peronne Salin"
            }
        },
        {
            "type": "Feature",
            "geometry": {
                "type": "Point",
                "coordinates": [
                    6.6189337,
                    45.8607705
                ]
            }
        },
        {
            "type": "Feature",
            "geometry": {
                "type": "Point",
                "coordinates": [
                    -3.5491183,
                    47.8702017
                ]
            },
            "properties": {
                "name": "Mediatheque"
            }
        },
        {
            "type": "Feature",
            "geometry": {
                "type": "Point",
                "coordinates": [
                    -1.5191982,
                    47.2380064
                ]
            },
            "properties": {
                "name": "Biblioth\u00e8que Botti\u00e8re"
            }
        },
        {
            "type": "Feature",
            "geometry": {
                "type": "Point",
                "coordinates": [
                    -2.3833763,
                    47.8103347
                ]
            }
        },
        {
            "type": "Feature",
            "geometry": {
                "type": "Point",
                "coordinates": [
                    -0.7151203,
                    44.8940837
                ]
            },
            "properties": {
                "name": "m\u00e9diath\u00e9que"
            }
        },
        {
            "type": "Feature",
            "geometry": {
                "type": "Point",
                "coordinates": [
                    2.3115582,
                    48.8312882
                ]
            },
            "properties": {
                "name": "Biblioth\u00e8que municipale Aim\u00e9 C\u00e9saire"
            }
        },
        {
            "type": "Feature",
            "geometry": {
                "type": "Point",
                "coordinates": [
                    0.3384756,
                    45.24774
                ]
            },
            "properties": {
                "name": "Biblioth\u00e8que, M\u00e9diath\u00e8que, Centre Culturel"
            }
        },
        {
            "type": "Feature",
            "geometry": {
                "type": "Point",
                "coordinates": [
                    3.0841873,
                    45.7747407
                ]
            },
            "properties": {
                "name": "M\u00e9diath\u00e8que de Jaude"
            }
        },
        {
            "type": "Feature",
            "geometry": {
                "type": "Point",
                "coordinates": [
                    2.1831045,
                    42.8751457
                ]
            }
        },
        {
            "type": "Feature",
            "geometry": {
                "type": "Point",
                "coordinates": [
                    2.207185,
                    42.9160821
                ]
            },
            "properties": {
                "name": "Biblioth\u00e8que municipale"
            }
        },
        {
            "type": "Feature",
            "geometry": {
                "type": "Point",
                "coordinates": [
                    1.9814766,
                    49.0258342
                ]
            },
            "properties": {
                "name": "Biblioth\u00e8que de Menucourt"
            }
        },
        {
            "type": "Feature",
            "geometry": {
                "type": "Point",
                "coordinates": [
                    1.2592948,
                    45.8267721
                ]
            },
            "properties": {
                "name": "Biblioth\u00e8que francophone multim\u00e9dia de Limoges"
            }
        },
        {
            "type": "Feature",
            "geometry": {
                "type": "Point",
                "coordinates": [
                    -1.523945,
                    47.2447538
                ]
            },
            "properties": {
                "name": "Biblioth\u00e8que Centre Socioculturel Piloti\u00e8re"
            }
        },
        {
            "type": "Feature",
            "geometry": {
                "type": "Point",
                "coordinates": [
                    -1.8171909,
                    48.1273971
                ]
            },
            "properties": {
                "name": "Biblioth\u00e8que"
            }
        },
        {
            "type": "Feature",
            "geometry": {
                "type": "Point",
                "coordinates": [
                    4.8571935,
                    43.9598779
                ]
            }
        },
        {
            "type": "Feature",
            "geometry": {
                "type": "Point",
                "coordinates": [
                    2.0446652,
                    48.8109296
                ]
            },
            "properties": {
                "name": "Biblioth\u00e8que municipale"
            }
        },
        {
            "type": "Feature",
            "geometry": {
                "type": "Point",
                "coordinates": [
                    -0.3250512,
                    49.1662868
                ]
            },
            "properties": {
                "name": "Biblioth\u00e8que Paul Langevin"
            }
        },
        {
            "type": "Feature",
            "geometry": {
                "type": "Point",
                "coordinates": [
                    -0.6775377,
                    45.0422981
                ]
            },
            "properties": {
                "name": "Biblioth\u00e8que municipale"
            }
        },
        {
            "type": "Feature",
            "geometry": {
                "type": "Point",
                "coordinates": [
                    2.3570791,
                    48.8308701
                ]
            },
            "properties": {
                "name": "Biblioth\u00e8que Italie"
            }
        },
        {
            "type": "Feature",
            "geometry": {
                "type": "Point",
                "coordinates": [
                    1.9517956,
                    43.3181395
                ]
            },
            "properties": {
                "name": "Biblioth\u00e8que municipale"
            }
        },
        {
            "type": "Feature",
            "geometry": {
                "type": "Point",
                "coordinates": [
                    4.3660197,
                    48.9602936
                ]
            },
            "properties": {
                "name": "Biblioth\u00e8que Georges Pompidou"
            }
        },
        {
            "type": "Feature",
            "geometry": {
                "type": "Point",
                "coordinates": [
                    2.3214724,
                    48.8390776
                ]
            },
            "properties": {
                "name": "Biblioth\u00e8que Vandamme"
            }
        },
        {
            "type": "Feature",
            "geometry": {
                "type": "Point",
                "coordinates": [
                    2.290526,
                    48.6410085
                ]
            },
            "properties": {
                "name": "Biblioth\u00e8que Municipale de Longpont-sur-Orge"
            }
        },
        {
            "type": "Feature",
            "geometry": {
                "type": "Point",
                "coordinates": [
                    -3.2754578,
                    47.8085554
                ]
            },
            "properties": {
                "name": "Centre Socio Culturel"
            }
        },
        {
            "type": "Feature",
            "geometry": {
                "type": "Point",
                "coordinates": [
                    6.130313,
                    45.9183158
                ]
            },
            "properties": {
                "name": "Biblioth\u00e8que municipale de Novel"
            }
        },
        {
            "type": "Feature",
            "geometry": {
                "type": "Point",
                "coordinates": [
                    6.559362,
                    44.9462021
                ]
            },
            "properties": {
                "name": "Biblioth\u00e8que municipale"
            }
        },
        {
            "type": "Feature",
            "geometry": {
                "type": "Point",
                "coordinates": [
                    6.3541914,
                    46.9038023
                ]
            },
            "properties": {
                "name": "Biblioth\u00e8que municipale"
            }
        },
        {
            "type": "Feature",
            "geometry": {
                "type": "Point",
                "coordinates": [
                    4.0136626,
                    49.2279307
                ]
            },
            "properties": {
                "name": "M\u00e9diath\u00e8que Croix Rouge"
            }
        },
        {
            "type": "Feature",
            "geometry": {
                "type": "Point",
                "coordinates": [
                    -4.2782989,
                    47.7959837
                ]
            },
            "properties": {
                "name": "M\u00e9diath\u00e8que - Abri du Marin"
            }
        },
        {
            "type": "Feature",
            "geometry": {
                "type": "Point",
                "coordinates": [
                    6.9725417,
                    43.6193511
                ]
            },
            "properties": {
                "name": "La M\u00e9diath\u00e8que de Mouans-Sartoux"
            }
        },
        {
            "type": "Feature",
            "geometry": {
                "type": "Point",
                "coordinates": [
                    -0.6687148,
                    44.9043446
                ]
            },
            "properties": {
                "name": "Biblioth\u00e8que Municipale"
            }
        },
        {
            "type": "Feature",
            "geometry": {
                "type": "Point",
                "coordinates": [
                    -0.9924631,
                    46.6576674
                ]
            }
        },
        {
            "type": "Feature",
            "geometry": {
                "type": "Point",
                "coordinates": [
                    3.0004432,
                    43.1854219
                ]
            },
            "properties": {
                "name": "M\u00e9diath\u00e8que de Narbonne"
            }
        },
        {
            "type": "Feature",
            "geometry": {
                "type": "Point",
                "coordinates": [
                    1.9213148,
                    49.4347565
                ]
            }
        },
        {
            "type": "Feature",
            "geometry": {
                "type": "Point",
                "coordinates": [
                    6.0776079,
                    46.109535
                ]
            }
        },
        {
            "type": "Feature",
            "geometry": {
                "type": "Point",
                "coordinates": [
                    0.6151889,
                    47.3413734
                ]
            }
        },
        {
            "type": "Feature",
            "geometry": {
                "type": "Point",
                "coordinates": [
                    4.6693973,
                    45.2463214
                ]
            }
        },
        {
            "type": "Feature",
            "geometry": {
                "type": "Point",
                "coordinates": [
                    2.5055723,
                    48.6142235
                ]
            },
            "properties": {
                "name": "M\u00e9diath\u00e8que Pierre Seghers"
            }
        },
        {
            "type": "Feature",
            "geometry": {
                "type": "Point",
                "coordinates": [
                    7.3102381,
                    47.7463961
                ]
            },
            "properties": {
                "name": "Biblioth\u00e8que de Dornach"
            }
        },
        {
            "type": "Feature",
            "geometry": {
                "type": "Point",
                "coordinates": [
                    4.6775917,
                    46.5141383
                ]
            },
            "properties": {
                "name": "La Morada"
            }
        },
        {
            "type": "Feature",
            "geometry": {
                "type": "Point",
                "coordinates": [
                    -3.4465105,
                    48.8150862
                ]
            },
            "properties": {
                "name": "Biblioth\u00e8que Municipale"
            }
        },
        {
            "type": "Feature",
            "geometry": {
                "type": "Point",
                "coordinates": [
                    2.2319953,
                    48.9859707
                ]
            },
            "properties": {
                "name": "M\u00e9diath\u00e8que Municipale"
            }
        },
        {
            "type": "Feature",
            "geometry": {
                "type": "Point",
                "coordinates": [
                    1.336163,
                    47.5909003
                ]
            },
            "properties": {
                "name": "Biblioth\u00e8que Abb\u00e9 Gr\u00e9goire"
            }
        },
        {
            "type": "Feature",
            "geometry": {
                "type": "Point",
                "coordinates": [
                    0.3602932,
                    49.5050815
                ]
            },
            "properties": {
                "name": "Biblioth\u00e8que"
            }
        },
        {
            "type": "Feature",
            "geometry": {
                "type": "Point",
                "coordinates": [
                    6.1468831,
                    46.1414585
                ]
            },
            "properties": {
                "name": "Biblioth\u00e8que Municipale Paul Tapponier"
            }
        },
        {
            "type": "Feature",
            "geometry": {
                "type": "Point",
                "coordinates": [
                    2.2411673,
                    48.6571633
                ]
            },
            "properties": {
                "name": "Maison des activit\u00e9s culturelles - Biblioth\u00e8que"
            }
        },
        {
            "type": "Feature",
            "geometry": {
                "type": "Point",
                "coordinates": [
                    2.1517254,
                    47.5136064
                ]
            },
            "properties": {
                "name": "La Pierre Fich\u00e9e"
            }
        },
        {
            "type": "Feature",
            "geometry": {
                "type": "Point",
                "coordinates": [
                    1.5328658,
                    43.5846818
                ]
            },
            "properties": {
                "name": "M\u00e9diath\u00e8que Municipale de Quint-Fonsegrives"
            }
        },
        {
            "type": "Feature",
            "geometry": {
                "type": "Point",
                "coordinates": [
                    5.9306259,
                    45.3238236
                ]
            },
            "properties": {
                "name": "Biblioth\u00e8que"
            }
        },
        {
            "type": "Feature",
            "geometry": {
                "type": "Point",
                "coordinates": [
                    5.3766901,
                    43.2989721
                ]
            },
            "properties": {
                "name": "Biblioth\u00e8que de l'Alcazar"
            }
        },
        {
            "type": "Feature",
            "geometry": {
                "type": "Point",
                "coordinates": [
                    -0.8913422,
                    48.839017
                ]
            },
            "properties": {
                "name": "M\u00e9diath\u00e8que"
            }
        },
        {
            "type": "Feature",
            "geometry": {
                "type": "Point",
                "coordinates": [
                    -0.2978156,
                    44.5814407
                ]
            }
        },
        {
            "type": "Feature",
            "geometry": {
                "type": "Point",
                "coordinates": [
                    4.2225457,
                    45.744597
                ]
            },
            "properties": {
                "name": "Bibliotheque Municipale"
            }
        },
        {
            "type": "Feature",
            "geometry": {
                "type": "Point",
                "coordinates": [
                    1.9221682,
                    47.9277601
                ]
            },
            "properties": {
                "name": "Biblioth\u00e8que Ren\u00e9 Guy Cadou"
            }
        },
        {
            "type": "Feature",
            "geometry": {
                "type": "Point",
                "coordinates": [
                    2.4535332,
                    48.8910792
                ]
            },
            "properties": {
                "name": "M\u00e9diath\u00e8que Roger Gouhier"
            }
        },
        {
            "type": "Feature",
            "geometry": {
                "type": "Point",
                "coordinates": [
                    0.0776969,
                    43.2361382
                ]
            },
            "properties": {
                "name": "M\u00e9diath\u00e8que Louis Aragon"
            }
        },
        {
            "type": "Feature",
            "geometry": {
                "type": "Point",
                "coordinates": [
                    6.128485,
                    45.9017481
                ]
            },
            "properties": {
                "name": "Biblioth\u00e8que de l'agglom\u00e9ration d'Annecy"
            }
        },
        {
            "type": "Feature",
            "geometry": {
                "type": "Point",
                "coordinates": [
                    -0.3657699,
                    43.3098033
                ]
            },
            "properties": {
                "name": "M\u00e9diath\u00e8que La P\u00e9pini\u00e8re"
            }
        },
        {
            "type": "Feature",
            "geometry": {
                "type": "Point",
                "coordinates": [
                    -0.390805,
                    43.2866013
                ]
            },
            "properties": {
                "name": "M\u00e9diath\u00e8que de Juran\u00e7on"
            }
        },
        {
            "type": "Feature",
            "geometry": {
                "type": "Point",
                "coordinates": [
                    5.5469875,
                    43.7261404
                ]
            },
            "properties": {
                "name": "Biblioth\u00e8que de La-Tour-d'Aigues"
            }
        },
        {
            "type": "Feature",
            "geometry": {
                "type": "Point",
                "coordinates": [
                    2.3871278,
                    48.8454696
                ]
            },
            "properties": {
                "name": "Saint-\u00c9loi"
            }
        },
        {
            "type": "Feature",
            "geometry": {
                "type": "Point",
                "coordinates": [
                    2.3777264,
                    48.8459092
                ]
            },
            "properties": {
                "name": "Diderot"
            }
        },
        {
            "type": "Feature",
            "geometry": {
                "type": "Point",
                "coordinates": [
                    2.3840327,
                    48.8515628
                ]
            },
            "properties": {
                "name": "Biblioth\u00e8que Faidherbe"
            }
        },
        {
            "type": "Feature",
            "geometry": {
                "type": "Point",
                "coordinates": [
                    2.3790729,
                    48.8601187
                ]
            },
            "properties": {
                "name": "Biblioth\u00e8que Parmentier"
            }
        },
        {
            "type": "Feature",
            "geometry": {
                "type": "Point",
                "coordinates": [
                    2.3591424,
                    48.8534078
                ]
            },
            "properties": {
                "name": "Biblioth\u00e8que Forney"
            }
        },
        {
            "type": "Feature",
            "geometry": {
                "type": "Point",
                "coordinates": [
                    2.3005378,
                    48.9555731
                ]
            }
        },
        {
            "type": "Feature",
            "geometry": {
                "type": "Point",
                "coordinates": [
                    2.475844,
                    48.8510827
                ]
            },
            "properties": {
                "name": "M\u00e9diath\u00e8que Louis Aragon"
            }
        },
        {
            "type": "Feature",
            "geometry": {
                "type": "Point",
                "coordinates": [
                    -53.9096585,
                    5.7366272
                ]
            },
            "properties": {
                "name": "Biblioth\u00e8que municipale \u00ab Mailana \u00bb"
            }
        },
        {
            "type": "Feature",
            "geometry": {
                "type": "Point",
                "coordinates": [
                    1.4069128,
                    43.5228316
                ]
            }
        },
        {
            "type": "Feature",
            "geometry": {
                "type": "Point",
                "coordinates": [
                    -3.39293,
                    47.9956273
                ]
            }
        },
        {
            "type": "Feature",
            "geometry": {
                "type": "Point",
                "coordinates": [
                    -0.8893478,
                    43.2225455
                ]
            },
            "properties": {
                "name": "Biblioth\u00e8que Municipale"
            }
        },
        {
            "type": "Feature",
            "geometry": {
                "type": "Point",
                "coordinates": [
                    -1.6585284,
                    48.2729701
                ]
            },
            "properties": {
                "name": "Biblioth\u00e8que de St M\u00e9dard sur Ille"
            }
        },
        {
            "type": "Feature",
            "geometry": {
                "type": "Point",
                "coordinates": [
                    1.8708089,
                    47.879496
                ]
            },
            "properties": {
                "name": "Bilioth\u00e8que municipale"
            }
        },
        {
            "type": "Feature",
            "geometry": {
                "type": "Point",
                "coordinates": [
                    -4.3722022,
                    48.4688026
                ]
            },
            "properties": {
                "name": "Biblioth\u00e8que"
            }
        },
        {
            "type": "Feature",
            "geometry": {
                "type": "Point",
                "coordinates": [
                    7.882097,
                    48.949889
                ]
            },
            "properties": {
                "name": "Biblioth\u00e8que"
            }
        },
        {
            "type": "Feature",
            "geometry": {
                "type": "Point",
                "coordinates": [
                    -1.9554708,
                    47.0417249
                ]
            },
            "properties": {
                "name": "Biblioth\u00e8que Municipale"
            }
        },
        {
            "type": "Feature",
            "geometry": {
                "type": "Point",
                "coordinates": [
                    2.8353387,
                    49.4254595
                ]
            },
            "properties": {
                "name": "Biblioth\u00e8que Bellicart"
            }
        },
        {
            "type": "Feature",
            "geometry": {
                "type": "Point",
                "coordinates": [
                    55.5484093,
                    -20.8966776
                ]
            },
            "properties": {
                "name": "M\u00e9diath\u00e8que de Sainte-Marie"
            }
        },
        {
            "type": "Feature",
            "geometry": {
                "type": "Point",
                "coordinates": [
                    -1.8662993,
                    48.1234836
                ]
            },
            "properties": {
                "name": "Biblioth\u00e8que Municipale"
            }
        },
        {
            "type": "Feature",
            "geometry": {
                "type": "Point",
                "coordinates": [
                    4.9573292,
                    45.6669962
                ]
            }
        },
        {
            "type": "Feature",
            "geometry": {
                "type": "Point",
                "coordinates": [
                    -0.7336272,
                    46.3142963
                ]
            }
        },
        {
            "type": "Feature",
            "geometry": {
                "type": "Point",
                "coordinates": [
                    2.5880842,
                    48.8412326
                ]
            }
        },
        {
            "type": "Feature",
            "geometry": {
                "type": "Point",
                "coordinates": [
                    -1.3540555,
                    46.0134357
                ]
            },
            "properties": {
                "name": "Biblioth\u00e8que Municipale"
            }
        },
        {
            "type": "Feature",
            "geometry": {
                "type": "Point",
                "coordinates": [
                    3.9532159,
                    49.0433069
                ]
            },
            "properties": {
                "name": "M\u00e9diath\u00e8que"
            }
        },
        {
            "type": "Feature",
            "geometry": {
                "type": "Point",
                "coordinates": [
                    7.1232027,
                    43.6576713
                ]
            },
            "properties": {
                "name": "Biblioth\u00e8que municipale du village"
            }
        },
        {
            "type": "Feature",
            "geometry": {
                "type": "Point",
                "coordinates": [
                    -1.556058,
                    47.2260244
                ]
            },
            "properties": {
                "name": "\u00c9cop\u00f4le"
            }
        },
        {
            "type": "Feature",
            "geometry": {
                "type": "Point",
                "coordinates": [
                    2.4184935,
                    48.8831272
                ]
            },
            "properties": {
                "name": "Biblioth\u00e8que Andr\u00e9 Malraux"
            }
        },
        {
            "type": "Feature",
            "geometry": {
                "type": "Point",
                "coordinates": [
                    8.0358209,
                    48.827757
                ]
            },
            "properties": {
                "name": "M\u00e9diath\u00e8que"
            }
        },
        {
            "type": "Feature",
            "geometry": {
                "type": "Point",
                "coordinates": [
                    2.417087,
                    48.8680246
                ]
            },
            "properties": {
                "name": "M\u00e9diath\u00e8que de Bagnolet"
            }
        },
        {
            "type": "Feature",
            "geometry": {
                "type": "Point",
                "coordinates": [
                    3.1305629,
                    50.6208815
                ]
            },
            "properties": {
                "name": "M\u00e9diath\u00e8que Municipale - Till l'Espiegle"
            }
        },
        {
            "type": "Feature",
            "geometry": {
                "type": "Point",
                "coordinates": [
                    1.9105411,
                    47.8866075
                ]
            },
            "properties": {
                "name": "Biblioth\u00e8que Municipale de Saint-Marceau"
            }
        },
        {
            "type": "Feature",
            "geometry": {
                "type": "Point",
                "coordinates": [
                    2.3580335,
                    48.9347758
                ]
            },
            "properties": {
                "name": "M\u00e9diath\u00e8que municipale"
            }
        },
        {
            "type": "Feature",
            "geometry": {
                "type": "Point",
                "coordinates": [
                    -0.4284586,
                    43.1055414
                ]
            },
            "properties": {
                "name": "Biblioth\u00e8que Municipale"
            }
        },
        {
            "type": "Feature",
            "geometry": {
                "type": "Point",
                "coordinates": [
                    -3.4162904,
                    47.789227
                ]
            },
            "properties": {
                "name": "M\u00e9diath\u00e8que Les Sources"
            }
        },
        {
            "type": "Feature",
            "geometry": {
                "type": "Point",
                "coordinates": [
                    7.5954757,
                    48.3708921
                ]
            },
            "properties": {
                "name": "Mediath\u00e8que intercommunale"
            }
        },
        {
            "type": "Feature",
            "geometry": {
                "type": "Point",
                "coordinates": [
                    3.7981509,
                    43.6477262
                ]
            }
        },
        {
            "type": "Feature",
            "geometry": {
                "type": "Point",
                "coordinates": [
                    2.2101544,
                    48.7127246
                ]
            },
            "properties": {
                "name": "Biblioth\u00e8que Centrale de l'\u00c9cole polytechnique (BCX)"
            }
        },
        {
            "type": "Feature",
            "geometry": {
                "type": "Point",
                "coordinates": [
                    -0.5226989,
                    45.9440005
                ]
            },
            "properties": {
                "name": "Biblioth\u00e8que de l'Abbaye"
            }
        },
        {
            "type": "Feature",
            "geometry": {
                "type": "Point",
                "coordinates": [
                    2.7926042,
                    48.3804621
                ]
            }
        },
        {
            "type": "Feature",
            "geometry": {
                "type": "Point",
                "coordinates": [
                    4.4207689,
                    45.4190494
                ]
            },
            "properties": {
                "name": "Bibliobus"
            }
        },
        {
            "type": "Feature",
            "geometry": {
                "type": "Point",
                "coordinates": [
                    4.4160734,
                    45.417819
                ]
            },
            "properties": {
                "name": "Bibliobus"
            }
        },
        {
            "type": "Feature",
            "geometry": {
                "type": "Point",
                "coordinates": [
                    8.1061111,
                    48.8925288
                ]
            },
            "properties": {
                "name": "M\u00e9diath\u00e8que municipale"
            }
        },
        {
            "type": "Feature",
            "geometry": {
                "type": "Point",
                "coordinates": [
                    -61.5822249,
                    16.2661649
                ]
            },
            "properties": {
                "name": "CDI"
            }
        },
        {
            "type": "Feature",
            "geometry": {
                "type": "Point",
                "coordinates": [
                    1.5277473,
                    47.9102473
                ]
            },
            "properties": {
                "name": "Biblioth\u00e8que Intercommunale"
            }
        },
        {
            "type": "Feature",
            "geometry": {
                "type": "Point",
                "coordinates": [
                    2.6914341,
                    48.4746614
                ]
            }
        },
        {
            "type": "Feature",
            "geometry": {
                "type": "Point",
                "coordinates": [
                    4.3550949,
                    43.8380502
                ]
            },
            "properties": {
                "name": "Carr\u00e9 d'Art Biblioth\u00e8que"
            }
        },
        {
            "type": "Feature",
            "geometry": {
                "type": "Point",
                "coordinates": [
                    5.1431026,
                    46.2088793
                ]
            }
        },
        {
            "type": "Feature",
            "geometry": {
                "type": "Point",
                "coordinates": [
                    2.7220765,
                    50.6443199
                ]
            }
        },
        {
            "type": "Feature",
            "geometry": {
                "type": "Point",
                "coordinates": [
                    5.7326627,
                    45.1944701
                ]
            },
            "properties": {
                "name": "Biblioth\u00e8que du mus\u00e9e"
            }
        },
        {
            "type": "Feature",
            "geometry": {
                "type": "Point",
                "coordinates": [
                    0.07611,
                    46.6186925
                ]
            },
            "properties": {
                "name": "Biblioth\u00e8que de Latill\u00e9"
            }
        },
        {
            "type": "Feature",
            "geometry": {
                "type": "Point",
                "coordinates": [
                    2.411226,
                    48.6563544
                ]
            },
            "properties": {
                "name": "Biblioth\u00e8que Elsa Triolet"
            }
        },
        {
            "type": "Feature",
            "geometry": {
                "type": "Point",
                "coordinates": [
                    5.771182,
                    45.1358742
                ]
            },
            "properties": {
                "name": "Biblioth\u00e8que"
            }
        },
        {
            "type": "Feature",
            "geometry": {
                "type": "Point",
                "coordinates": [
                    2.424897,
                    48.9343043
                ]
            },
            "properties": {
                "name": "Biblioth\u00e8que Municipale"
            }
        },
        {
            "type": "Feature",
            "geometry": {
                "type": "Point",
                "coordinates": [
                    2.0991198,
                    49.0491997
                ]
            },
            "properties": {
                "name": "Guillaume Apollinaire"
            }
        },
        {
            "type": "Feature",
            "geometry": {
                "type": "Point",
                "coordinates": [
                    2.9175579,
                    42.8326411
                ]
            },
            "properties": {
                "name": "Biblioth\u00e8que"
            }
        },
        {
            "type": "Feature",
            "geometry": {
                "type": "Point",
                "coordinates": [
                    2.3745664,
                    48.9757246
                ]
            }
        },
        {
            "type": "Feature",
            "geometry": {
                "type": "Point",
                "coordinates": [
                    2.3774973,
                    48.6137619
                ]
            },
            "properties": {
                "name": "Biblioth\u00e8que Condorcet"
            }
        },
        {
            "type": "Feature",
            "geometry": {
                "type": "Point",
                "coordinates": [
                    -1.334401,
                    47.1380482
                ]
            }
        },
        {
            "type": "Feature",
            "geometry": {
                "type": "Point",
                "coordinates": [
                    3.7013876,
                    43.8789115
                ]
            },
            "properties": {
                "name": "Biblioth\u00e8que"
            }
        },
        {
            "type": "Feature",
            "geometry": {
                "type": "Point",
                "coordinates": [
                    3.87854,
                    43.7060719
                ]
            },
            "properties": {
                "name": "Maison Eug\u00e9nie Dubois"
            }
        },
        {
            "type": "Feature",
            "geometry": {
                "type": "Point",
                "coordinates": [
                    -1.5249747,
                    49.6065756
                ]
            },
            "properties": {
                "name": "Biblioth\u00e8que de Mesnil au Val"
            }
        },
        {
            "type": "Feature",
            "geometry": {
                "type": "Point",
                "coordinates": [
                    3.8552296,
                    43.6188378
                ]
            },
            "properties": {
                "name": "Biblioth\u00e8que de SupAgro"
            }
        },
        {
            "type": "Feature",
            "geometry": {
                "type": "Point",
                "coordinates": [
                    4.8752834,
                    45.8249776
                ]
            }
        },
        {
            "type": "Feature",
            "geometry": {
                "type": "Point",
                "coordinates": [
                    6.234083,
                    44.091693
                ]
            },
            "properties": {
                "name": "M\u00e9diath\u00e8que Fran\u00e7ois-Mitterrand"
            }
        },
        {
            "type": "Feature",
            "geometry": {
                "type": "Point",
                "coordinates": [
                    5.6443077,
                    45.02204
                ]
            }
        },
        {
            "type": "Feature",
            "geometry": {
                "type": "Point",
                "coordinates": [
                    -0.5011638,
                    43.8920114
                ]
            },
            "properties": {
                "name": "Centre de l'Enfance"
            }
        },
        {
            "type": "Feature",
            "geometry": {
                "type": "Point",
                "coordinates": [
                    2.228902,
                    48.870789
                ]
            },
            "properties": {
                "name": "M\u00e9diath\u00e8que de Suresnes"
            }
        },
        {
            "type": "Feature",
            "geometry": {
                "type": "Point",
                "coordinates": [
                    2.5713536,
                    48.9507331
                ]
            },
            "properties": {
                "name": "M\u00e9diath\u00e8que Boris Vian"
            }
        },
        {
            "type": "Feature",
            "geometry": {
                "type": "Point",
                "coordinates": [
                    2.2600793,
                    48.9888957
                ]
            },
            "properties": {
                "name": "Biblioth\u00e8que Andr\u00e9 Malraux"
            }
        },
        {
            "type": "Feature",
            "geometry": {
                "type": "Point",
                "coordinates": [
                    0.1605463,
                    47.9679162
                ]
            },
            "properties": {
                "name": "Biblioth\u00e8que Municipale"
            }
        },
        {
            "type": "Feature",
            "geometry": {
                "type": "Point",
                "coordinates": [
                    4.3353992,
                    43.8246052
                ]
            },
            "properties": {
                "name": "M\u00e9diath\u00e8que Marc Bernard"
            }
        },
        {
            "type": "Feature",
            "geometry": {
                "type": "Point",
                "coordinates": [
                    -1.7655755,
                    47.4759943
                ]
            },
            "properties": {
                "name": "M\u00e9diath\u00e8que"
            }
        },
        {
            "type": "Feature",
            "geometry": {
                "type": "Point",
                "coordinates": [
                    2.2287529,
                    48.7875545
                ]
            },
            "properties": {
                "name": "M\u00e9diath\u00e8que"
            }
        },
        {
            "type": "Feature",
            "geometry": {
                "type": "Point",
                "coordinates": [
                    2.1298715,
                    48.6966839
                ]
            },
            "properties": {
                "name": "Biblioth\u00e8que de l'Abbaye"
            }
        },
        {
            "type": "Feature",
            "geometry": {
                "type": "Point",
                "coordinates": [
                    -0.2453021,
                    44.5520835
                ]
            }
        },
        {
            "type": "Feature",
            "geometry": {
                "type": "Point",
                "coordinates": [
                    2.2248884,
                    49.1102912
                ]
            }
        },
        {
            "type": "Feature",
            "geometry": {
                "type": "Point",
                "coordinates": [
                    6.0762002,
                    45.3922421
                ]
            }
        },
        {
            "type": "Feature",
            "geometry": {
                "type": "Point",
                "coordinates": [
                    2.1976772,
                    48.8906227
                ]
            },
            "properties": {
                "name": "m\u00e9diath\u00e8que-biblioth\u00e8que Flora-Tristan"
            }
        },
        {
            "type": "Feature",
            "geometry": {
                "type": "Point",
                "coordinates": [
                    7.7515129,
                    48.5476745
                ]
            },
            "properties": {
                "name": "Cybercentres"
            }
        },
        {
            "type": "Feature",
            "geometry": {
                "type": "Point",
                "coordinates": [
                    6.9940593,
                    45.3205416
                ]
            }
        },
        {
            "type": "Feature",
            "geometry": {
                "type": "Point",
                "coordinates": [
                    4.4207578,
                    44.0115988
                ]
            },
            "properties": {
                "name": "M\u00e9diath\u00e8que"
            }
        },
        {
            "type": "Feature",
            "geometry": {
                "type": "Point",
                "coordinates": [
                    0.2135312,
                    44.8418363
                ]
            },
            "properties": {
                "name": "Biblioth\u00e8que-M\u00e9diath\u00e8que"
            }
        },
        {
            "type": "Feature",
            "geometry": {
                "type": "Point",
                "coordinates": [
                    5.3584921,
                    45.958118
                ]
            },
            "properties": {
                "name": "M\u00e9diath\u00e8que La Grenette"
            }
        },
        {
            "type": "Feature",
            "geometry": {
                "type": "Point",
                "coordinates": [
                    55.4511766,
                    -20.8927308
                ]
            },
            "properties": {
                "name": "M\u00e9diath\u00e8que de La Source"
            }
        },
        {
            "type": "Feature",
            "geometry": {
                "type": "Point",
                "coordinates": [
                    2.3212149,
                    48.8184478
                ]
            },
            "properties": {
                "name": "M\u00e9diath\u00e8que"
            }
        },
        {
            "type": "Feature",
            "geometry": {
                "type": "Point",
                "coordinates": [
                    3.5189634,
                    50.3129
                ]
            },
            "properties": {
                "name": "Biblioth\u00e8que PMI"
            }
        },
        {
            "type": "Feature",
            "geometry": {
                "type": "Point",
                "coordinates": [
                    5.7217921,
                    45.1561235
                ]
            },
            "properties": {
                "name": "Biblioth\u00e8que Pablo Neruda"
            }
        },
        {
            "type": "Feature",
            "geometry": {
                "type": "Point",
                "coordinates": [
                    -1.6231176,
                    49.637223
                ]
            },
            "properties": {
                "name": "Biblioth\u00e8que Jacques Pr\u00e9vert"
            }
        },
        {
            "type": "Feature",
            "geometry": {
                "type": "Point",
                "coordinates": [
                    1.3828517,
                    43.4795196
                ]
            }
        },
        {
            "type": "Feature",
            "geometry": {
                "type": "Point",
                "coordinates": [
                    5.7084883,
                    45.1794206
                ]
            },
            "properties": {
                "name": "Antigone"
            }
        },
        {
            "type": "Feature",
            "geometry": {
                "type": "Point",
                "coordinates": [
                    6.2019229,
                    42.9993146
                ]
            },
            "properties": {
                "name": "Biblioth\u00e9que municipale"
            }
        },
        {
            "type": "Feature",
            "geometry": {
                "type": "Point",
                "coordinates": [
                    2.3621839,
                    48.7035536
                ]
            },
            "properties": {
                "name": "Biblioth\u00e8que Ren\u00e9 Goscinny"
            }
        },
        {
            "type": "Feature",
            "geometry": {
                "type": "Point",
                "coordinates": [
                    -1.9406226,
                    47.9290911
                ]
            }
        },
        {
            "type": "Feature",
            "geometry": {
                "type": "Point",
                "coordinates": [
                    3.8771451,
                    43.613544
                ]
            },
            "properties": {
                "name": "Librairie Juridique des \u00c9tudiants"
            }
        },
        {
            "type": "Feature",
            "geometry": {
                "type": "Point",
                "coordinates": [
                    2.0808447,
                    49.0372667
                ]
            },
            "properties": {
                "name": "Biblioth\u00e8que Universitaire"
            }
        },
        {
            "type": "Feature",
            "geometry": {
                "type": "Point",
                "coordinates": [
                    4.8425442,
                    45.7973893
                ]
            },
            "properties": {
                "name": "Biblioth\u00e8que municipale"
            }
        },
        {
            "type": "Feature",
            "geometry": {
                "type": "Point",
                "coordinates": [
                    6.2035122,
                    43.0008513
                ]
            },
            "properties": {
                "name": "Presse"
            }
        },
        {
            "type": "Feature",
            "geometry": {
                "type": "Point",
                "coordinates": [
                    1.430668,
                    43.5987958
                ]
            },
            "properties": {
                "name": "Biblioth\u00e8que de quartier - Saint-Cyprien"
            }
        },
        {
            "type": "Feature",
            "geometry": {
                "type": "Point",
                "coordinates": [
                    0.728484,
                    45.1812421
                ]
            },
            "properties": {
                "name": "Biblioth\u00e8que Saint-Georges"
            }
        },
        {
            "type": "Feature",
            "geometry": {
                "type": "Point",
                "coordinates": [
                    0.7235702,
                    45.1885675
                ]
            },
            "properties": {
                "name": "M\u00e9diath\u00e8que Pierre Fanlac"
            }
        },
        {
            "type": "Feature",
            "geometry": {
                "type": "Point",
                "coordinates": [
                    7.3564031,
                    48.0788534
                ]
            },
            "properties": {
                "name": "Biblioth\u00e8que des Enfants"
            }
        },
        {
            "type": "Feature",
            "geometry": {
                "type": "Point",
                "coordinates": [
                    2.5026293,
                    48.8424581
                ]
            },
            "properties": {
                "name": "M\u00e9diath\u00e8que Municipale"
            }
        },
        {
            "type": "Feature",
            "geometry": {
                "type": "Point",
                "coordinates": [
                    -2.482726,
                    47.5540728
                ]
            },
            "properties": {
                "name": "Biblioth\u00e8que municipale"
            }
        },
        {
            "type": "Feature",
            "geometry": {
                "type": "Point",
                "coordinates": [
                    6.6337408,
                    48.3459342
                ]
            },
            "properties": {
                "name": "M\u00e9diath\u00e8que"
            }
        },
        {
            "type": "Feature",
            "geometry": {
                "type": "Point",
                "coordinates": [
                    2.1670611,
                    48.9933124
                ]
            },
            "properties": {
                "name": "BM Herblay"
            }
        },
        {
            "type": "Feature",
            "geometry": {
                "type": "Point",
                "coordinates": [
                    4.6327353,
                    44.7140974
                ]
            },
            "properties": {
                "name": "Biblioth\u00e8que D'Alissas"
            }
        },
        {
            "type": "Feature",
            "geometry": {
                "type": "Point",
                "coordinates": [
                    2.6331534,
                    48.5336718
                ]
            },
            "properties": {
                "name": "annexe biblioth\u00e8que"
            }
        },
        {
            "type": "Feature",
            "geometry": {
                "type": "Point",
                "coordinates": [
                    5.7293031,
                    45.1902902
                ]
            },
            "properties": {
                "name": "Biblioth\u00e8que Centre-Ville"
            }
        },
        {
            "type": "Feature",
            "geometry": {
                "type": "Point",
                "coordinates": [
                    1.0498392,
                    49.4692316
                ]
            },
            "properties": {
                "name": "M\u00e9diath\u00e8que Anne Franck"
            }
        },
        {
            "type": "Feature",
            "geometry": {
                "type": "Point",
                "coordinates": [
                    0.6647619,
                    44.1808043
                ]
            },
            "properties": {
                "name": "M\u00e9diath\u00e8que Camille Ripoll"
            }
        },
        {
            "type": "Feature",
            "geometry": {
                "type": "Point",
                "coordinates": [
                    2.2858546,
                    48.9675471
                ]
            },
            "properties": {
                "name": "M\u00e9diath\u00e8que Th\u00e9odore Monod"
            }
        },
        {
            "type": "Feature",
            "geometry": {
                "type": "Point",
                "coordinates": [
                    6.7086723,
                    46.1785009
                ]
            }
        },
        {
            "type": "Feature",
            "geometry": {
                "type": "Point",
                "coordinates": [
                    3.8755587,
                    43.609661
                ]
            },
            "properties": {
                "name": "Librairie Azimuts"
            }
        },
        {
            "type": "Feature",
            "geometry": {
                "type": "Point",
                "coordinates": [
                    -1.5787964,
                    48.2177691
                ]
            }
        },
        {
            "type": "Feature",
            "geometry": {
                "type": "Point",
                "coordinates": [
                    2.1773559,
                    49.8914625
                ]
            }
        },
        {
            "type": "Feature",
            "geometry": {
                "type": "Point",
                "coordinates": [
                    3.6648358,
                    43.4123351
                ]
            },
            "properties": {
                "name": "M\u00e9diath\u00e8que Andr\u00e9 Malraux"
            }
        },
        {
            "type": "Feature",
            "geometry": {
                "type": "Point",
                "coordinates": [
                    -4.7129843,
                    48.4774168
                ]
            },
            "properties": {
                "name": "biblioth\u00e8que"
            }
        },
        {
            "type": "Feature",
            "geometry": {
                "type": "Point",
                "coordinates": [
                    -0.830775,
                    45.5835165
                ]
            },
            "properties": {
                "name": "Biblioth\u00e8que Municipale"
            }
        },
        {
            "type": "Feature",
            "geometry": {
                "type": "Point",
                "coordinates": [
                    3.4248819,
                    49.0196992
                ]
            },
            "properties": {
                "name": "Biblioth\u00e8que"
            }
        },
        {
            "type": "Feature",
            "geometry": {
                "type": "Point",
                "coordinates": [
                    3.8123008,
                    45.1361641
                ]
            }
        },
        {
            "type": "Feature",
            "geometry": {
                "type": "Point",
                "coordinates": [
                    2.3513354,
                    48.8465258
                ]
            },
            "properties": {
                "name": "Biblioth\u00e8que des litt\u00e9ratures polici\u00e8res"
            }
        },
        {
            "type": "Feature",
            "geometry": {
                "type": "Point",
                "coordinates": [
                    5.0034699,
                    44.1631008
                ]
            },
            "properties": {
                "name": "Gigondas"
            }
        },
        {
            "type": "Feature",
            "geometry": {
                "type": "Point",
                "coordinates": [
                    3.4002411,
                    49.0471712
                ]
            },
            "properties": {
                "name": "M\u00e9diath\u00e8que jean Mac\u00e9"
            }
        },
        {
            "type": "Feature",
            "geometry": {
                "type": "Point",
                "coordinates": [
                    -1.0321978,
                    45.6229084
                ]
            },
            "properties": {
                "name": "Biblioth\u00e8que Municipale"
            }
        },
        {
            "type": "Feature",
            "geometry": {
                "type": "Point",
                "coordinates": [
                    3.8789141,
                    43.6116817
                ]
            },
            "properties": {
                "name": "La Carterie"
            }
        },
        {
            "type": "Feature",
            "geometry": {
                "type": "Point",
                "coordinates": [
                    2.383053,
                    48.8848656
                ]
            },
            "properties": {
                "name": "Biblioth\u00e8que jeunesse Crim\u00e9e"
            }
        },
        {
            "type": "Feature",
            "geometry": {
                "type": "Point",
                "coordinates": [
                    2.3556751,
                    48.8513211
                ]
            },
            "properties": {
                "name": "Biblioth\u00e8que polonaise"
            }
        },
        {
            "type": "Feature",
            "geometry": {
                "type": "Point",
                "coordinates": [
                    2.3275469,
                    48.8479918
                ]
            },
            "properties": {
                "name": "Biblioth\u00e8que Andr\u00e9 Malraux"
            }
        },
        {
            "type": "Feature",
            "geometry": {
                "type": "Point",
                "coordinates": [
                    2.3600477,
                    48.7718224
                ]
            },
            "properties": {
                "name": "M\u00e9diath\u00e8que Boris Vian"
            }
        },
        {
            "type": "Feature",
            "geometry": {
                "type": "Point",
                "coordinates": [
                    -4.5171038,
                    48.3832581
                ]
            },
            "properties": {
                "name": "Biblioth\u00e8que des Quatre Moulins"
            }
        },
        {
            "type": "Feature",
            "geometry": {
                "type": "Point",
                "coordinates": [
                    -4.5184686,
                    48.3917458
                ]
            },
            "properties": {
                "name": "Biblioth\u00e8que de la Cavale Blanche"
            }
        },
        {
            "type": "Feature",
            "geometry": {
                "type": "Point",
                "coordinates": [
                    -4.4888813,
                    48.3845832
                ]
            },
            "properties": {
                "name": "Biblioth\u00e8que Neptune"
            }
        },
        {
            "type": "Feature",
            "geometry": {
                "type": "Point",
                "coordinates": [
                    -4.4788463,
                    48.3965752
                ]
            },
            "properties": {
                "name": "Biblioth\u00e8que St Martin"
            }
        },
        {
            "type": "Feature",
            "geometry": {
                "type": "Point",
                "coordinates": [
                    -4.5572622,
                    48.4234671
                ]
            },
            "properties": {
                "name": "Biblioth\u00e8que"
            }
        },
        {
            "type": "Feature",
            "geometry": {
                "type": "Point",
                "coordinates": [
                    -4.4897491,
                    48.3850839
                ]
            },
            "properties": {
                "name": "Biblioth\u00e8que"
            }
        },
        {
            "type": "Feature",
            "geometry": {
                "type": "Point",
                "coordinates": [
                    -4.5063854,
                    48.4038233
                ]
            },
            "properties": {
                "name": "Biblio. Bellevue"
            }
        },
        {
            "type": "Feature",
            "geometry": {
                "type": "Point",
                "coordinates": [
                    -4.4887975,
                    48.3843629
                ]
            },
            "properties": {
                "name": "Discoth\u00e8que municipale Arp\u00e8ge (ferm\u00e9e actuellement)"
            }
        },
        {
            "type": "Feature",
            "geometry": {
                "type": "Point",
                "coordinates": [
                    -4.492488,
                    48.414048
                ]
            },
            "properties": {
                "name": "M\u00e9diath\u00e8que"
            }
        },
        {
            "type": "Feature",
            "geometry": {
                "type": "Point",
                "coordinates": [
                    -4.5153952,
                    48.429804
                ]
            },
            "properties": {
                "name": "Biblioth\u00e8que"
            }
        },
        {
            "type": "Feature",
            "geometry": {
                "type": "Point",
                "coordinates": [
                    0.9981143,
                    47.8034237
                ]
            },
            "properties": {
                "name": "Biblioth\u00e8que municipale"
            }
        },
        {
            "type": "Feature",
            "geometry": {
                "type": "Point",
                "coordinates": [
                    -2.8329604,
                    47.8832799
                ]
            },
            "properties": {
                "name": "M\u00e9diath\u00e8que municipale de Locmin\u00e9"
            }
        },
        {
            "type": "Feature",
            "geometry": {
                "type": "Point",
                "coordinates": [
                    2.5319522,
                    48.8398436
                ]
            },
            "properties": {
                "name": "M\u00e9diath\u00e8que Jules Verne"
            }
        },
        {
            "type": "Feature",
            "geometry": {
                "type": "Point",
                "coordinates": [
                    7.2195829,
                    48.4774976
                ]
            },
            "properties": {
                "name": "Biblioth\u00e8que Municipale"
            }
        },
        {
            "type": "Feature",
            "geometry": {
                "type": "Point",
                "coordinates": [
                    3.4716245,
                    45.9606335
                ]
            },
            "properties": {
                "name": "Mediath\u00e8que"
            }
        },
        {
            "type": "Feature",
            "geometry": {
                "type": "Point",
                "coordinates": [
                    3.7082922,
                    43.9357638
                ]
            },
            "properties": {
                "name": "M\u00e9diath\u00e8que Lucie Aubrac"
            }
        },
        {
            "type": "Feature",
            "geometry": {
                "type": "Point",
                "coordinates": [
                    5.4087562,
                    44.0931803
                ]
            }
        },
        {
            "type": "Feature",
            "geometry": {
                "type": "Point",
                "coordinates": [
                    4.7825272,
                    43.831688
                ]
            },
            "properties": {
                "name": "Biblioth\u00e8que"
            }
        },
        {
            "type": "Feature",
            "geometry": {
                "type": "Point",
                "coordinates": [
                    5.4029676,
                    45.2081949
                ]
            },
            "properties": {
                "name": "Biblioth\u00e8que"
            }
        },
        {
            "type": "Feature",
            "geometry": {
                "type": "Point",
                "coordinates": [
                    -1.7227696,
                    48.2985309
                ]
            }
        },
        {
            "type": "Feature",
            "geometry": {
                "type": "Point",
                "coordinates": [
                    4.8747973,
                    45.5239906
                ]
            }
        },
        {
            "type": "Feature",
            "geometry": {
                "type": "Point",
                "coordinates": [
                    5.1074848,
                    45.6336494
                ]
            }
        },
        {
            "type": "Feature",
            "geometry": {
                "type": "Point",
                "coordinates": [
                    6.4029368,
                    44.5266874
                ]
            }
        },
        {
            "type": "Feature",
            "geometry": {
                "type": "Point",
                "coordinates": [
                    5.7941241,
                    45.1824116
                ]
            },
            "properties": {
                "name": "Biblioth\u00e8que Fran\u00e7ois Mitterrand"
            }
        },
        {
            "type": "Feature",
            "geometry": {
                "type": "Point",
                "coordinates": [
                    4.9582499,
                    45.0766735
                ]
            }
        },
        {
            "type": "Feature",
            "geometry": {
                "type": "Point",
                "coordinates": [
                    2.0433226,
                    49.0111032
                ]
            }
        },
        {
            "type": "Feature",
            "geometry": {
                "type": "Point",
                "coordinates": [
                    2.214421,
                    50.8339755
                ]
            },
            "properties": {
                "name": "M\u00e9diath\u00e8que Foyer des Ain\u00e9s"
            }
        },
        {
            "type": "Feature",
            "geometry": {
                "type": "Point",
                "coordinates": [
                    9.3494896,
                    41.6990323
                ]
            }
        },
        {
            "type": "Feature",
            "geometry": {
                "type": "Point",
                "coordinates": [
                    5.7632521,
                    45.2067763
                ]
            },
            "properties": {
                "name": "Biblioth\u00e8que Mi-Plaine"
            }
        },
        {
            "type": "Feature",
            "geometry": {
                "type": "Point",
                "coordinates": [
                    7.5160507,
                    43.9390706
                ]
            }
        },
        {
            "type": "Feature",
            "geometry": {
                "type": "Point",
                "coordinates": [
                    2.3373427,
                    48.8572964
                ]
            },
            "properties": {
                "name": "Biblioth\u00e8que Mazarine"
            }
        },
        {
            "type": "Feature",
            "geometry": {
                "type": "Point",
                "coordinates": [
                    5.9296618,
                    49.4702822
                ]
            },
            "properties": {
                "name": "Biblioth\u00e8que Armand Sacconi"
            }
        },
        {
            "type": "Feature",
            "geometry": {
                "type": "Point",
                "coordinates": [
                    3.8557285,
                    43.9665759
                ]
            },
            "properties": {
                "name": "Biblioth\u00e8que Roure Saran"
            }
        },
        {
            "type": "Feature",
            "geometry": {
                "type": "Point",
                "coordinates": [
                    -0.9943564,
                    47.1022974
                ]
            },
            "properties": {
                "name": "Biblioth\u00e8que du Temps libre"
            }
        },
        {
            "type": "Feature",
            "geometry": {
                "type": "Point",
                "coordinates": [
                    1.612093,
                    50.724944
                ]
            },
            "properties": {
                "name": "Bibliotheque Municipale"
            }
        },
        {
            "type": "Feature",
            "geometry": {
                "type": "Point",
                "coordinates": [
                    -1.7954627,
                    47.9640708
                ]
            },
            "properties": {
                "name": "Espace Galat\u00e9e"
            }
        },
        {
            "type": "Feature",
            "geometry": {
                "type": "Point",
                "coordinates": [
                    3.5755641,
                    47.7939061
                ]
            },
            "properties": {
                "name": "Biblioth\u00e8que Municipale Jacques Lacarri\u00e8re"
            }
        },
        {
            "type": "Feature",
            "geometry": {
                "type": "Point",
                "coordinates": [
                    6.5917128,
                    46.4011061
                ]
            },
            "properties": {
                "name": "M\u00e9diath\u00e8que"
            }
        },
        {
            "type": "Feature",
            "geometry": {
                "type": "Point",
                "coordinates": [
                    0.5687204,
                    49.4886253
                ]
            },
            "properties": {
                "name": "M\u00e9diath\u00e8que"
            }
        },
        {
            "type": "Feature",
            "geometry": {
                "type": "Point",
                "coordinates": [
                    -1.7570241,
                    48.2200574
                ]
            },
            "properties": {
                "name": "M\u00e9diath\u00e8que de la M\u00e9zi\u00e8re"
            }
        },
        {
            "type": "Feature",
            "geometry": {
                "type": "Point",
                "coordinates": [
                    6.8694546,
                    44.7819168
                ]
            },
            "properties": {
                "name": "Biblioth\u00e8que S\u00e9verine L\u00e9a"
            }
        },
        {
            "type": "Feature",
            "geometry": {
                "type": "Point",
                "coordinates": [
                    2.2463986,
                    48.8432633
                ]
            },
            "properties": {
                "name": "Biblioth\u00e8que Marmottan"
            }
        },
        {
            "type": "Feature",
            "geometry": {
                "type": "Point",
                "coordinates": [
                    7.6649654,
                    48.4902319
                ]
            },
            "properties": {
                "name": "Biblioth\u00e8que Municipale"
            }
        },
        {
            "type": "Feature",
            "geometry": {
                "type": "Point",
                "coordinates": [
                    -1.4260603,
                    46.8085321
                ]
            },
            "properties": {
                "name": "Biblioth\u00e8que Municipale"
            }
        },
        {
            "type": "Feature",
            "geometry": {
                "type": "Point",
                "coordinates": [
                    2.3195067,
                    43.2442235
                ]
            },
            "properties": {
                "name": "Biblioth\u00e8que Municipale"
            }
        },
        {
            "type": "Feature",
            "geometry": {
                "type": "Point",
                "coordinates": [
                    6.9168257,
                    43.6554918
                ]
            },
            "properties": {
                "name": "Biblioth\u00e8que Municipale"
            }
        },
        {
            "type": "Feature",
            "geometry": {
                "type": "Point",
                "coordinates": [
                    1.845643,
                    47.1426771
                ]
            },
            "properties": {
                "name": "Biblioth\u00e8que Municipale"
            }
        },
        {
            "type": "Feature",
            "geometry": {
                "type": "Point",
                "coordinates": [
                    0.9302509,
                    43.4907609
                ]
            },
            "properties": {
                "name": "M\u00e9diatheque"
            }
        },
        {
            "type": "Feature",
            "geometry": {
                "type": "Point",
                "coordinates": [
                    -4.3362745,
                    48.45247
                ]
            },
            "properties": {
                "name": "Maison des Bruy\u00e8res"
            }
        },
        {
            "type": "Feature",
            "geometry": {
                "type": "Point",
                "coordinates": [
                    6.9591854,
                    43.6426686
                ]
            },
            "properties": {
                "name": "Biblioth\u00e8que Municipale"
            }
        },
        {
            "type": "Feature",
            "geometry": {
                "type": "Point",
                "coordinates": [
                    2.2904168,
                    48.7631014
                ]
            },
            "properties": {
                "name": "BDt\u00e8k"
            }
        },
        {
            "type": "Feature",
            "geometry": {
                "type": "Point",
                "coordinates": [
                    4.8178898,
                    45.816785
                ]
            },
            "properties": {
                "name": "Biblioth\u00e8que municipale"
            }
        },
        {
            "type": "Feature",
            "geometry": {
                "type": "Point",
                "coordinates": [
                    2.2744231,
                    48.9101715
                ]
            },
            "properties": {
                "name": "Biblioth\u00e8que Eug\u00e8ne Flachat"
            }
        },
        {
            "type": "Feature",
            "geometry": {
                "type": "Point",
                "coordinates": [
                    -0.5723661,
                    43.3971014
                ]
            },
            "properties": {
                "name": "Biblioth\u00e8que Pour Tous"
            }
        },
        {
            "type": "Feature",
            "geometry": {
                "type": "Point",
                "coordinates": [
                    -0.5564352,
                    47.4687963
                ]
            },
            "properties": {
                "name": "Biblioth\u00e8que Toussaint"
            }
        },
        {
            "type": "Feature",
            "geometry": {
                "type": "Point",
                "coordinates": [
                    -2.2467094,
                    47.0036525
                ]
            }
        },
        {
            "type": "Feature",
            "geometry": {
                "type": "Point",
                "coordinates": [
                    2.2823119,
                    44.5261466
                ]
            },
            "properties": {
                "name": "M\u00e9diath\u00e8que de Cransac"
            }
        },
        {
            "type": "Feature",
            "geometry": {
                "type": "Point",
                "coordinates": [
                    7.4461788,
                    48.4070839
                ]
            },
            "properties": {
                "name": "Biblioth\u00e8que Municipale"
            }
        },
        {
            "type": "Feature",
            "geometry": {
                "type": "Point",
                "coordinates": [
                    -0.3558291,
                    43.277163
                ]
            },
            "properties": {
                "name": "Biblioth\u00e8que de Maz\u00e8res-Lezons"
            }
        },
        {
            "type": "Feature",
            "geometry": {
                "type": "Point",
                "coordinates": [
                    2.5963014,
                    44.3656447
                ]
            },
            "properties": {
                "name": "M\u00e9diath\u00e8que municipale \"Paul G\u00e9raldini\""
            }
        },
        {
            "type": "Feature",
            "geometry": {
                "type": "Point",
                "coordinates": [
                    2.5768206,
                    44.3496649
                ]
            },
            "properties": {
                "name": "M\u00e9diath\u00e8que Municipale de Rodez"
            }
        },
        {
            "type": "Feature",
            "geometry": {
                "type": "Point",
                "coordinates": [
                    4.0065433,
                    45.0003017
                ]
            }
        },
        {
            "type": "Feature",
            "geometry": {
                "type": "Point",
                "coordinates": [
                    2.2278509,
                    48.8351693
                ]
            },
            "properties": {
                "name": "Biblioth\u00e8que pour tous"
            }
        },
        {
            "type": "Feature",
            "geometry": {
                "type": "Point",
                "coordinates": [
                    2.0876224,
                    49.4337662
                ]
            },
            "properties": {
                "name": "M\u00e9diath\u00e8que du centre-ville"
            }
        },
        {
            "type": "Feature",
            "geometry": {
                "type": "Point",
                "coordinates": [
                    2.0997048,
                    49.4369567
                ]
            },
            "properties": {
                "name": "M\u00e9diath\u00e8que Argentine"
            }
        },
        {
            "type": "Feature",
            "geometry": {
                "type": "Point",
                "coordinates": [
                    2.3139298,
                    48.7028699
                ]
            },
            "properties": {
                "name": "M\u00e9diath\u00e8que Albert Camus"
            }
        },
        {
            "type": "Feature",
            "geometry": {
                "type": "Point",
                "coordinates": [
                    7.4507718,
                    48.088131
                ]
            },
            "properties": {
                "name": "Biblioth\u00e8que"
            }
        },
        {
            "type": "Feature",
            "geometry": {
                "type": "Point",
                "coordinates": [
                    -2.1571847,
                    48.1276744
                ]
            }
        },
        {
            "type": "Feature",
            "geometry": {
                "type": "Point",
                "coordinates": [
                    0.8015906,
                    43.0141236
                ]
            },
            "properties": {
                "name": "Biblioth\u00e8que Augustus Saint-Gaudens"
            }
        },
        {
            "type": "Feature",
            "geometry": {
                "type": "Point",
                "coordinates": [
                    -4.2318,
                    48.1799636
                ]
            }
        },
        {
            "type": "Feature",
            "geometry": {
                "type": "Point",
                "coordinates": [
                    2.5408615,
                    50.5163717
                ]
            }
        },
        {
            "type": "Feature",
            "geometry": {
                "type": "Point",
                "coordinates": [
                    3.3301292,
                    46.5615656
                ]
            },
            "properties": {
                "name": "M\u00e9diath\u00e8que"
            }
        },
        {
            "type": "Feature",
            "geometry": {
                "type": "Point",
                "coordinates": [
                    -2.0063662,
                    48.039942
                ]
            },
            "properties": {
                "name": "Biblioth\u00e8que municipale"
            }
        },
        {
            "type": "Feature",
            "geometry": {
                "type": "Point",
                "coordinates": [
                    -3.4613996,
                    48.7301741
                ]
            },
            "properties": {
                "name": "M\u00e9diath\u00e8que"
            }
        },
        {
            "type": "Feature",
            "geometry": {
                "type": "Point",
                "coordinates": [
                    2.3089956,
                    48.8580602
                ]
            },
            "properties": {
                "name": "Biblioth\u00e8que Am\u00e9lie"
            }
        },
        {
            "type": "Feature",
            "geometry": {
                "type": "Point",
                "coordinates": [
                    7.6153851,
                    48.5604126
                ]
            },
            "properties": {
                "name": "M\u00e9diath\u00e8que"
            }
        },
        {
            "type": "Feature",
            "geometry": {
                "type": "Point",
                "coordinates": [
                    2.1419408,
                    48.6740549
                ]
            },
            "properties": {
                "name": "M\u00e9diath\u00e8que Albert Camus"
            }
        },