{
    "type": "FeatureCollection",
    "features": [
        {
            "type": "Feature",
            "geometry": {
                "type": "Point",
                "coordinates": [
                    21.2591732,
                    48.7208939
                ]
            },
            "properties": {
                "name": "Art Forum"
            }
        },
        {
            "type": "Feature",
            "geometry": {
                "type": "Point",
                "coordinates": [
                    21.2585436,
                    48.7186882
                ]
            },
            "properties": {
                "name": "AntiQart"
            }
        },
        {
            "type": "Feature",
            "geometry": {
                "type": "Point",
                "coordinates": [
                    21.2461741,
                    48.7278253
                ]
            },
            "properties": {
                "name": "Antikvart"
            }
        },
        {
            "type": "Feature",
            "geometry": {
                "type": "Point",
                "coordinates": [
                    21.2580041,
                    48.7234836
                ]
            },
            "properties": {
                "name": "Mal\u00fd princ"
            }
        },
        {
            "type": "Feature",
            "geometry": {
                "type": "Point",
                "coordinates": [
                    21.245146,
                    48.7303652
                ]
            },
            "properties": {
                "name": "Elfa"
            }
        },
        {
            "type": "Feature",
            "geometry": {
                "type": "Point",
                "coordinates": [
                    17.1223755,
                    48.1539568
                ]
            },
            "properties": {
                "name": "Slovensk\u00e9 pedagogick\u00e9 nakladate\u013estvo - Mlad\u00e9 let\u00e1"
            }
        },
        {
            "type": "Feature",
            "geometry": {
                "type": "Point",
                "coordinates": [
                    17.1066097,
                    48.143519
                ]
            },
            "properties": {
                "name": "Antikvari\u00e1t Steiner"
            }
        },
        {
            "type": "Feature",
            "geometry": {
                "type": "Point",
                "coordinates": [
                    17.5866659,
                    48.3732591
                ]
            },
            "properties": {
                "name": "Dobr\u00e9 srdce"
            }
        },
        {
            "type": "Feature",
            "geometry": {
                "type": "Point",
                "coordinates": [
                    21.2562358,
                    48.7230641
                ]
            },
            "properties": {
                "name": "Panta Rhei"
            }
        },
        {
            "type": "Feature",
            "geometry": {
                "type": "Point",
                "coordinates": [
                    17.1020732,
                    48.1472414
                ]
            },
            "properties": {
                "name": "Artforum"
            }
        },
        {
            "type": "Feature",
            "geometry": {
                "type": "Point",
                "coordinates": [
                    19.1479201,
                    48.7367382
                ]
            },
            "properties": {
                "name": "Knihy"
            }
        },
        {
            "type": "Feature",
            "geometry": {
                "type": "Point",
                "coordinates": [
                    18.0924633,
                    48.3131748
                ]
            },
            "properties": {
                "name": "Kn\u00edhkupectvo Viera"
            }
        },
        {
            "type": "Feature",
            "geometry": {
                "type": "Point",
                "coordinates": [
                    21.2564184,
                    48.7242955
                ]
            },
            "properties": {
                "name": "Dobr\u00e1 kniha"
            }
        },
        {
            "type": "Feature",
            "geometry": {
                "type": "Point",
                "coordinates": [
                    17.8312415,
                    48.5900007
                ]
            },
            "properties": {
                "name": "Dobr\u00e1 kniha"
            }
        },
        {
            "type": "Feature",
            "geometry": {
                "type": "Point",
                "coordinates": [
                    18.1293881,
                    47.7575274
                ]
            },
            "properties": {
                "name": "Knihy"
            }
        },
        {
            "type": "Feature",
            "geometry": {
                "type": "Point",
                "coordinates": [
                    18.1240361,
                    47.7585902
                ]
            },
            "properties": {
                "name": "Kn\u00edhkupectvo"
            }
        },
        {
            "type": "Feature",
            "geometry": {
                "type": "Point",
                "coordinates": [
                    17.1377298,
                    48.1584504
                ]
            },
            "properties": {
                "name": "Antikvari\u00e1t Skr\u00fd\u0161a"
            }
        },
        {
            "type": "Feature",
            "geometry": {
                "type": "Point",
                "coordinates": [
                    17.8334252,
                    48.588551
                ]
            },
            "properties": {
                "name": "Panta Rhei"
            }
        },
        {
            "type": "Feature",
            "geometry": {
                "type": "Point",
                "coordinates": [
                    18.6170676,
                    48.773061
                ]
            },
            "properties": {
                "name": "EZOP"
            }
        },
        {
            "type": "Feature",
            "geometry": {
                "type": "Point",
                "coordinates": [
                    18.6236503,
                    48.7725419
                ]
            },
            "properties": {
                "name": "Spolok sv\u00e4t\u00e9ho Vojtecha"
            }
        },
        {
            "type": "Feature",
            "geometry": {
                "type": "Point",
                "coordinates": [
                    18.3730114,
                    48.6247594
                ]
            },
            "properties": {
                "name": "Alva"
            }
        },
        {
            "type": "Feature",
            "geometry": {
                "type": "Point",
                "coordinates": [
                    17.8306981,
                    48.7585838
                ]
            },
            "properties": {
                "name": "Kn\u00edhkupectvo Coda-Art, s. r. o."
            }
        },
        {
            "type": "Feature",
            "geometry": {
                "type": "Point",
                "coordinates": [
                    18.7599455,
                    48.7269426
                ]
            },
            "properties": {
                "name": "BeneLibri"
            }
        },
        {
            "type": "Feature",
            "geometry": {
                "type": "Point",
                "coordinates": [
                    20.6907404,
                    49.3024252
                ]
            },
            "properties": {
                "name": "Kn\u00edhkupectvo Katar\u00edna"
            }
        },
        {
            "type": "Feature",
            "geometry": {
                "type": "Point",
                "coordinates": [
                    19.4801569,
                    49.4052077
                ]
            },
            "properties": {
                "name": "Libresso"
            }
        },
        {
            "type": "Feature",
            "geometry": {
                "type": "Point",
                "coordinates": [
                    18.0861693,
                    48.3072624
                ]
            },
            "properties": {
                "name": "Panta Rhei"
            }
        },
        {
            "type": "Feature",
            "geometry": {
                "type": "Point",
                "coordinates": [
                    18.0982651,
                    48.3094679
                ]
            },
            "properties": {
                "name": "Martinus"
            }
        },
        {
            "type": "Feature",
            "geometry": {
                "type": "Point",
                "coordinates": [
                    18.1036249,
                    48.3170514
                ]
            },
            "properties": {
                "name": "Mal\u00fd princ"
            }
        },
        {
            "type": "Feature",
            "geometry": {
                "type": "Point",
                "coordinates": [
                    18.6249006,
                    48.7701724
                ]
            },
            "properties": {
                "name": "Antikvari\u00e1t \u010cas"
            }
        },
        {
            "type": "Feature",
            "geometry": {
                "type": "Point",
                "coordinates": [
                    17.1050001,
                    48.14797
                ]
            },
            "properties": {
                "name": "NextApache"
            }
        },
        {
            "type": "Feature",
            "geometry": {
                "type": "Point",
                "coordinates": [
                    21.2338661,
                    48.7144663
                ]
            },
            "properties": {
                "name": "Kn\u00edhkupectvo Litera"
            }
        },
        {
            "type": "Feature",
            "geometry": {
                "type": "Point",
                "coordinates": [
                    20.5655619,
                    48.9450562
                ]
            }
        },
        {
            "type": "Feature",
            "geometry": {
                "type": "Point",
                "coordinates": [
                    22.15266,
                    48.9874323
                ]
            },
            "properties": {
                "name": "Juvena"
            }
        },
        {
            "type": "Feature",
            "geometry": {
                "type": "Point",
                "coordinates": [
                    17.108992,
                    48.1478812
                ]
            },
            "properties": {
                "name": "Panta Rhei"
            }
        },
        {
            "type": "Feature",
            "geometry": {
                "type": "Point",
                "coordinates": [
                    17.0891407,
                    48.1414341
                ]
            },
            "properties": {
                "name": "Adka books"
            }
        },
        {
            "type": "Feature",
            "geometry": {
                "type": "Point",
                "coordinates": [
                    18.7392125,
                    49.2239038
                ]
            },
            "properties": {
                "name": "Artforum"
            }
        },
        {
            "type": "Feature",
            "geometry": {
                "type": "Point",
                "coordinates": [
                    21.2594539,
                    48.7187213
                ]
            }
        },
        {
            "type": "Feature",
            "geometry": {
                "type": "Point",
                "coordinates": [
                    21.2591054,
                    48.7197305
                ]
            }
        },
        {
            "type": "Feature",
            "geometry": {
                "type": "Point",
                "coordinates": [
                    21.2545269,
                    48.7194529
                ]
            },
            "properties": {
                "name": "Antikvari\u00e1t"
            }
        },
        {
            "type": "Feature",
            "geometry": {
                "type": "Point",
                "coordinates": [
                    18.6068941,
                    48.217882
                ]
            },
            "properties": {
                "name": "Kn\u00edhkupectvo"
            }
        },
        {
            "type": "Feature",
            "geometry": {
                "type": "Point",
                "coordinates": [
                    17.8292946,
                    48.7553384
                ]
            },
            "properties": {
                "name": "LM"
            }
        },
        {
            "type": "Feature",
            "geometry": {
                "type": "Point",
                "coordinates": [
                    18.0871244,
                    48.3119718
                ]
            },
            "properties": {
                "name": "Kn\u00edhkupectvo"
            }
        },
        {
            "type": "Feature",
            "geometry": {
                "type": "Point",
                "coordinates": [
                    18.0861314,
                    48.3132181
                ]
            },
            "properties": {
                "name": "Knihy Pod v\u0155\u0161kom"
            }
        },
        {
            "type": "Feature",
            "geometry": {
                "type": "Point",
                "coordinates": [
                    18.0876539,
                    48.312334
                ]
            },
            "properties": {
                "name": "Knihy Modul"
            }
        },
        {
            "type": "Feature",
            "geometry": {
                "type": "Point",
                "coordinates": [
                    17.6929758,
                    48.0833959
                ]
            },
            "properties": {
                "name": "\u013dudov\u00e1 kni\u017enica"
            }
        },
        {
            "type": "Feature",
            "geometry": {
                "type": "Point",
                "coordinates": [
                    19.1432688,
                    48.7362346
                ]
            },
            "properties": {
                "name": "Aktikvari\u00e1t Paseka"
            }
        },
        {
            "type": "Feature",
            "geometry": {
                "type": "Point",
                "coordinates": [
                    19.1418793,
                    48.7328606
                ]
            }
        },
        {
            "type": "Feature",
            "geometry": {
                "type": "Point",
                "coordinates": [
                    21.2317603,
                    48.718662
                ]
            },
            "properties": {
                "name": "Sabol"
            }
        },
        {
            "type": "Feature",
            "geometry": {
                "type": "Point",
                "coordinates": [
                    18.6086514,
                    48.2181562
                ]
            },
            "properties": {
                "name": "Kn\u00edhkupectvo Kruh"
            }
        },
        {
            "type": "Feature",
            "geometry": {
                "type": "Point",
                "coordinates": [
                    18.0885694,
                    48.3107418
                ]
            },
            "properties": {
                "name": "smebook.sk"
            }
        },
        {
            "type": "Feature",
            "geometry": {
                "type": "Point",
                "coordinates": [
                    18.5398906,
                    48.7164312
                ]
            },
            "properties": {
                "name": "BeneLibri"
            }
        },
        {
            "type": "Feature",
            "geometry": {
                "type": "Point",
                "coordinates": [
                    17.1065981,
                    48.1431262
                ]
            }
        },
        {
            "type": "Feature",
            "geometry": {
                "type": "Point",
                "coordinates": [
                    17.1085239,
                    48.1421403
                ]
            },
            "properties": {
                "name": "Dobr\u00e1 kniha"
            }
        },
        {
            "type": "Feature",
            "geometry": {
                "type": "Point",
                "coordinates": [
                    17.1071594,
                    48.1430572
                ]
            },
            "properties": {
                "name": "ADKA BOOKS"
            }
        },
        {
            "type": "Feature",
            "geometry": {
                "type": "Point",
                "coordinates": [
                    17.1143025,
                    48.1428027
                ]
            },
            "properties": {
                "name": "Academia"
            }
        },
        {
            "type": "Feature",
            "geometry": {
                "type": "Point",
                "coordinates": [
                    17.1574884,
                    48.1515938
                ]
            },
            "properties": {
                "name": "Knihy pre ka\u017ed\u00e9ho"
            }
        },
        {
            "type": "Feature",
            "geometry": {
                "type": "Point",
                "coordinates": [
                    19.9416422,
                    48.6806535
                ]
            },
            "properties": {
                "name": "Kniha"
            }
        },
        {
            "type": "Feature",
            "geometry": {
                "type": "Point",
                "coordinates": [
                    17.1102419,
                    48.1452997
                ]
            },
            "properties": {
                "name": "GORILA Urban Space"
            }
        },
        {
            "type": "Feature",
            "geometry": {
                "type": "Point",
                "coordinates": [
                    17.1111692,
                    48.1455462
                ]
            },
            "properties": {
                "name": "L\u00fa\u010d"
            }
        },
        {
            "type": "Feature",
            "geometry": {
                "type": "Point",
                "coordinates": [
                    18.892858,
                    48.4596539
                ]
            },
            "properties": {
                "name": "Antikvariatik"
            }
        },
        {
            "type": "Feature",
            "geometry": {
                "type": "Point",
                "coordinates": [
                    17.11001,
                    48.14718
                ]
            },
            "properties": {
                "name": "Martinus.sk"
            }
        },
        {
            "type": "Feature",
            "geometry": {
                "type": "Point",
                "coordinates": [
                    18.0885386,
                    48.3106583
                ]
            },
            "properties": {
                "name": "Smebook.sk"
            }
        },
        {
            "type": "Feature",
            "geometry": {
                "type": "Point",
                "coordinates": [
                    21.2640607,
                    48.7181758
                ]
            },
            "properties": {
                "name": "Panta Rhei"
            }
        },
        {
            "type": "Feature",
            "geometry": {
                "type": "Point",
                "coordinates": [
                    17.1105451,
                    48.1437728
                ]
            },
            "properties": {
                "name": "Oxford Bookshop"
            }
        },
        {
            "type": "Feature",
            "geometry": {
                "type": "Point",
                "coordinates": [
                    18.9227531,
                    49.0660492
                ]
            },
            "properties": {
                "name": "Martinus"
            }
        },
        {
            "type": "Feature",
            "geometry": {
                "type": "Point",
                "coordinates": [
                    17.1434756,
                    48.1530021
                ]
            },
            "properties": {
                "name": "Elita"
            }
        },
        {
            "type": "Feature",
            "geometry": {
                "type": "Point",
                "coordinates": [
                    17.8368285,
                    48.5891988
                ]
            },
            "properties": {
                "name": "centrumknihy.sk"
            }
        },
        {
            "type": "Feature",
            "geometry": {
                "type": "Point",
                "coordinates": [
                    17.1134082,
                    48.1293311
                ]
            },
            "properties": {
                "name": "Antikvari\u00e1t Pegas"
            }
        },
        {
            "type": "Feature",
            "geometry": {
                "type": "Point",
                "coordinates": [
                    17.1081158,
                    48.1446273
                ]
            },
            "properties": {
                "name": "Predaj\u0148a Franti\u0161ek"
            }
        },
        {
            "type": "Feature",
            "geometry": {
                "type": "Point",
                "coordinates": [
                    21.259349,
                    48.7222537
                ]
            },
            "properties": {
                "name": "C-PRESS.sk"
            }
        },
        {
            "type": "Feature",
            "geometry": {
                "type": "Point",
                "coordinates": [
                    17.1243101,
                    48.1293957
                ]
            },
            "properties": {
                "name": "Magnet Press"
            }
        },
        {
            "type": "Feature",
            "geometry": {
                "type": "Point",
                "coordinates": [
                    18.8505641,
                    48.5900794
                ]
            },
            "properties": {
                "name": "Kniha pre teba"
            }
        },
        {
            "type": "Feature",
            "geometry": {
                "type": "Point",
                "coordinates": [
                    17.0649102,
                    48.1766632
                ]
            },
            "properties": {
                "name": "Panta Rhei"
            }
        },
        {
            "type": "Feature",
            "geometry": {
                "type": "Point",
                "coordinates": [
                    17.1055236,
                    48.1486375
                ]
            },
            "properties": {
                "name": "Kn\u00edhkupectvo v Lutherhause"
            }
        },
        {
            "type": "Feature",
            "geometry": {
                "type": "Point",
                "coordinates": [
                    17.122582,
                    48.156404
                ]
            },
            "properties": {
                "name": "Jonat\u00e1n"
            }
        },
        {
            "type": "Feature",
            "geometry": {
                "type": "Point",
                "coordinates": [
                    18.3284295,
                    49.1274703
                ]
            },
            "properties": {
                "name": "M kniha"
            }
        },
        {
            "type": "Feature",
            "geometry": {
                "type": "Point",
                "coordinates": [
                    20.0178195,
                    48.3825796
                ]
            },
            "properties": {
                "name": "KN\u00cdHKUPECTVO MAD\u00c1CH-POSONIUM"
            }
        },
        {
            "type": "Feature",
            "geometry": {
                "type": "Point",
                "coordinates": [
                    19.125845,
                    48.5800396
                ]
            },
            "properties": {
                "name": "Panta Rhei"
            }
        },
        {
            "type": "Feature",
            "geometry": {
                "type": "Point",
                "coordinates": [
                    19.1260113,
                    48.5747443
                ]
            },
            "properties": {
                "name": "Le\u0161t\u00e1chovo kn\u00edhkupectvo"
            }
        },
        {
            "type": "Feature",
            "geometry": {
                "type": "Point",
                "coordinates": [
                    20.2995626,
                    49.0542514
                ]
            },
            "properties": {
                "name": "Christiania"
            }
        },
        {
            "type": "Feature",
            "geometry": {
                "type": "Point",
                "coordinates": [
                    20.290953,
                    49.0495258
                ]
            },
            "properties": {
                "name": "PantaRei"
            }
        },
        {
            "type": "Feature",
            "geometry": {
                "type": "Point",
                "coordinates": [
                    20.0182905,
                    48.3829041
                ]
            },
            "properties": {
                "name": "Knihkupectvo Marsab"
            }
        },
        {
            "type": "Feature",
            "geometry": {
                "type": "Point",
                "coordinates": [
                    17.3669438,
                    48.6813313
                ]
            },
            "properties": {
                "name": "kn\u00edhkupectvo Valko"
            }
        },
        {
            "type": "Feature",
            "geometry": {
                "type": "Point",
                "coordinates": [
                    17.163585,
                    48.8189187
                ]
            },
            "properties": {
                "name": "Kn\u00edhkupectvo Bystrick\u00fd"
            }
        },
        {
            "type": "Feature",
            "geometry": {
                "type": "Point",
                "coordinates": [
                    21.6516431,
                    49.2000667
                ]
            },
            "properties": {
                "name": "Hviezdoslav"
            }
        },
        {
            "type": "Feature",
            "geometry": {
                "type": "Point",
                "coordinates": [
                    17.1067932,
                    48.149192
                ]
            },
            "properties": {
                "name": "Veda"
            }
        },
        {
            "type": "Feature",
            "geometry": {
                "type": "Point",
                "coordinates": [
                    19.1260171,
                    48.5747473
                ]
            },
            "properties": {
                "name": "Le\u0161t\u00e1chovo kn\u00edhkupectvo"
            }
        },
        {
            "type": "Feature",
            "geometry": {
                "type": "Point",
                "coordinates": [
                    17.1053296,
                    48.1454802
                ]
            },
            "properties": {
                "name": "Kn\u00edhkupectvo U kapuc\u00ednov"
            }
        },
        {
            "type": "Feature",
            "geometry": {
                "type": "Point",
                "coordinates": [
                    17.1247664,
                    48.152202
                ]
            },
            "properties": {
                "name": "Antikvari\u00e1t Pri Justi\u010dnom pal\u00e1ci"
            }
        },
        {
            "type": "Feature",
            "geometry": {
                "type": "Point",
                "coordinates": [
                    17.111691,
                    48.1428768
                ]
            },
            "properties": {
                "name": "Eurobooks"
            }
        },
        {
            "type": "Feature",
            "geometry": {
                "type": "Point",
                "coordinates": [
                    17.1008445,
                    48.121936
                ]
            },
            "properties": {
                "name": "OXICO"
            }
        },
        {
            "type": "Feature",
            "geometry": {
                "type": "Point",
                "coordinates": [
                    20.9372418,
                    48.8534487
                ]
            }
        },
        {
            "type": "Feature",
            "geometry": {
                "type": "Point",
                "coordinates": [
                    17.8340433,
                    48.5896762
                ]
            },
            "properties": {
                "name": "PN Kn\u00edhkupectvo"
            }
        },
        {
            "type": "Feature",
            "geometry": {
                "type": "Point",
                "coordinates": [
                    20.4293704,
                    49.1359879
                ]
            },
            "properties": {
                "name": "Alter Ego"
            }
        },
        {
            "type": "Feature",
            "geometry": {
                "type": "Point",
                "coordinates": [
                    17.586445,
                    48.3762143
                ]
            },
            "properties": {
                "name": "TK Libri"
            }
        },
        {
            "type": "Feature",
            "geometry": {
                "type": "Point",
                "coordinates": [
                    17.7271687,
                    48.6212851
                ]
            }
        },
        {
            "type": "Feature",
            "geometry": {
                "type": "Point",
                "coordinates": [
                    19.6150929,
                    49.0822179
                ]
            },
            "properties": {
                "name": "Tranoscius"
            }
        },
        {
            "type": "Feature",
            "geometry": {
                "type": "Point",
                "coordinates": [
                    17.1069286,
                    48.1333502
                ]
            },
            "properties": {
                "name": "Panta Rhei Creative"
            }
        },
        {
            "type": "Feature",
            "geometry": {
                "type": "Point",
                "coordinates": [
                    17.1394477,
                    48.1678409
                ]
            },
            "properties": {
                "name": "Panta Rhei"
            }
        },
        {
            "type": "Feature",
            "geometry": {
                "type": "Point",
                "coordinates": [
                    17.1800438,
                    48.1679049
                ]
            },
            "properties": {
                "name": "Panta Rhei"
            }
        },
        {
            "type": "Feature",
            "geometry": {
                "type": "Point",
                "coordinates": [
                    17.1780962,
                    48.1853023
                ]
            },
            "properties": {
                "name": "Panta Rhei"
            }
        },
        {
            "type": "Feature",
            "geometry": {
                "type": "Point",
                "coordinates": [
                    17.311324,
                    48.3361688
                ]
            }
        },
        {
            "type": "Feature",
            "geometry": {
                "type": "Point",
                "coordinates": [
                    19.6688592,
                    48.3275106
                ]
            },
            "properties": {
                "name": "Phoenix"
            }
        },
        {
            "type": "Feature",
            "geometry": {
                "type": "Point",
                "coordinates": [
                    19.1476626,
                    48.734953
                ]
            },
            "properties": {
                "name": "TK Libri"
            }
        },
        {
            "type": "Feature",
            "geometry": {
                "type": "Point",
                "coordinates": [
                    17.1123166,
                    48.1483511
                ]
            },
            "properties": {
                "name": "Knihy pre ka\u017ed\u00e9ho"
            }
        },
        {
            "type": "Feature",
            "geometry": {
                "type": "Point",
                "coordinates": [
                    17.1159084,
                    48.1442997
                ]
            },
            "properties": {
                "name": "Modul"
            }
        },
        {
            "type": "Feature",
            "geometry": {
                "type": "Point",
                "coordinates": [
                    17.6147044,
                    47.9955585
                ]
            },
            "properties": {
                "name": "Panta Rhei"
            }
        },
        {
            "type": "Feature",
            "geometry": {
                "type": "Point",
                "coordinates": [
                    18.3255732,
                    49.1213864
                ]
            }
        },
        {
            "type": "Feature",
            "geometry": {
                "type": "Point",
                "coordinates": [
                    21.2764262,
                    49.292654
                ]
            },
            "properties": {
                "name": "TK Libri"
            }
        },
        {
            "type": "Feature",
            "geometry": {
                "type": "Point",
                "coordinates": [
                    21.2757413,
                    49.291433
                ]
            }
        },
        {
            "type": "Feature",
            "geometry": {
                "type": "Point",
                "coordinates": [
                    21.2752651,
                    49.2917822
                ]
            },
            "properties": {
                "name": "Dobr\u00e1 kniha"
            }
        },
        {
            "type": "Feature",
            "geometry": {
                "type": "Point",
                "coordinates": [
                    17.1094248,
                    48.1402581
                ]
            },
            "properties": {
                "name": "Ex Libris"
            }
        },
        {
            "type": "Feature",
            "geometry": {
                "type": "Point",
                "coordinates": [
                    21.2384428,
                    48.715387
                ]
            },
            "properties": {
                "name": "Martinus"
            }
        },
        {
            "type": "Feature",
            "geometry": {
                "type": "Point",
                "coordinates": [
                    18.024039,
                    48.8629011
                ]
            },
            "properties": {
                "name": "Panta Rhei"
            }
        },
        {
            "type": "Feature",
            "geometry": {
                "type": "Point",
                "coordinates": [
                    17.6201862,
                    47.9953295
                ]
            },
            "properties": {
                "name": "Antikvari\u00e1t"
            }
        },
        {
            "type": "Feature",
            "geometry": {
                "type": "Point",
                "coordinates": [
                    19.6662626,
                    48.3318437
                ]
            },
            "properties": {
                "name": "Golem"
            }
        },
        {
            "type": "Feature",
            "geometry": {
                "type": "Point",
                "coordinates": [
                    17.0345894,
                    48.2056682
                ]
            },
            "properties": {
                "name": "Panta Rhei"
            }
        },
        {
            "type": "Feature",
            "geometry": {
                "type": "Point",
                "coordinates": [
                    19.3021798,
                    49.0822188
                ]
            },
            "properties": {
                "name": "Caritas"
            }
        },
        {
            "type": "Feature",
            "geometry": {
                "type": "Point",
                "coordinates": [
                    19.305006,
                    49.081668
                ]
            },
            "properties": {
                "name": "Panta Rhei"
            }
        },
        {
            "type": "Feature",
            "geometry": {
                "type": "Point",
                "coordinates": [
                    18.1742485,
                    48.5590255
                ]
            },
            "properties": {
                "name": "Kniha pod Radnicou"
            }
        },
        {
            "type": "Feature",
            "geometry": {
                "type": "Point",
                "coordinates": [
                    17.1117734,
                    48.1453248
                ]
            },
            "properties": {
                "name": "Knihy LIC"
            }
        },
        {
            "type": "Feature",
            "geometry": {
                "type": "Point",
                "coordinates": [
                    18.0377473,
                    48.8914709
                ]
            },
            "properties": {
                "name": "Knihkupectvo Panta Rhei"
            }
        },
        {
            "type": "Feature",
            "geometry": {
                "type": "Point",
                "coordinates": [
                    21.2881442,
                    48.7330318
                ]
            },
            "properties": {
                "name": "Andrea"
            }
        },
        {
            "type": "Feature",
            "geometry": {
                "type": "Point",
                "coordinates": [
                    17.1192838,
                    48.1519979
                ]
            },
            "properties": {
                "name": "Chooze"
            }
        },
        {
            "type": "Feature",
            "geometry": {
                "type": "Point",
                "coordinates": [
                    17.101638,
                    48.1119984
                ]
            },
            "properties": {
                "name": "eugenika"
            }
        },
        {
            "type": "Feature",
            "geometry": {
                "type": "Point",
                "coordinates": [
                    17.1255113,
                    48.1523061
                ]
            },
            "properties": {
                "name": "Olejar books"
            }
        },
        {
            "type": "Feature",
            "geometry": {
                "type": "Point",
                "coordinates": [
                    17.3588582,
                    48.2914933
                ]
            },
            "properties": {
                "name": "Dobr\u00e1 kniha u Silvii"
            }
        },
        {
            "type": "Feature",
            "geometry": {
                "type": "Point",
                "coordinates": [
                    19.3508343,
                    48.2079918
                ]
            },
            "properties": {
                "name": "Litera"
            }
        },
        {
            "type": "Feature",
            "geometry": {
                "type": "Point",
                "coordinates": [
                    19.3505112,
                    48.2085134
                ]
            }
        },
        {
            "type": "Feature",
            "geometry": {
                "type": "Point",
                "coordinates": [
                    17.1159201,
                    48.1445567
                ]
            },
            "properties": {
                "name": "Svoje\u0165"
            }
        },
        {
            "type": "Feature",
            "geometry": {
                "type": "Point",
                "coordinates": [
                    17.13426,
                    48.1554044
                ]
            },
            "properties": {
                "name": "Don Bosco"
            }
        },
        {
            "type": "Feature",
            "geometry": {
                "type": "Point",
                "coordinates": [
                    17.0943616,
                    48.1069251
                ]
            },
            "properties": {
                "name": "Knihy pre ka\u017ed\u00e9ho"
            }
        },
        {
            "type": "Feature",
            "geometry": {
                "type": "Point",
                "coordinates": [
                    17.1134787,
                    48.1578201
                ]
            },
            "properties": {
                "name": "Kn\u00edhkupectvo Vojtecha Zamarovsk\u00e9ho"
            }
        },
        {
            "type": "Feature",
            "geometry": {
                "type": "Point",
                "coordinates": [
                    18.6093023,
                    48.7801489
                ]
            },
            "properties": {
                "name": "Panta Rhei"
            }
        },
        {
            "type": "Feature",
            "geometry": {
                "type": "Point",
                "coordinates": [
                    19.641481,
                    48.8057541
                ]
            },
            "properties": {
                "name": "Kn\u00edhkupectvo Pohoda"
            }
        },
        {
            "type": "Feature",
            "geometry": {
                "type": "Point",
                "coordinates": [
                    19.6408894,
                    48.8067602
                ]
            },
            "properties": {
                "name": "Kn\u00edhkupectvo"
            }
        },
        {
            "type": "Feature",
            "geometry": {
                "type": "Point",
                "coordinates": [
                    18.7895369,
                    49.4393123
                ]
            },
            "properties": {
                "name": "Panta Rhei"
            }
        },
        {
            "type": "Feature",
            "geometry": {
                "type": "Point",
                "coordinates": [
                    17.1119123,
                    48.1429757
                ]
            }
        },
        {
            "type": "Feature",
            "geometry": {
                "type": "Point",
                "coordinates": [
                    18.7227148,
                    47.7984327
                ]
            }
        },
        {
            "type": "Feature",
            "geometry": {
                "type": "Point",
                "coordinates": [
                    17.1416218,
                    48.1947398
                ]
            },
            "properties": {
                "name": "Antikvari\u00e1t Olej\u00e1r Books (Young Scientist)"
            }
        },
        {
            "type": "Feature",
            "geometry": {
                "type": "Point",
                "coordinates": [
                    18.7403593,
                    49.2188809
                ]
            }
        },
        {
            "type": "Feature",
            "geometry": {
                "type": "Point",
                "coordinates": [
                    20.2971508,
                    49.0459159
                ]
            },
            "properties": {
                "name": "Aletea"
            }
        },
        {
            "type": "Feature",
            "geometry": {
                "type": "Point",
                "coordinates": [
                    21.2553157,
                    48.7262466
                ]
            },
            "properties": {
                "name": "Oxford Bookshop"
            }
        },
        {
            "type": "Feature",
            "geometry": {
                "type": "Point",
                "coordinates": [
                    18.7893211,
                    49.4381442
                ]
            },
            "properties": {
                "name": "Arcus"
            }
        },
        {
            "type": "Feature",
            "geometry": {
                "type": "Point",
                "coordinates": [
                    20.5870056,
                    49.0234467
                ]
            }
        },
        {
            "type": "Feature",
            "geometry": {
                "type": "Point",
                "coordinates": [
                    20.2981042,
                    49.0538913
                ]
            },
            "properties": {
                "name": "Martinus"
            }
        },
        {
            "type": "Feature",
            "geometry": {
                "type": "Point",
                "coordinates": [
                    18.1250415,
                    47.7580693
                ]
            },
            "properties": {
                "name": "Panta Rhei"
            }
        },
        {
            "type": "Feature",
            "geometry": {
                "type": "Point",
                "coordinates": [
                    18.4408556,
                    49.1186278
                ]
            },
            "properties": {
                "name": "Knihy u nas doma"
            }
        },
        {
            "type": "Feature",
            "geometry": {
                "type": "Point",
                "coordinates": [
                    18.4451677,
                    49.1157677
                ]
            },
            "properties": {
                "name": "Martinus.sk"
            }
        },
        {
            "type": "Feature",
            "geometry": {
                "type": "Point",
                "coordinates": [
                    20.2779144,
                    49.1648463
                ]
            },
            "properties": {
                "name": "Slovensk\u00e1 kniha"
            }
        },
        {
            "type": "Feature",
            "geometry": {
                "type": "Point",
                "coordinates": [
                    18.4463909,
                    49.1159712
                ]
            },
            "properties": {
                "name": "Knihy pre ka\u017ed\u00e9ho"
            }
        },
        {
            "type": "Feature",
            "geometry": {
                "type": "Point",
                "coordinates": [
                    17.1212824,
                    48.1526794
                ]
            },
            "properties": {
                "name": "Kn\u00edhkupectvo p\u00e1na Gregora"
            }
        },
        {
            "type": "Feature",
            "geometry": {
                "type": "Point",
                "coordinates": [
                    18.1643319,
                    47.9880566
                ]
            },
            "properties": {
                "name": "Libreria"
            }
        },
        {
            "type": "Feature",
            "geometry": {
                "type": "Point",
                "coordinates": [
                    19.3036517,
                    49.083109
                ]
            },
            "properties": {
                "name": "MCbooks"
            }
        },
        {
            "type": "Feature",
            "geometry": {
                "type": "Point",
                "coordinates": [
                    18.1647903,
                    47.9863569
                ]
            },
            "properties": {
                "name": "Panta Rhei"
            }
        },
        {
            "type": "Feature",
            "geometry": {
                "type": "Point",
                "coordinates": [
                    18.7119965,
                    49.2154883
                ]
            },
            "properties": {
                "name": "Kn\u00edhkupectvo Anna"
            }
        },
        {
            "type": "Feature",
            "geometry": {
                "type": "Point",
                "coordinates": [
                    18.3936869,
                    48.3839107
                ]
            },
            "properties": {
                "name": "MP"
            }
        },
        {
            "type": "Feature",
            "geometry": {
                "type": "Point",
                "coordinates": [
                    21.2376256,
                    48.695921
                ]
            },
            "properties": {
                "name": "Panta Rhei"
            }
        },
        {
            "type": "Feature",
            "geometry": {
                "type": "Point",
                "coordinates": [
                    17.1962012,
                    48.1417238
                ]
            },
            "properties": {
                "name": "Knihy pre ka\u017ed\u00e9ho - osobn\u00fd odber"
            }
        },
        {
            "type": "Feature",
            "geometry": {
                "type": "Point",
                "coordinates": [
                    17.1208929,
                    48.1510953
                ]
            },
            "properties": {
                "name": "Slovensk\u00e9 pedagogick\u00e9 nakladate\u013estvo - Mlad\u00e9 let\u00e1"
            }
        },
        {
            "type": "Feature",
            "geometry": {
                "type": "Point",
                "coordinates": [
                    21.2562566,
                    48.720439
                ]
            },
            "properties": {
                "name": "Zachej.sk"
            }
        },
        {
            "type": "Feature",
            "geometry": {
                "type": "Point",
                "coordinates": [
                    18.7402535,
                    49.2250781
                ]
            },
            "properties": {
                "name": "Mantinus"
            }
        },
        {
            "type": "Feature",
            "geometry": {
                "type": "Point",
                "coordinates": [
                    18.7450363,
                    49.1962946
                ]
            },
            "properties": {
                "name": "Panta Rhei"
            }
        },
        {
            "type": "Feature",
            "geometry": {
                "type": "Point",
                "coordinates": [
                    17.7683339,
                    47.8563978
                ]
            },
            "properties": {
                "name": "Panta Rhei"
            }
        },
        {
            "type": "Feature",
            "geometry": {
                "type": "Point",
                "coordinates": [
                    17.1113626,
                    48.1284875
                ]
            },
            "properties": {
                "name": "preskoly.sk"
            }
        },
        {
            "type": "Feature",
            "geometry": {
                "type": "Point",
                "coordinates": [
                    18.9192797,
                    49.0622041
                ]
            },
            "properties": {
                "name": "Martinus"
            }
        },
        {
            "type": "Feature",
            "geometry": {
                "type": "Point",
                "coordinates": [
                    17.1301776,
                    48.153132
                ]
            },
            "properties": {
                "name": "Antikvari\u00e1t"
            }
        },
        {
            "type": "Feature",
            "geometry": {
                "type": "Point",
                "coordinates": [
                    21.2516149,
                    48.6967305
                ]
            },
            "properties": {
                "name": "Knihy za gro\u0161"
            }
        }
    ],
    "crs": {
        "type": "name",
        "properties": {
            "name": "urn:ogc:def:crs:OGC:1.3:CRS84"
        }
    }
}