{
    "type": "FeatureCollection",
    "features": [
        {
            "type": "Feature",
            "geometry": {
                "type": "Point",
                "coordinates": [
                    26.0994774,
                    44.4429293
                ]
            },
            "properties": {
                "name": "C\u0103rture\u0219ti"
            }
        },
        {
            "type": "Feature",
            "geometry": {
                "type": "Point",
                "coordinates": [
                    27.5636511,
                    47.1628418
                ]
            }
        },
        {
            "type": "Feature",
            "geometry": {
                "type": "Point",
                "coordinates": [
                    27.5887915,
                    47.1526405
                ]
            },
            "properties": {
                "name": "Sedcom Libris"
            }
        },
        {
            "type": "Feature",
            "geometry": {
                "type": "Point",
                "coordinates": [
                    27.5849949,
                    47.1600974
                ]
            },
            "properties": {
                "name": "Casa C\u0103r\u021bii"
            }
        },
        {
            "type": "Feature",
            "geometry": {
                "type": "Point",
                "coordinates": [
                    28.0557681,
                    45.4353113
                ]
            },
            "properties": {
                "name": "Teora"
            }
        },
        {
            "type": "Feature",
            "geometry": {
                "type": "Point",
                "coordinates": [
                    21.3148502,
                    46.1717566
                ]
            },
            "properties": {
                "name": "Libr\u0103ria Corina"
            }
        },
        {
            "type": "Feature",
            "geometry": {
                "type": "Point",
                "coordinates": [
                    21.3173292,
                    46.174908
                ]
            },
            "properties": {
                "name": "Libr\u0103ria Ioan Slavici"
            }
        },
        {
            "type": "Feature",
            "geometry": {
                "type": "Point",
                "coordinates": [
                    26.020921,
                    44.9434738
                ]
            }
        },
        {
            "type": "Feature",
            "geometry": {
                "type": "Point",
                "coordinates": [
                    26.0960175,
                    44.4267003
                ]
            },
            "properties": {
                "name": "Libr\u0103ria Luceaf\u0103rul"
            }
        },
        {
            "type": "Feature",
            "geometry": {
                "type": "Point",
                "coordinates": [
                    22.9050422,
                    45.7566718
                ]
            },
            "properties": {
                "name": "Luceaf\u0103rul"
            }
        },
        {
            "type": "Feature",
            "geometry": {
                "type": "Point",
                "coordinates": [
                    21.2287856,
                    45.7571373
                ]
            },
            "properties": {
                "name": "C\u0103rture\u0219ti"
            }
        },
        {
            "type": "Feature",
            "geometry": {
                "type": "Point",
                "coordinates": [
                    21.2285996,
                    45.7667744
                ]
            },
            "properties": {
                "name": "C\u0103rture\u0219ti"
            }
        },
        {
            "type": "Feature",
            "geometry": {
                "type": "Point",
                "coordinates": [
                    26.1185224,
                    44.4617177
                ]
            }
        },
        {
            "type": "Feature",
            "geometry": {
                "type": "Point",
                "coordinates": [
                    26.1217325,
                    44.4827054
                ]
            },
            "properties": {
                "name": "INMEDIO Pipera"
            }
        },
        {
            "type": "Feature",
            "geometry": {
                "type": "Point",
                "coordinates": [
                    27.5864501,
                    47.1515778
                ]
            },
            "properties": {
                "name": "libr\u0103rie"
            }
        },
        {
            "type": "Feature",
            "geometry": {
                "type": "Point",
                "coordinates": [
                    27.5915325,
                    47.1475558
                ]
            },
            "properties": {
                "name": "Sedcom Libris (B Cotnari)"
            }
        },
        {
            "type": "Feature",
            "geometry": {
                "type": "Point",
                "coordinates": [
                    21.3146216,
                    46.1729823
                ]
            },
            "properties": {
                "name": "Tulipan"
            }
        },
        {
            "type": "Feature",
            "geometry": {
                "type": "Point",
                "coordinates": [
                    21.3146752,
                    46.1724956
                ]
            },
            "properties": {
                "name": "Virex"
            }
        },
        {
            "type": "Feature",
            "geometry": {
                "type": "Point",
                "coordinates": [
                    21.3138652,
                    46.1702036
                ]
            },
            "properties": {
                "name": "Codex Com"
            }
        },
        {
            "type": "Feature",
            "geometry": {
                "type": "Point",
                "coordinates": [
                    26.6641875,
                    47.7446723
                ]
            },
            "properties": {
                "name": "Libr\u0103ria Luceaf\u0103rul"
            }
        },
        {
            "type": "Feature",
            "geometry": {
                "type": "Point",
                "coordinates": [
                    25.5893859,
                    45.643829
                ]
            },
            "properties": {
                "name": "Libr\u0103ria \u0218t. O. Iosif"
            }
        },
        {
            "type": "Feature",
            "geometry": {
                "type": "Point",
                "coordinates": [
                    25.5893674,
                    45.6437885
                ]
            },
            "properties": {
                "name": "Libr\u0103ria Ralu"
            }
        },
        {
            "type": "Feature",
            "geometry": {
                "type": "Point",
                "coordinates": [
                    27.5797253,
                    47.1652059
                ]
            },
            "properties": {
                "name": "Junimea"
            }
        },
        {
            "type": "Feature",
            "geometry": {
                "type": "Point",
                "coordinates": [
                    28.0110869,
                    45.4134458
                ]
            },
            "properties": {
                "name": "Libr\u0103ria KM"
            }
        },
        {
            "type": "Feature",
            "geometry": {
                "type": "Point",
                "coordinates": [
                    28.0132574,
                    45.4132651
                ]
            },
            "properties": {
                "name": "Libr\u0103ria T7"
            }
        },
        {
            "type": "Feature",
            "geometry": {
                "type": "Point",
                "coordinates": [
                    26.1644989,
                    44.4126676
                ]
            }
        },
        {
            "type": "Feature",
            "geometry": {
                "type": "Point",
                "coordinates": [
                    24.1501642,
                    45.7943643
                ]
            },
            "properties": {
                "name": "Humanitas"
            }
        },
        {
            "type": "Feature",
            "geometry": {
                "type": "Point",
                "coordinates": [
                    26.0992962,
                    44.4350959
                ]
            },
            "properties": {
                "name": "Libr\u0103ria \"Mihai Eminescu\""
            }
        },
        {
            "type": "Feature",
            "geometry": {
                "type": "Point",
                "coordinates": [
                    28.5733934,
                    43.7531824
                ]
            },
            "properties": {
                "name": "Editura Humanitas"
            }
        },
        {
            "type": "Feature",
            "geometry": {
                "type": "Point",
                "coordinates": [
                    27.5856087,
                    47.1664549
                ]
            },
            "properties": {
                "name": "Esculap"
            }
        },
        {
            "type": "Feature",
            "geometry": {
                "type": "Point",
                "coordinates": [
                    24.8711387,
                    44.8581067
                ]
            },
            "properties": {
                "name": "Libr\u0103ria Eminescu"
            }
        },
        {
            "type": "Feature",
            "geometry": {
                "type": "Point",
                "coordinates": [
                    22.9009809,
                    45.881183
                ]
            },
            "properties": {
                "name": "Teora"
            }
        },
        {
            "type": "Feature",
            "geometry": {
                "type": "Point",
                "coordinates": [
                    26.166485,
                    44.4250937
                ]
            },
            "properties": {
                "name": "Libr\u0103ria CLB nr. 87"
            }
        },
        {
            "type": "Feature",
            "geometry": {
                "type": "Point",
                "coordinates": [
                    26.05078,
                    44.4715934
                ]
            },
            "properties": {
                "name": "Libr\u0103rie"
            }
        },
        {
            "type": "Feature",
            "geometry": {
                "type": "Point",
                "coordinates": [
                    27.6041843,
                    47.1560593
                ]
            },
            "properties": {
                "name": "Libr\u0103ria Student"
            }
        },
        {
            "type": "Feature",
            "geometry": {
                "type": "Point",
                "coordinates": [
                    28.0553039,
                    45.4366739
                ]
            },
            "properties": {
                "name": "Humanitas"
            }
        },
        {
            "type": "Feature",
            "geometry": {
                "type": "Point",
                "coordinates": [
                    23.592743,
                    46.7716541
                ]
            },
            "properties": {
                "name": "Diverta"
            }
        },
        {
            "type": "Feature",
            "geometry": {
                "type": "Point",
                "coordinates": [
                    21.2299151,
                    45.758412
                ]
            },
            "properties": {
                "name": "Deutsche Buchhandlung Am Dom"
            }
        },
        {
            "type": "Feature",
            "geometry": {
                "type": "Point",
                "coordinates": [
                    24.1461639,
                    45.7941252
                ]
            },
            "properties": {
                "name": "B\u00fcchercafe ERASMUS"
            }
        },
        {
            "type": "Feature",
            "geometry": {
                "type": "Point",
                "coordinates": [
                    24.151869,
                    45.7960471
                ]
            },
            "properties": {
                "name": "Schiller-Buchhandlung"
            }
        },
        {
            "type": "Feature",
            "geometry": {
                "type": "Point",
                "coordinates": [
                    24.3504911,
                    46.1652502
                ]
            },
            "properties": {
                "name": "Kastell-Buchhandlung"
            }
        },
        {
            "type": "Feature",
            "geometry": {
                "type": "Point",
                "coordinates": [
                    24.5215863,
                    46.1355641
                ]
            },
            "properties": {
                "name": "Buchhandlung Sachsenbischof"
            }
        },
        {
            "type": "Feature",
            "geometry": {
                "type": "Point",
                "coordinates": [
                    23.5908972,
                    46.7702844
                ]
            },
            "properties": {
                "name": "Libr\u0103ria de Art\u0103 Gaudeamus"
            }
        },
        {
            "type": "Feature",
            "geometry": {
                "type": "Point",
                "coordinates": [
                    26.0944351,
                    44.4425103
                ]
            },
            "properties": {
                "name": "Libr\u0103ria din fundul Cur\u021bii - Humanitas"
            }
        },
        {
            "type": "Feature",
            "geometry": {
                "type": "Point",
                "coordinates": [
                    24.8654706,
                    44.8619934
                ]
            },
            "properties": {
                "name": "Sediul central al ziarului \"Curierul\""
            }
        },
        {
            "type": "Feature",
            "geometry": {
                "type": "Point",
                "coordinates": [
                    25.5491131,
                    45.3488401
                ]
            },
            "properties": {
                "name": "Libr\u0103ria Humanitas"
            }
        },
        {
            "type": "Feature",
            "geometry": {
                "type": "Point",
                "coordinates": [
                    27.1842936,
                    45.6991637
                ]
            }
        },
        {
            "type": "Feature",
            "geometry": {
                "type": "Point",
                "coordinates": [
                    27.5840004,
                    47.1607051
                ]
            },
            "properties": {
                "name": "M Sadoveanu"
            }
        },
        {
            "type": "Feature",
            "geometry": {
                "type": "Point",
                "coordinates": [
                    27.5805004,
                    47.1646422
                ]
            },
            "properties": {
                "name": "Adev\u0103rul"
            }
        },
        {
            "type": "Feature",
            "geometry": {
                "type": "Point",
                "coordinates": [
                    23.5850245,
                    46.7706878
                ]
            },
            "properties": {
                "name": "Libr\u0103ria UTC-N"
            }
        },
        {
            "type": "Feature",
            "geometry": {
                "type": "Point",
                "coordinates": [
                    23.5867211,
                    46.7697111
                ]
            },
            "properties": {
                "name": "Papetarie"
            }
        },
        {
            "type": "Feature",
            "geometry": {
                "type": "Point",
                "coordinates": [
                    25.5886329,
                    45.6429507
                ]
            },
            "properties": {
                "name": "Okian"
            }
        },
        {
            "type": "Feature",
            "geometry": {
                "type": "Point",
                "coordinates": [
                    26.1324278,
                    44.4614163
                ]
            },
            "properties": {
                "name": "CLB"
            }
        },
        {
            "type": "Feature",
            "geometry": {
                "type": "Point",
                "coordinates": [
                    26.1027017,
                    44.4343623
                ]
            }
        },
        {
            "type": "Feature",
            "geometry": {
                "type": "Point",
                "coordinates": [
                    26.1015515,
                    44.4361167
                ]
            }
        },
        {
            "type": "Feature",
            "geometry": {
                "type": "Point",
                "coordinates": [
                    26.0980622,
                    44.4545985
                ]
            },
            "properties": {
                "name": "Librarul Dulimex"
            }
        },
        {
            "type": "Feature",
            "geometry": {
                "type": "Point",
                "coordinates": [
                    26.0956554,
                    44.4584122
                ]
            },
            "properties": {
                "name": "Libr\u0103ria CLB"
            }
        },
        {
            "type": "Feature",
            "geometry": {
                "type": "Point",
                "coordinates": [
                    27.5888902,
                    47.1563714
                ]
            },
            "properties": {
                "name": "Librarium"
            }
        },
        {
            "type": "Feature",
            "geometry": {
                "type": "Point",
                "coordinates": [
                    25.592461,
                    45.6433715
                ]
            },
            "properties": {
                "name": "George Co\u0219buc"
            }
        },
        {
            "type": "Feature",
            "geometry": {
                "type": "Point",
                "coordinates": [
                    27.6706762,
                    46.234186
                ]
            },
            "properties": {
                "name": "Libr\u0103rie"
            }
        },
        {
            "type": "Feature",
            "geometry": {
                "type": "Point",
                "coordinates": [
                    26.0900068,
                    44.4344637
                ]
            },
            "properties": {
                "name": "Librarul"
            }
        },
        {
            "type": "Feature",
            "geometry": {
                "type": "Point",
                "coordinates": [
                    26.0997193,
                    44.4344852
                ]
            },
            "properties": {
                "name": "Anticariat \"Antic Exlibris\""
            }
        },
        {
            "type": "Feature",
            "geometry": {
                "type": "Point",
                "coordinates": [
                    26.1027689,
                    44.433792
                ]
            },
            "properties": {
                "name": "Anticariat"
            }
        },
        {
            "type": "Feature",
            "geometry": {
                "type": "Point",
                "coordinates": [
                    28.0212733,
                    45.4153021
                ]
            }
        },
        {
            "type": "Feature",
            "geometry": {
                "type": "Point",
                "coordinates": [
                    25.6109957,
                    45.6364267
                ]
            }
        },
        {
            "type": "Feature",
            "geometry": {
                "type": "Point",
                "coordinates": [
                    26.3007517,
                    47.4581465
                ]
            }
        },
        {
            "type": "Feature",
            "geometry": {
                "type": "Point",
                "coordinates": [
                    22.3497469,
                    46.6676159
                ]
            },
            "properties": {
                "name": "Libr\u0103rie"
            }
        },
        {
            "type": "Feature",
            "geometry": {
                "type": "Point",
                "coordinates": [
                    26.1270864,
                    44.4602364
                ]
            }
        },
        {
            "type": "Feature",
            "geometry": {
                "type": "Point",
                "coordinates": [
                    26.102065,
                    44.425448
                ]
            },
            "properties": {
                "name": "Libr\u0103ria Sophia"
            }
        },
        {
            "type": "Feature",
            "geometry": {
                "type": "Point",
                "coordinates": [
                    23.5886539,
                    46.7680276
                ]
            },
            "properties": {
                "name": "Libr\u0103ria Universit\u0103\u021bii"
            }
        },
        {
            "type": "Feature",
            "geometry": {
                "type": "Point",
                "coordinates": [
                    26.1794815,
                    44.420883
                ]
            },
            "properties": {
                "name": "Humanitas"
            }
        },
        {
            "type": "Feature",
            "geometry": {
                "type": "Point",
                "coordinates": [
                    27.32177,
                    44.2032458
                ]
            }
        },
        {
            "type": "Feature",
            "geometry": {
                "type": "Point",
                "coordinates": [
                    26.1222265,
                    44.3953602
                ]
            },
            "properties": {
                "name": "Diverta"
            }
        },
        {
            "type": "Feature",
            "geometry": {
                "type": "Point",
                "coordinates": [
                    21.9476856,
                    47.0350134
                ]
            },
            "properties": {
                "name": "Diverta"
            }
        },
        {
            "type": "Feature",
            "geometry": {
                "type": "Point",
                "coordinates": [
                    28.5737015,
                    43.8075753
                ]
            },
            "properties": {
                "name": "Mircea Eliade"
            }
        },
        {
            "type": "Feature",
            "geometry": {
                "type": "Point",
                "coordinates": [
                    28.5835397,
                    43.8120923
                ]
            }
        },
        {
            "type": "Feature",
            "geometry": {
                "type": "Point",
                "coordinates": [
                    23.5899533,
                    46.7686415
                ]
            },
            "properties": {
                "name": "Librarium"
            }
        },
        {
            "type": "Feature",
            "geometry": {
                "type": "Point",
                "coordinates": [
                    23.5934157,
                    46.7718369
                ]
            },
            "properties": {
                "name": "Anticariat Academic"
            }
        },
        {
            "type": "Feature",
            "geometry": {
                "type": "Point",
                "coordinates": [
                    23.5919827,
                    46.7692954
                ]
            },
            "properties": {
                "name": "Bookstore"
            }
        },
        {
            "type": "Feature",
            "geometry": {
                "type": "Point",
                "coordinates": [
                    24.3629766,
                    45.1079842
                ]
            },
            "properties": {
                "name": "Libr\u0103ria Humanitas"
            }
        },
        {
            "type": "Feature",
            "geometry": {
                "type": "Point",
                "coordinates": [
                    26.0952178,
                    44.4348378
                ]
            },
            "properties": {
                "name": "Libr\u0103ria Humanitas"
            }
        },
        {
            "type": "Feature",
            "geometry": {
                "type": "Point",
                "coordinates": [
                    26.0813913,
                    44.45893
                ]
            },
            "properties": {
                "name": "Libr\u0103ria Nautilus English Books"
            }
        },
        {
            "type": "Feature",
            "geometry": {
                "type": "Point",
                "coordinates": [
                    23.5972627,
                    46.7715895
                ]
            },
            "properties": {
                "name": "Libr\u0103rie Cre\u0219tin\u0103 Ortodox\u0103"
            }
        },
        {
            "type": "Feature",
            "geometry": {
                "type": "Point",
                "coordinates": [
                    26.0982436,
                    44.4468155
                ]
            },
            "properties": {
                "name": "Libr\u0103rie Editura AGIR"
            }
        },
        {
            "type": "Feature",
            "geometry": {
                "type": "Point",
                "coordinates": [
                    26.0964313,
                    44.4474064
                ]
            },
            "properties": {
                "name": "Libr\u0103ria Bastilia"
            }
        },
        {
            "type": "Feature",
            "geometry": {
                "type": "Point",
                "coordinates": [
                    26.1032996,
                    44.4773996
                ]
            },
            "properties": {
                "name": "C\u0103rture\u0219ti Promenada"
            }
        },
        {
            "type": "Feature",
            "geometry": {
                "type": "Point",
                "coordinates": [
                    26.099341,
                    44.4353521
                ]
            },
            "properties": {
                "name": "Libr\u0103ria CLB"
            }
        },
        {
            "type": "Feature",
            "geometry": {
                "type": "Point",
                "coordinates": [
                    27.5779953,
                    47.1684791
                ]
            },
            "properties": {
                "name": "Galeriile Anticariat Grum\u0103zescu"
            }
        },
        {
            "type": "Feature",
            "geometry": {
                "type": "Point",
                "coordinates": [
                    26.0991874,
                    44.4356358
                ]
            },
            "properties": {
                "name": "C\u0103rture\u0219ti"
            }
        },
        {
            "type": "Feature",
            "geometry": {
                "type": "Point",
                "coordinates": [
                    23.5927991,
                    46.7699348
                ]
            },
            "properties": {
                "name": "Librarium book corner"
            }
        },
        {
            "type": "Feature",
            "geometry": {
                "type": "Point",
                "coordinates": [
                    23.5856885,
                    46.7711552
                ]
            },
            "properties": {
                "name": "Libr\u0103ria Kerigma"
            }
        },
        {
            "type": "Feature",
            "geometry": {
                "type": "Point",
                "coordinates": [
                    23.5960177,
                    46.7729298
                ]
            },
            "properties": {
                "name": "Kolozsv\u00e1ri Lapoz\u00f3"
            }
        },
        {
            "type": "Feature",
            "geometry": {
                "type": "Point",
                "coordinates": [
                    26.0967508,
                    44.4379558
                ]
            },
            "properties": {
                "name": "Libr\u0103ria Humanitas"
            }
        },
        {
            "type": "Feature",
            "geometry": {
                "type": "Point",
                "coordinates": [
                    26.0963887,
                    44.4379002
                ]
            },
            "properties": {
                "name": "Anthony Frost English Bookshop"
            }
        },
        {
            "type": "Feature",
            "geometry": {
                "type": "Point",
                "coordinates": [
                    23.587437,
                    46.7796367
                ]
            },
            "properties": {
                "name": "Libr\u0103ria Petros"
            }
        },
        {
            "type": "Feature",
            "geometry": {
                "type": "Point",
                "coordinates": [
                    26.0993335,
                    44.4431429
                ]
            },
            "properties": {
                "name": "Libr\u0103ria Adev\u0103rul"
            }
        },
        {
            "type": "Feature",
            "geometry": {
                "type": "Point",
                "coordinates": [
                    23.7926038,
                    44.318603
                ]
            },
            "properties": {
                "name": "Libr\u0103ria \u0218colii"
            }
        },
        {
            "type": "Feature",
            "geometry": {
                "type": "Point",
                "coordinates": [
                    26.4641404,
                    44.2346003
                ]
            }
        },
        {
            "type": "Feature",
            "geometry": {
                "type": "Point",
                "coordinates": [
                    23.8072349,
                    44.3191935
                ]
            },
            "properties": {
                "name": "Lumina"
            }
        },
        {
            "type": "Feature",
            "geometry": {
                "type": "Point",
                "coordinates": [
                    26.1016075,
                    44.4319142
                ]
            },
            "properties": {
                "name": "C\u0103rture\u0219ti carusel"
            }
        },
        {
            "type": "Feature",
            "geometry": {
                "type": "Point",
                "coordinates": [
                    21.9214579,
                    47.0568665
                ]
            },
            "properties": {
                "name": "Libr\u0103ria Scriptum"
            }
        },
        {
            "type": "Feature",
            "geometry": {
                "type": "Point",
                "coordinates": [
                    23.5891084,
                    46.7692104
                ]
            },
            "properties": {
                "name": "Anticariat carti"
            }
        },
        {
            "type": "Feature",
            "geometry": {
                "type": "Point",
                "coordinates": [
                    23.5877846,
                    46.770801
                ]
            },
            "properties": {
                "name": "Anticariat R\u00f6ser"
            }
        },
        {
            "type": "Feature",
            "geometry": {
                "type": "Point",
                "coordinates": [
                    26.8196806,
                    45.1520486
                ]
            },
            "properties": {
                "name": "Libr\u0103ria Dany Cris"
            }
        },
        {
            "type": "Feature",
            "geometry": {
                "type": "Point",
                "coordinates": [
                    26.090936,
                    44.442229
                ]
            },
            "properties": {
                "name": "Libr\u0103ria Sf. Iosif"
            }
        },
        {
            "type": "Feature",
            "geometry": {
                "type": "Point",
                "coordinates": [
                    26.3602878,
                    46.9328253
                ]
            },
            "properties": {
                "name": "Libr\u0103ria Angora"
            }
        },
        {
            "type": "Feature",
            "geometry": {
                "type": "Point",
                "coordinates": [
                    26.3642223,
                    46.9303161
                ]
            },
            "properties": {
                "name": "Libr\u0103ria Miori\u021ba"
            }
        },
        {
            "type": "Feature",
            "geometry": {
                "type": "Point",
                "coordinates": [
                    26.0975677,
                    44.4448195
                ]
            },
            "properties": {
                "name": "Libr\u0103ria Papirus"
            }
        },
        {
            "type": "Feature",
            "geometry": {
                "type": "Point",
                "coordinates": [
                    26.8124638,
                    45.1575182
                ]
            },
            "properties": {
                "name": "Libraria Cris Constant"
            }
        },
        {
            "type": "Feature",
            "geometry": {
                "type": "Point",
                "coordinates": [
                    25.5881406,
                    45.641976
                ]
            },
            "properties": {
                "name": "C\u0103rture\u0219ti"
            }
        },
        {
            "type": "Feature",
            "geometry": {
                "type": "Point",
                "coordinates": [
                    25.588897,
                    45.6414978
                ]
            },
            "properties": {
                "name": "Humanitas"
            }
        },
        {
            "type": "Feature",
            "geometry": {
                "type": "Point",
                "coordinates": [
                    26.0980904,
                    44.4531583
                ]
            },
            "properties": {
                "name": "Libr\u0103ria CLB"
            }
        },
        {
            "type": "Feature",
            "geometry": {
                "type": "Point",
                "coordinates": [
                    23.5899686,
                    46.7679337
                ]
            },
            "properties": {
                "name": "Libr\u0103ria Humanitas"
            }
        },
        {
            "type": "Feature",
            "geometry": {
                "type": "Point",
                "coordinates": [
                    25.3070929,
                    46.3102609
                ]
            }
        },
        {
            "type": "Feature",
            "geometry": {
                "type": "Point",
                "coordinates": [
                    28.6490847,
                    44.2031416
                ]
            }
        },
        {
            "type": "Feature",
            "geometry": {
                "type": "Point",
                "coordinates": [
                    26.1451785,
                    44.4178388
                ]
            },
            "properties": {
                "name": "Libr\u0103ria CLB"
            }
        },
        {
            "type": "Feature",
            "geometry": {
                "type": "Point",
                "coordinates": [
                    26.1028795,
                    44.4338403
                ]
            },
            "properties": {
                "name": "T\u00e2rgul C\u0103r\u021bii"
            }
        },
        {
            "type": "Feature",
            "geometry": {
                "type": "Point",
                "coordinates": [
                    26.8132999,
                    45.1473352
                ]
            },
            "properties": {
                "name": "Libr\u0103ria Dany Cris"
            }
        },
        {
            "type": "Feature",
            "geometry": {
                "type": "Point",
                "coordinates": [
                    26.8144064,
                    45.1478445
                ]
            },
            "properties": {
                "name": "Libr\u0103ria I.L.Caragiale"
            }
        },
        {
            "type": "Feature",
            "geometry": {
                "type": "Point",
                "coordinates": [
                    26.8250829,
                    45.149112
                ]
            },
            "properties": {
                "name": "Libraria Gabriela"
            }
        },
        {
            "type": "Feature",
            "geometry": {
                "type": "Point",
                "coordinates": [
                    23.5760863,
                    46.7600866
                ]
            },
            "properties": {
                "name": "Editura Koin\u00f3nia"
            }
        },
        {
            "type": "Feature",
            "geometry": {
                "type": "Point",
                "coordinates": [
                    23.586503,
                    46.7686323
                ]
            },
            "properties": {
                "name": "Libraria Alpha3"
            }
        },
        {
            "type": "Feature",
            "geometry": {
                "type": "Point",
                "coordinates": [
                    23.5863809,
                    46.7687903
                ]
            },
            "properties": {
                "name": "Libraria Grace's Home"
            }
        },
        {
            "type": "Feature",
            "geometry": {
                "type": "Point",
                "coordinates": [
                    22.5843894,
                    47.4785089
                ]
            }
        },
        {
            "type": "Feature",
            "geometry": {
                "type": "Point",
                "coordinates": [
                    21.309751,
                    46.1754231
                ]
            },
            "properties": {
                "name": "Asociatia Strigatul de la Miezul Noptii"
            }
        },
        {
            "type": "Feature",
            "geometry": {
                "type": "Point",
                "coordinates": [
                    26.0889252,
                    44.4352827
                ]
            },
            "properties": {
                "name": "Tritonic"
            }
        },
        {
            "type": "Feature",
            "geometry": {
                "type": "Point",
                "coordinates": [
                    23.6150795,
                    46.7921711
                ]
            },
            "properties": {
                "name": "Geladi SRL "
            }
        },
        {
            "type": "Feature",
            "geometry": {
                "type": "Point",
                "coordinates": [
                    25.7989399,
                    46.3619026
                ]
            },
            "properties": {
                "name": "Libr\u0103ria \u0219i Anticariatul Corvina"
            }
        },
        {
            "type": "Feature",
            "geometry": {
                "type": "Point",
                "coordinates": [
                    21.8953415,
                    45.2908256
                ]
            },
            "properties": {
                "name": "Semn de Carte"
            }
        },
        {
            "type": "Feature",
            "geometry": {
                "type": "Point",
                "coordinates": [
                    26.1232043,
                    44.4473681
                ]
            },
            "properties": {
                "name": "Libr\u0103ria CLB"
            }
        },
        {
            "type": "Feature",
            "geometry": {
                "type": "Point",
                "coordinates": [
                    28.7946071,
                    45.1797144
                ]
            },
            "properties": {
                "name": "Libraria Ion Creang\u0103"
            }
        },
        {
            "type": "Feature",
            "geometry": {
                "type": "Point",
                "coordinates": [
                    21.2286783,
                    45.766107
                ]
            },
            "properties": {
                "name": "Diverta"
            }
        },
        {
            "type": "Feature",
            "geometry": {
                "type": "Point",
                "coordinates": [
                    25.295352,
                    46.3032085
                ]
            },
            "properties": {
                "name": "Bagolyv\u00e1r"
            }
        },
        {
            "type": "Feature",
            "geometry": {
                "type": "Point",
                "coordinates": [
                    25.2962865,
                    46.3035316
                ]
            }
        },
        {
            "type": "Feature",
            "geometry": {
                "type": "Point",
                "coordinates": [
                    25.5884496,
                    45.6414937
                ]
            },
            "properties": {
                "name": "anticariat Aldus"
            }
        },
        {
            "type": "Feature",
            "geometry": {
                "type": "Point",
                "coordinates": [
                    23.3730362,
                    45.4170755
                ]
            },
            "properties": {
                "name": "Diverta"
            }
        },
        {
            "type": "Feature",
            "geometry": {
                "type": "Point",
                "coordinates": [
                    27.5781881,
                    47.1679185
                ]
            },
            "properties": {
                "name": "Anticariat"
            }
        },
        {
            "type": "Feature",
            "geometry": {
                "type": "Point",
                "coordinates": [
                    27.5784046,
                    47.1677912
                ]
            },
            "properties": {
                "name": "Anticariat"
            }
        },
        {
            "type": "Feature",
            "geometry": {
                "type": "Point",
                "coordinates": [
                    27.578123,
                    47.1680833
                ]
            },
            "properties": {
                "name": "Anticariat"
            }
        },
        {
            "type": "Feature",
            "geometry": {
                "type": "Point",
                "coordinates": [
                    27.578337,
                    47.168133
                ]
            },
            "properties": {
                "name": "Anticariat"
            }
        },
        {
            "type": "Feature",
            "geometry": {
                "type": "Point",
                "coordinates": [
                    21.2249993,
                    45.7530551
                ]
            },
            "properties": {
                "name": "Libr\u0103ria Eminescu"
            }
        },
        {
            "type": "Feature",
            "geometry": {
                "type": "Point",
                "coordinates": [
                    26.0961306,
                    44.42669
                ]
            },
            "properties": {
                "name": "Libr\u0103ria CLB"
            }
        },
        {
            "type": "Feature",
            "geometry": {
                "type": "Point",
                "coordinates": [
                    26.795116,
                    45.1531803
                ]
            },
            "properties": {
                "name": "Libr\u0103ria pe col\u021b"
            }
        },
        {
            "type": "Feature",
            "geometry": {
                "type": "Point",
                "coordinates": [
                    26.0929042,
                    44.4800899
                ]
            },
            "properties": {
                "name": "Libr\u0103ria 11 CLB"
            }
        },
        {
            "type": "Feature",
            "geometry": {
                "type": "Point",
                "coordinates": [
                    27.3552255,
                    44.564542
                ]
            }
        },
        {
            "type": "Feature",
            "geometry": {
                "type": "Point",
                "coordinates": [
                    23.9904116,
                    45.146135
                ]
            },
            "properties": {
                "name": "Libr\u0103rie"
            }
        },
        {
            "type": "Feature",
            "geometry": {
                "type": "Point",
                "coordinates": [
                    25.5994948,
                    46.7217937
                ]
            }
        },
        {
            "type": "Feature",
            "geometry": {
                "type": "Point",
                "coordinates": [
                    25.5918591,
                    46.7222751
                ]
            }
        },
        {
            "type": "Feature",
            "geometry": {
                "type": "Point",
                "coordinates": [
                    25.5984051,
                    46.7217689
                ]
            }
        },
        {
            "type": "Feature",
            "geometry": {
                "type": "Point",
                "coordinates": [
                    28.635832,
                    44.1779654
                ]
            }
        },
        {
            "type": "Feature",
            "geometry": {
                "type": "Point",
                "coordinates": [
                    21.9239823,
                    47.0564932
                ]
            },
            "properties": {
                "name": "Illy\u00e9s Gyula"
            }
        },
        {
            "type": "Feature",
            "geometry": {
                "type": "Point",
                "coordinates": [
                    26.1043035,
                    44.4777158
                ]
            }
        },
        {
            "type": "Feature",
            "geometry": {
                "type": "Point",
                "coordinates": [
                    23.5875839,
                    46.7708864
                ]
            },
            "properties": {
                "name": "Anticariat"
            }
        },
        {
            "type": "Feature",
            "geometry": {
                "type": "Point",
                "coordinates": [
                    28.6202941,
                    44.1467894
                ]
            },
            "properties": {
                "name": "Librarie"
            }
        },
        {
            "type": "Feature",
            "geometry": {
                "type": "Point",
                "coordinates": [
                    21.2299687,
                    45.758812
                ]
            },
            "properties": {
                "name": "La Dou\u0103 Bufni\u021be"
            }
        },
        {
            "type": "Feature",
            "geometry": {
                "type": "Point",
                "coordinates": [
                    21.2267604,
                    45.7551136
                ]
            },
            "properties": {
                "name": "Cartea de Nisip"
            }
        },
        {
            "type": "Feature",
            "geometry": {
                "type": "Point",
                "coordinates": [
                    21.2275879,
                    45.7544769
                ]
            },
            "properties": {
                "name": "Esotera"
            }
        },
        {
            "type": "Feature",
            "geometry": {
                "type": "Point",
                "coordinates": [
                    28.6490006,
                    44.1791755
                ]
            },
            "properties": {
                "name": "Pr\u0103v\u0103lia cu C\u0103r\u021bi"
            }
        },
        {
            "type": "Feature",
            "geometry": {
                "type": "Point",
                "coordinates": [
                    23.5929136,
                    46.7685373
                ]
            },
            "properties": {
                "name": "Anticariat Academic Cart"
            }
        },
        {
            "type": "Feature",
            "geometry": {
                "type": "Point",
                "coordinates": [
                    25.8057421,
                    46.3610657
                ]
            },
            "properties": {
                "name": "Gutenberg K\u00f6nyvesbolt"
            }
        },
        {
            "type": "Feature",
            "geometry": {
                "type": "Point",
                "coordinates": [
                    25.805364,
                    46.3596571
                ]
            },
            "properties": {
                "name": "Kele K\u00f6nyv V\u00e1r"
            }
        },
        {
            "type": "Feature",
            "geometry": {
                "type": "Point",
                "coordinates": [
                    26.3635099,
                    47.2041323
                ]
            },
            "properties": {
                "name": "Cartex"
            }
        },
        {
            "type": "Feature",
            "geometry": {
                "type": "Point",
                "coordinates": [
                    26.8143487,
                    45.1476813
                ]
            },
            "properties": {
                "name": "LIBR\u0102RIA I L CARAGIALE"
            }
        },
        {
            "type": "Feature",
            "geometry": {
                "type": "Point",
                "coordinates": [
                    24.1513945,
                    45.7972075
                ]
            },
            "properties": {
                "name": "Habitus Bookstore"
            }
        },
        {
            "type": "Feature",
            "geometry": {
                "type": "Point",
                "coordinates": [
                    26.8252278,
                    45.1489299
                ]
            },
            "properties": {
                "name": "COPY CENTER"
            }
        },
        {
            "type": "Feature",
            "geometry": {
                "type": "Point",
                "coordinates": [
                    23.7876762,
                    46.5717144
                ]
            },
            "properties": {
                "name": "Libraria religioas\u0103 Andrei \u0218aguna"
            }
        },
        {
            "type": "Feature",
            "geometry": {
                "type": "Point",
                "coordinates": [
                    26.0723359,
                    44.4513997
                ]
            },
            "properties": {
                "name": "Cartea-ta"
            }
        },
        {
            "type": "Feature",
            "geometry": {
                "type": "Point",
                "coordinates": [
                    26.1593775,
                    44.4250533
                ]
            }
        },
        {
            "type": "Feature",
            "geometry": {
                "type": "Point",
                "coordinates": [
                    27.7964264,
                    47.0946097
                ]
            },
            "properties": {
                "name": "Biblioteca Comunala Comarna-Osoi"
            }
        }
    ],
    "crs": {
        "type": "name",
        "properties": {
            "name": "urn:ogc:def:crs:OGC:1.3:CRS84"
        }
    }
}