{
    "type": "FeatureCollection",
    "features": [
        {
            "type": "Feature",
            "geometry": {
                "type": "Point",
                "coordinates": [
                    33.0626723,
                    34.7008381
                ]
            },
            "properties": {
                "name": "Kyriakou Bookshops"
            }
        },
        {
            "type": "Feature",
            "geometry": {
                "type": "Point",
                "coordinates": [
                    33.0530824,
                    34.6857176
                ]
            },
            "properties": {
                "name": "Kiriakou bookshop"
            }
        },
        {
            "type": "Feature",
            "geometry": {
                "type": "Point",
                "coordinates": [
                    33.3114046,
                    35.3344701
                ]
            },
            "properties": {
                "name": "Deniz Plaza"
            }
        },
        {
            "type": "Feature",
            "geometry": {
                "type": "Point",
                "coordinates": [
                    32.4311726,
                    34.7756022
                ]
            },
            "properties": {
                "name": "Moufflon Book Shop"
            }
        },
        {
            "type": "Feature",
            "geometry": {
                "type": "Point",
                "coordinates": [
                    33.962244,
                    35.0623459
                ]
            }
        },
        {
            "type": "Feature",
            "geometry": {
                "type": "Point",
                "coordinates": [
                    32.4255037,
                    35.0324645
                ]
            },
            "properties": {
                "name": "ThePencilBox"
            }
        },
        {
            "type": "Feature",
            "geometry": {
                "type": "Point",
                "coordinates": [
                    33.3557248,
                    35.319404
                ]
            },
            "properties": {
                "name": "Ozank\u00f6y Bookshop"
            }
        },
        {
            "type": "Feature",
            "geometry": {
                "type": "Point",
                "coordinates": [
                    33.3867178,
                    35.1829057
                ]
            },
            "properties": {
                "name": "NAN bookshop"
            }
        },
        {
            "type": "Feature",
            "geometry": {
                "type": "Point",
                "coordinates": [
                    33.3470991,
                    35.152468
                ]
            },
            "properties": {
                "name": "\u0391\u03b3\u03c1\u03cc\u03c4\u03b7\u03c2"
            }
        },
        {
            "type": "Feature",
            "geometry": {
                "type": "Point",
                "coordinates": [
                    33.0365578,
                    34.686711
                ]
            },
            "properties": {
                "name": "Morfosi"
            }
        },
        {
            "type": "Feature",
            "geometry": {
                "type": "Point",
                "coordinates": [
                    33.0428879,
                    34.6883744
                ]
            }
        },
        {
            "type": "Feature",
            "geometry": {
                "type": "Point",
                "coordinates": [
                    32.4219272,
                    34.7579543
                ]
            },
            "properties": {
                "name": "Stationery"
            }
        },
        {
            "type": "Feature",
            "geometry": {
                "type": "Point",
                "coordinates": [
                    33.3605445,
                    35.1774925
                ]
            }
        },
        {
            "type": "Feature",
            "geometry": {
                "type": "Point",
                "coordinates": [
                    32.4364381,
                    34.7693134
                ]
            },
            "properties": {
                "name": "Parga Book Center"
            }
        },
        {
            "type": "Feature",
            "geometry": {
                "type": "Point",
                "coordinates": [
                    33.3649473,
                    35.2106829
                ]
            },
            "properties": {
                "name": "Bozer"
            }
        },
        {
            "type": "Feature",
            "geometry": {
                "type": "Point",
                "coordinates": [
                    33.4039518,
                    35.0163476
                ]
            }
        },
        {
            "type": "Feature",
            "geometry": {
                "type": "Point",
                "coordinates": [
                    33.9233133,
                    35.0403858
                ]
            },
            "properties": {
                "name": "\u03c0\u03b1\u03b9\u03b4\u03b9\u03ba\u03ae \u03c6\u03c9\u03bb\u03b9\u03ac"
            }
        },
        {
            "type": "Feature",
            "geometry": {
                "type": "Point",
                "coordinates": [
                    33.9978573,
                    34.9913638
                ]
            }
        },
        {
            "type": "Feature",
            "geometry": {
                "type": "Point",
                "coordinates": [
                    33.3323992,
                    35.1969235
                ]
            }
        },
        {
            "type": "Feature",
            "geometry": {
                "type": "Point",
                "coordinates": [
                    33.3633137,
                    35.1695927
                ]
            }
        },
        {
            "type": "Feature",
            "geometry": {
                "type": "Point",
                "coordinates": [
                    33.3674229,
                    35.1617599
                ]
            }
        },
        {
            "type": "Feature",
            "geometry": {
                "type": "Point",
                "coordinates": [
                    33.6338918,
                    34.9156854
                ]
            }
        },
        {
            "type": "Feature",
            "geometry": {
                "type": "Point",
                "coordinates": [
                    32.4398412,
                    34.7827183
                ]
            }
        },
        {
            "type": "Feature",
            "geometry": {
                "type": "Point",
                "coordinates": [
                    33.6339654,
                    34.9156655
                ]
            },
            "properties": {
                "name": "Academic & General bookshop"
            }
        },
        {
            "type": "Feature",
            "geometry": {
                "type": "Point",
                "coordinates": [
                    33.6175221,
                    34.92845
                ]
            }
        },
        {
            "type": "Feature",
            "geometry": {
                "type": "Point",
                "coordinates": [
                    33.357514,
                    35.1802732
                ]
            },
            "properties": {
                "name": "Khora Kitsap Cafe"
            }
        },
        {
            "type": "Feature",
            "geometry": {
                "type": "Point",
                "coordinates": [
                    33.6270772,
                    34.9175433
                ]
            },
            "properties": {
                "name": "American Academy"
            }
        },
        {
            "type": "Feature",
            "geometry": {
                "type": "Point",
                "coordinates": [
                    33.6365383,
                    34.9146953
                ]
            },
            "properties": {
                "name": "Tofarides Books & Stationery"
            }
        },
        {
            "type": "Feature",
            "geometry": {
                "type": "Point",
                "coordinates": [
                    33.3495249,
                    35.1697958
                ]
            },
            "properties": {
                "name": "CLC Book Shop"
            }
        },
        {
            "type": "Feature",
            "geometry": {
                "type": "Point",
                "coordinates": [
                    33.3810851,
                    35.1075345
                ]
            },
            "properties": {
                "name": "F.C. First Class Knowledge"
            }
        },
        {
            "type": "Feature",
            "geometry": {
                "type": "Point",
                "coordinates": [
                    33.359214,
                    35.1670827
                ]
            },
            "properties": {
                "name": "\u0395\u039b\u039b\u0391\u03a3"
            }
        },
        {
            "type": "Feature",
            "geometry": {
                "type": "Point",
                "coordinates": [
                    33.3441368,
                    35.1604216
                ]
            },
            "properties": {
                "name": "Solonion Book Centre"
            }
        },
        {
            "type": "Feature",
            "geometry": {
                "type": "Point",
                "coordinates": [
                    33.6368269,
                    34.9158512
                ]
            },
            "properties": {
                "name": "\u0395\u03c3\u03c4\u03af\u03b1"
            }
        },
        {
            "type": "Feature",
            "geometry": {
                "type": "Point",
                "coordinates": [
                    33.3139499,
                    35.2106026
                ]
            }
        },
        {
            "type": "Feature",
            "geometry": {
                "type": "Point",
                "coordinates": [
                    33.3588367,
                    35.1876898
                ]
            },
            "properties": {
                "name": "Deniz Plaza"
            }
        },
        {
            "type": "Feature",
            "geometry": {
                "type": "Point",
                "coordinates": [
                    33.3579821,
                    35.1937894
                ]
            },
            "properties": {
                "name": "Uysal Kirtasiye"
            }
        }
    ],
    "crs": {
        "type": "name",
        "properties": {
            "name": "urn:ogc:def:crs:OGC:1.3:CRS84"
        }
    }
}