{
    "type": "FeatureCollection",
    "features": [
        {
            "type": "Feature",
            "geometry": {
                "type": "Point",
                "coordinates": [
                    13.6914247,
                    50.7178352
                ]
            },
            "properties": {
                "name": "Moldava v Kru\u0161n\u00fdch hor\u00e1ch"
            }
        },
        {
            "type": "Feature",
            "geometry": {
                "type": "Point",
                "coordinates": [
                    18.194367,
                    49.9009258
                ]
            },
            "properties": {
                "name": "Hlu\u010d\u00edn"
            }
        },
        {
            "type": "Feature",
            "geometry": {
                "type": "Point",
                "coordinates": [
                    18.433077,
                    49.8791314
                ]
            },
            "properties": {
                "name": "Orlov\u00e1, Lutyn\u011b, aut. n\u00e1dr."
            }
        },
        {
            "type": "Feature",
            "geometry": {
                "type": "Point",
                "coordinates": [
                    12.6964955,
                    49.9567599
                ]
            },
            "properties": {
                "name": "Mari\u00e1nsk\u00e9 L\u00e1zn\u011b"
            }
        },
        {
            "type": "Feature",
            "geometry": {
                "type": "Point",
                "coordinates": [
                    18.3511132,
                    49.6785107
                ]
            },
            "properties": {
                "name": "Fr\u00fddek-M\u00edstek, Fr\u00fddek,aut.n\u00e1dr."
            }
        },
        {
            "type": "Feature",
            "geometry": {
                "type": "Point",
                "coordinates": [
                    18.2247455,
                    49.5424094
                ]
            },
            "properties": {
                "name": "Fren\u0161t\u00e1t p. Radh.,,\u017eel.st."
            }
        },
        {
            "type": "Feature",
            "geometry": {
                "type": "Point",
                "coordinates": [
                    14.476282,
                    49.3021215
                ]
            },
            "properties": {
                "name": "Bechyn\u011b"
            }
        },
        {
            "type": "Feature",
            "geometry": {
                "type": "Point",
                "coordinates": [
                    15.4991583,
                    50.4701187
                ]
            }
        },
        {
            "type": "Feature",
            "geometry": {
                "type": "Point",
                "coordinates": [
                    15.4989674,
                    50.4701562
                ]
            }
        },
        {
            "type": "Feature",
            "geometry": {
                "type": "Point",
                "coordinates": [
                    18.447637,
                    49.7704891
                ]
            },
            "properties": {
                "name": "Autobusov\u00e9 n\u00e1dra\u017e\u00ed Hav\u00ed\u0159ov"
            }
        },
        {
            "type": "Feature",
            "geometry": {
                "type": "Point",
                "coordinates": [
                    17.2914095,
                    49.4269679
                ]
            },
            "properties": {
                "name": "Tova\u010dov, autobusov\u00e1 stanice"
            }
        },
        {
            "type": "Feature",
            "geometry": {
                "type": "Point",
                "coordinates": [
                    16.3607893,
                    49.2545591
                ]
            },
            "properties": {
                "name": "Jav\u016frek"
            }
        },
        {
            "type": "Feature",
            "geometry": {
                "type": "Point",
                "coordinates": [
                    14.6125946,
                    50.9096216
                ]
            }
        },
        {
            "type": "Feature",
            "geometry": {
                "type": "Point",
                "coordinates": [
                    17.1193263,
                    49.0553637
                ]
            },
            "properties": {
                "name": "Bohuslavice, \u017eel. st."
            }
        },
        {
            "type": "Feature",
            "geometry": {
                "type": "Point",
                "coordinates": [
                    18.2807778,
                    49.8303437
                ]
            },
            "properties": {
                "name": "Ostrava, \u00daAN"
            }
        },
        {
            "type": "Feature",
            "geometry": {
                "type": "Point",
                "coordinates": [
                    15.5825643,
                    50.4290836
                ]
            },
            "properties": {
                "name": "L\u00e1zn\u011b B\u011blohrad, n\u00e1m\u011bst\u00ed"
            }
        },
        {
            "type": "Feature",
            "geometry": {
                "type": "Point",
                "coordinates": [
                    16.4466776,
                    49.8970763
                ]
            },
            "properties": {
                "name": "\u010cesk\u00e1 T\u0159ebov\u00e1"
            }
        },
        {
            "type": "Feature",
            "geometry": {
                "type": "Point",
                "coordinates": [
                    15.7560881,
                    50.0317084
                ]
            },
            "properties": {
                "name": "Pardubice hlavn\u00ed n\u00e1dra\u017e\u00ed"
            }
        },
        {
            "type": "Feature",
            "geometry": {
                "type": "Point",
                "coordinates": [
                    14.436145,
                    50.0830349
                ]
            },
            "properties": {
                "name": "Praha hlavn\u00ed n\u00e1dra\u017e\u00ed"
            }
        },
        {
            "type": "Feature",
            "geometry": {
                "type": "Point",
                "coordinates": [
                    16.8932662,
                    48.7539713
                ]
            },
            "properties": {
                "name": "B\u0159eclav"
            }
        },
        {
            "type": "Feature",
            "geometry": {
                "type": "Point",
                "coordinates": [
                    16.6131116,
                    49.1911221
                ]
            },
            "properties": {
                "name": "Brno hlavn\u00ed n\u00e1dra\u017e\u00ed"
            }
        },
        {
            "type": "Feature",
            "geometry": {
                "type": "Point",
                "coordinates": [
                    16.6043952,
                    49.1269345
                ]
            },
            "properties": {
                "name": "Mod\u0159ice, smy\u010dka"
            }
        },
        {
            "type": "Feature",
            "geometry": {
                "type": "Point",
                "coordinates": [
                    13.192701,
                    50.3840966
                ]
            },
            "properties": {
                "name": "Pra\u017esk\u00e1 (MHD)"
            }
        },
        {
            "type": "Feature",
            "geometry": {
                "type": "Point",
                "coordinates": [
                    13.1998636,
                    50.3831287
                ]
            },
            "properties": {
                "name": "Porcel\u00e1nka"
            }
        },
        {
            "type": "Feature",
            "geometry": {
                "type": "Point",
                "coordinates": [
                    13.1728987,
                    50.385418
                ]
            },
            "properties": {
                "name": "Z\u00e1mek"
            }
        },
        {
            "type": "Feature",
            "geometry": {
                "type": "Point",
                "coordinates": [
                    13.1946039,
                    50.3835851
                ]
            },
            "properties": {
                "name": "Pra\u017esk\u00e1 (MHD)"
            }
        },
        {
            "type": "Feature",
            "geometry": {
                "type": "Point",
                "coordinates": [
                    13.1817419,
                    50.3879899
                ]
            },
            "properties": {
                "name": "Zdr. st\u0159edisko"
            }
        },
        {
            "type": "Feature",
            "geometry": {
                "type": "Point",
                "coordinates": [
                    13.1998997,
                    50.3830026
                ]
            },
            "properties": {
                "name": "Porcel\u00e1nka"
            }
        },
        {
            "type": "Feature",
            "geometry": {
                "type": "Point",
                "coordinates": [
                    13.1738135,
                    50.385302
                ]
            },
            "properties": {
                "name": "Z\u00e1mek"
            }
        },
        {
            "type": "Feature",
            "geometry": {
                "type": "Point",
                "coordinates": [
                    13.1817686,
                    50.3880797
                ]
            },
            "properties": {
                "name": "Zdravotn\u00ed st\u0159edisko"
            }
        },
        {
            "type": "Feature",
            "geometry": {
                "type": "Point",
                "coordinates": [
                    16.9297481,
                    49.7757089
                ]
            },
            "properties": {
                "name": "Autobusove n\u00e1dra\u017e\u00ed Mohelnice"
            }
        },
        {
            "type": "Feature",
            "geometry": {
                "type": "Point",
                "coordinates": [
                    15.7214777,
                    50.3125438
                ]
            },
            "properties": {
                "name": "Hn\u011bv\u010deves"
            }
        },
        {
            "type": "Feature",
            "geometry": {
                "type": "Point",
                "coordinates": [
                    15.0807816,
                    50.7435403
                ]
            },
            "properties": {
                "name": "Vesec u Liberce"
            }
        },
        {
            "type": "Feature",
            "geometry": {
                "type": "Point",
                "coordinates": [
                    17.9116466,
                    49.7144222
                ]
            },
            "properties": {
                "name": "Fulnek"
            }
        },
        {
            "type": "Feature",
            "geometry": {
                "type": "Point",
                "coordinates": [
                    15.1920554,
                    50.6339897
                ]
            },
            "properties": {
                "name": "Mala Skala"
            }
        },
        {
            "type": "Feature",
            "geometry": {
                "type": "Point",
                "coordinates": [
                    17.039906,
                    48.9044924
                ]
            },
            "properties": {
                "name": "Mut\u011bnice"
            }
        },
        {
            "type": "Feature",
            "geometry": {
                "type": "Point",
                "coordinates": [
                    14.256604,
                    48.6206407
                ]
            },
            "properties": {
                "name": "Lou\u010dovice"
            }
        },
        {
            "type": "Feature",
            "geometry": {
                "type": "Point",
                "coordinates": [
                    14.4316793,
                    48.6495664
                ]
            },
            "properties": {
                "name": "Rybn\u00edk"
            }
        },
        {
            "type": "Feature",
            "geometry": {
                "type": "Point",
                "coordinates": [
                    17.2842644,
                    49.9298251
                ]
            },
            "properties": {
                "name": "R\u00fdma\u0159ov"
            }
        },
        {
            "type": "Feature",
            "geometry": {
                "type": "Point",
                "coordinates": [
                    16.6471477,
                    49.3525292
                ]
            },
            "properties": {
                "name": "Blansko"
            }
        },
        {
            "type": "Feature",
            "geometry": {
                "type": "Point",
                "coordinates": [
                    14.695232,
                    49.7899368
                ]
            },
            "properties": {
                "name": "Bene\u0161ov, Spo\u0159ilov II - M\u0160"
            }
        },
        {
            "type": "Feature",
            "geometry": {
                "type": "Point",
                "coordinates": [
                    14.201296,
                    50.7734783
                ]
            },
            "properties": {
                "name": "D\u011b\u010d\u00edn hlavn\u00ed n\u00e1dra\u017e\u00ed"
            }
        },
        {
            "type": "Feature",
            "geometry": {
                "type": "Point",
                "coordinates": [
                    14.231739,
                    48.634445
                ]
            },
            "properties": {
                "name": "Lipno"
            }
        },
        {
            "type": "Feature",
            "geometry": {
                "type": "Point",
                "coordinates": [
                    16.4291829,
                    49.0850502
                ]
            },
            "properties": {
                "name": "Moravsk\u00e9 Br\u00e1nice"
            }
        },
        {
            "type": "Feature",
            "geometry": {
                "type": "Point",
                "coordinates": [
                    16.4939528,
                    48.825927
                ]
            },
            "properties": {
                "name": "Novosedly"
            }
        },
        {
            "type": "Feature",
            "geometry": {
                "type": "Point",
                "coordinates": [
                    16.2877289,
                    48.8234057
                ]
            },
            "properties": {
                "name": "Bo\u017eice u Znojma"
            }
        },
        {
            "type": "Feature",
            "geometry": {
                "type": "Point",
                "coordinates": [
                    16.1643285,
                    48.8413377
                ]
            },
            "properties": {
                "name": "Hodonice"
            }
        },
        {
            "type": "Feature",
            "geometry": {
                "type": "Point",
                "coordinates": [
                    16.8671284,
                    48.7377646
                ]
            },
            "properties": {
                "name": "Bo\u0159\u00ed les"
            }
        },
        {
            "type": "Feature",
            "geometry": {
                "type": "Point",
                "coordinates": [
                    15.8746353,
                    48.9845456
                ]
            },
            "properties": {
                "name": "Gre\u0161lov\u00e9 M\u00fdto"
            }
        },
        {
            "type": "Feature",
            "geometry": {
                "type": "Point",
                "coordinates": [
                    15.8740514,
                    48.9230771
                ]
            },
            "properties": {
                "name": "\u0160umn\u00e1"
            }
        },
        {
            "type": "Feature",
            "geometry": {
                "type": "Point",
                "coordinates": [
                    15.949133,
                    48.9033525
                ]
            },
            "properties": {
                "name": "Olbramkostel"
            }
        },
        {
            "type": "Feature",
            "geometry": {
                "type": "Point",
                "coordinates": [
                    16.418564,
                    49.347184
                ]
            },
            "properties": {
                "name": "Ti\u0161nov"
            }
        },
        {
            "type": "Feature",
            "geometry": {
                "type": "Point",
                "coordinates": [
                    16.6098504,
                    49.4797967
                ]
            },
            "properties": {
                "name": "Skalice nad Svitavou"
            }
        },
        {
            "type": "Feature",
            "geometry": {
                "type": "Point",
                "coordinates": [
                    16.3085586,
                    49.3654389
                ]
            },
            "properties": {
                "name": "\u0158ikon\u00edn"
            }
        },
        {
            "type": "Feature",
            "geometry": {
                "type": "Point",
                "coordinates": [
                    16.6051211,
                    48.9638139
                ]
            },
            "properties": {
                "name": "Vranovice"
            }
        },
        {
            "type": "Feature",
            "geometry": {
                "type": "Point",
                "coordinates": [
                    16.7813802,
                    48.8894007
                ]
            },
            "properties": {
                "name": "Zaje\u010d\u00ed"
            }
        },
        {
            "type": "Feature",
            "geometry": {
                "type": "Point",
                "coordinates": [
                    16.7065539,
                    48.9127865
                ]
            },
            "properties": {
                "name": "\u0160akvice"
            }
        },
        {
            "type": "Feature",
            "geometry": {
                "type": "Point",
                "coordinates": [
                    15.9394144,
                    49.5541842
                ]
            },
            "properties": {
                "name": "\u017d\u010f\u00e1r nad S\u00e1zavou"
            }
        },
        {
            "type": "Feature",
            "geometry": {
                "type": "Point",
                "coordinates": [
                    16.8537048,
                    48.8373126
                ]
            },
            "properties": {
                "name": "Podiv\u00edn"
            }
        },
        {
            "type": "Feature",
            "geometry": {
                "type": "Point",
                "coordinates": [
                    17.1987762,
                    48.8926737
                ]
            },
            "properties": {
                "name": "Rohatec"
            }
        },
        {
            "type": "Feature",
            "geometry": {
                "type": "Point",
                "coordinates": [
                    17.1223321,
                    48.8561564
                ]
            },
            "properties": {
                "name": "Hodon\u00edn"
            }
        },
        {
            "type": "Feature",
            "geometry": {
                "type": "Point",
                "coordinates": [
                    17.0219136,
                    48.7997435
                ]
            },
            "properties": {
                "name": "Moravsk\u00e1 Nov\u00e1 Ves"
            }
        },
        {
            "type": "Feature",
            "geometry": {
                "type": "Point",
                "coordinates": [
                    16.801813,
                    48.7942595
                ]
            },
            "properties": {
                "name": "Lednice"
            }
        },
        {
            "type": "Feature",
            "geometry": {
                "type": "Point",
                "coordinates": [
                    17.3143448,
                    48.9772972
                ]
            },
            "properties": {
                "name": "Moravsk\u00fd P\u00edsek"
            }
        },
        {
            "type": "Feature",
            "geometry": {
                "type": "Point",
                "coordinates": [
                    16.3380434,
                    49.0463841
                ]
            },
            "properties": {
                "name": "Moravsk\u00fd Krumlov"
            }
        },
        {
            "type": "Feature",
            "geometry": {
                "type": "Point",
                "coordinates": [
                    16.1481422,
                    49.2069671
                ]
            },
            "properties": {
                "name": "N\u00e1m\u011b\u0161\u0165 nad Oslavou"
            }
        },
        {
            "type": "Feature",
            "geometry": {
                "type": "Point",
                "coordinates": [
                    17.2631505,
                    48.9693005
                ]
            },
            "properties": {
                "name": "Bzenec"
            }
        },
        {
            "type": "Feature",
            "geometry": {
                "type": "Point",
                "coordinates": [
                    17.3821548,
                    48.9490308
                ]
            },
            "properties": {
                "name": "Vesel\u00ed nad Moravou"
            }
        },
        {
            "type": "Feature",
            "geometry": {
                "type": "Point",
                "coordinates": [
                    15.5881091,
                    49.5992109
                ]
            },
            "properties": {
                "name": "Havl\u00ed\u010dk\u016fv Brod"
            }
        },
        {
            "type": "Feature",
            "geometry": {
                "type": "Point",
                "coordinates": [
                    16.6277047,
                    49.4080888
                ]
            },
            "properties": {
                "name": "R\u00e1jec-Jest\u0159eb\u00ed"
            }
        },
        {
            "type": "Feature",
            "geometry": {
                "type": "Point",
                "coordinates": [
                    16.0803352,
                    49.5683858
                ]
            },
            "properties": {
                "name": "Nov\u00e9 M\u011bsto na Morav\u011b"
            }
        },
        {
            "type": "Feature",
            "geometry": {
                "type": "Point",
                "coordinates": [
                    18.2314571,
                    49.3514209
                ]
            },
            "properties": {
                "name": "Karolinka, rozc.Kobylsk\u00e1"
            }
        },
        {
            "type": "Feature",
            "geometry": {
                "type": "Point",
                "coordinates": [
                    18.2304784,
                    49.3514839
                ]
            },
            "properties": {
                "name": "Karolinka, rozc.Kobylsk\u00e1"
            }
        },
        {
            "type": "Feature",
            "geometry": {
                "type": "Point",
                "coordinates": [
                    12.9375703,
                    49.5243926
                ]
            },
            "properties": {
                "name": "Hor\u0161ovsk\u00fd t\u00fdn"
            }
        },
        {
            "type": "Feature",
            "geometry": {
                "type": "Point",
                "coordinates": [
                    12.8225331,
                    49.4389188
                ]
            },
            "properties": {
                "name": "Klen\u010d\u00ed pod \u010cerchovem"
            }
        },
        {
            "type": "Feature",
            "geometry": {
                "type": "Point",
                "coordinates": [
                    16.6734539,
                    49.2428185
                ]
            },
            "properties": {
                "name": "B\u00edlovice nad Svitavou"
            }
        },
        {
            "type": "Feature",
            "geometry": {
                "type": "Point",
                "coordinates": [
                    18.0225516,
                    49.1423727
                ]
            },
            "properties": {
                "name": "Vala\u0161sk\u00e9 Klobouky"
            }
        },
        {
            "type": "Feature",
            "geometry": {
                "type": "Point",
                "coordinates": [
                    13.3628559,
                    50.0467626
                ]
            },
            "properties": {
                "name": "\u017dihle"
            }
        },
        {
            "type": "Feature",
            "geometry": {
                "type": "Point",
                "coordinates": [
                    14.2085648,
                    50.7812858
                ]
            },
            "properties": {
                "name": "D\u011b\u010d\u00edn"
            }
        },
        {
            "type": "Feature",
            "geometry": {
                "type": "Point",
                "coordinates": [
                    17.0710479,
                    49.7014831
                ]
            },
            "properties": {
                "name": "Litovel m\u011bsto"
            }
        },
        {
            "type": "Feature",
            "geometry": {
                "type": "Point",
                "coordinates": [
                    14.1463075,
                    49.2993462
                ]
            },
            "properties": {
                "name": "Autobusov\u00e9 n\u00e1dra\u017e\u00ed P\u00edsek"
            }
        },
        {
            "type": "Feature",
            "geometry": {
                "type": "Point",
                "coordinates": [
                    14.321784,
                    50.0454627
                ]
            },
            "properties": {
                "name": "Luka"
            }
        },
        {
            "type": "Feature",
            "geometry": {
                "type": "Point",
                "coordinates": [
                    13.8295187,
                    50.6463683
                ]
            }
        },
        {
            "type": "Feature",
            "geometry": {
                "type": "Point",
                "coordinates": [
                    15.0574976,
                    50.7655751
                ]
            },
            "properties": {
                "name": "Termin\u00e1l MHD"
            }
        },
        {
            "type": "Feature",
            "geometry": {
                "type": "Point",
                "coordinates": [
                    13.915257,
                    49.2571631
                ]
            },
            "properties": {
                "name": "Autobusov\u00e9 n\u00e1dra\u017e\u00ed"
            }
        },
        {
            "type": "Feature",
            "geometry": {
                "type": "Point",
                "coordinates": [
                    17.4027051,
                    49.3016906
                ]
            },
            "properties": {
                "name": "Krom\u011b\u0159\u00ed\u017e"
            }
        },
        {
            "type": "Feature",
            "geometry": {
                "type": "Point",
                "coordinates": [
                    14.3022664,
                    50.2627421
                ]
            }
        },
        {
            "type": "Feature",
            "geometry": {
                "type": "Point",
                "coordinates": [
                    14.1060575,
                    50.145897
                ]
            },
            "properties": {
                "name": "Autobusov\u00e9 n\u00e1dra\u017e\u00ed"
            }
        },
        {
            "type": "Feature",
            "geometry": {
                "type": "Point",
                "coordinates": [
                    16.8025113,
                    48.7939402
                ]
            },
            "properties": {
                "name": "Lednice"
            }
        },
        {
            "type": "Feature",
            "geometry": {
                "type": "Point",
                "coordinates": [
                    15.2241998,
                    50.0526173
                ]
            },
            "properties": {
                "name": "Kol\u00edn-Sendra\u017eice"
            }
        },
        {
            "type": "Feature",
            "geometry": {
                "type": "Point",
                "coordinates": [
                    14.0765057,
                    49.9577737
                ]
            },
            "properties": {
                "name": "Beroun"
            }
        },
        {
            "type": "Feature",
            "geometry": {
                "type": "Point",
                "coordinates": [
                    14.5359451,
                    50.6772939
                ]
            },
            "properties": {
                "name": "\u010cesk\u00e1 L\u00edpa, autobusov\u00e9 n\u00e1dra\u017e\u00ed"
            }
        },
        {
            "type": "Feature",
            "geometry": {
                "type": "Point",
                "coordinates": [
                    15.577471,
                    50.4263422
                ]
            }
        },
        {
            "type": "Feature",
            "geometry": {
                "type": "Point",
                "coordinates": [
                    13.4141032,
                    50.4697915
                ]
            },
            "properties": {
                "name": "Chomutov m\u011bsto"
            }
        },
        {
            "type": "Feature",
            "geometry": {
                "type": "Point",
                "coordinates": [
                    15.3113544,
                    50.7434232
                ]
            },
            "properties": {
                "name": "Tanvald"
            }
        },
        {
            "type": "Feature",
            "geometry": {
                "type": "Point",
                "coordinates": [
                    18.3186189,
                    49.8239518
                ]
            },
            "properties": {
                "name": "\"P\u0159estupn\u00ed termin\u00e1l Hrane\u010dn\u00edk\""
            }
        },
        {
            "type": "Feature",
            "geometry": {
                "type": "Point",
                "coordinates": [
                    14.0361178,
                    50.6592946
                ]
            },
            "properties": {
                "name": "Divadlo"
            }
        },
        {
            "type": "Feature",
            "geometry": {
                "type": "Point",
                "coordinates": [
                    13.6968185,
                    49.0857005
                ]
            },
            "properties": {
                "name": "Zd\u00edkov"
            }
        },
        {
            "type": "Feature",
            "geometry": {
                "type": "Point",
                "coordinates": [
                    15.866864,
                    49.978787
                ]
            }
        },
        {
            "type": "Feature",
            "geometry": {
                "type": "Point",
                "coordinates": [
                    13.9156627,
                    49.2566984
                ]
            },
            "properties": {
                "name": "Strakonice - aut. n\u00e1dr."
            }
        },
        {
            "type": "Feature",
            "geometry": {
                "type": "Point",
                "coordinates": [
                    16.0916501,
                    50.4757318
                ]
            }
        },
        {
            "type": "Feature",
            "geometry": {
                "type": "Point",
                "coordinates": [
                    15.721451,
                    50.3125139
                ]
            }
        },
        {
            "type": "Feature",
            "geometry": {
                "type": "Point",
                "coordinates": [
                    13.8137853,
                    50.6339524
                ]
            }
        },
        {
            "type": "Feature",
            "geometry": {
                "type": "Point",
                "coordinates": [
                    13.7863387,
                    49.0556562
                ]
            }
        },
        {
            "type": "Feature",
            "geometry": {
                "type": "Point",
                "coordinates": [
                    13.7865424,
                    49.0556859
                ]
            }
        },
        {
            "type": "Feature",
            "geometry": {
                "type": "Point",
                "coordinates": [
                    13.7866801,
                    49.0558566
                ]
            },
            "properties": {
                "name": "Vimperk, aut.n\u00e1dr."
            }
        },
        {
            "type": "Feature",
            "geometry": {
                "type": "Point",
                "coordinates": [
                    13.8255295,
                    49.114874
                ]
            },
            "properties": {
                "name": "autobusov\u00e9 n\u00e1dra\u017e\u00ed \u010ckyn\u011b"
            }
        },
        {
            "type": "Feature",
            "geometry": {
                "type": "Point",
                "coordinates": [
                    14.0447246,
                    49.9887091
                ]
            },
            "properties": {
                "name": "H\u00fdskov"
            }
        },
        {
            "type": "Feature",
            "geometry": {
                "type": "Point",
                "coordinates": [
                    13.8830751,
                    49.1239131
                ]
            },
            "properties": {
                "name": "Malenice vlak. stanice"
            }
        },
        {
            "type": "Feature",
            "geometry": {
                "type": "Point",
                "coordinates": [
                    14.0597545,
                    50.5100642
                ]
            },
            "properties": {
                "name": "Lovosice"
            }
        },
        {
            "type": "Feature",
            "geometry": {
                "type": "Point",
                "coordinates": [
                    15.057508,
                    50.7655781
                ]
            },
            "properties": {
                "name": "F\u00fcgnerova"
            }
        },
        {
            "type": "Feature",
            "geometry": {
                "type": "Point",
                "coordinates": [
                    14.0442696,
                    50.6596696
                ]
            },
            "properties": {
                "name": "\u00dast\u00ed nad Labem hlavn\u00ed n\u00e1dra\u017e\u00ed"
            }
        },
        {
            "type": "Feature",
            "geometry": {
                "type": "Point",
                "coordinates": [
                    14.0886013,
                    50.2285395
                ]
            },
            "properties": {
                "name": "Autobusov\u00e9 n\u00e1dra\u017e\u00ed"
            }
        },
        {
            "type": "Feature",
            "geometry": {
                "type": "Point",
                "coordinates": [
                    13.8737435,
                    50.0235503
                ]
            },
            "properties": {
                "name": "Roztoky u K\u0159ivokl\u00e1tu"
            }
        },
        {
            "type": "Feature",
            "geometry": {
                "type": "Point",
                "coordinates": [
                    13.7233644,
                    50.4079675
                ]
            }
        },
        {
            "type": "Feature",
            "geometry": {
                "type": "Point",
                "coordinates": [
                    14.5353068,
                    50.6776914
                ]
            },
            "properties": {
                "name": "\u010cesk\u00e1 L\u00edpa, autobusov\u00e9 n\u00e1dra\u017e\u00ed"
            }
        },
        {
            "type": "Feature",
            "geometry": {
                "type": "Point",
                "coordinates": [
                    17.0895161,
                    49.4752868
                ]
            },
            "properties": {
                "name": "Nemocnice"
            }
        },
        {
            "type": "Feature",
            "geometry": {
                "type": "Point",
                "coordinates": [
                    16.2354314,
                    50.3001337
                ]
            }
        },
        {
            "type": "Feature",
            "geometry": {
                "type": "Point",
                "coordinates": [
                    15.3968482,
                    49.9120478
                ]
            },
            "properties": {
                "name": "autobusov\u00e9 n\u00e1dra\u017e\u00ed \u010c\u00e1slav"
            }
        },
        {
            "type": "Feature",
            "geometry": {
                "type": "Point",
                "coordinates": [
                    13.5908472,
                    49.7411584
                ]
            },
            "properties": {
                "name": "Rokycany,aut.n\u00e1dr."
            }
        },
        {
            "type": "Feature",
            "geometry": {
                "type": "Point",
                "coordinates": [
                    14.4942586,
                    48.7374326
                ]
            }
        },
        {
            "type": "Feature",
            "geometry": {
                "type": "Point",
                "coordinates": [
                    16.0091524,
                    49.2725977
                ]
            }
        },
        {
            "type": "Feature",
            "geometry": {
                "type": "Point",
                "coordinates": [
                    15.8656296,
                    49.0943215
                ]
            }
        },
        {
            "type": "Feature",
            "geometry": {
                "type": "Point",
                "coordinates": [
                    13.2039991,
                    49.3524177
                ]
            }
        },
        {
            "type": "Feature",
            "geometry": {
                "type": "Point",
                "coordinates": [
                    17.2748234,
                    49.9304419
                ]
            },
            "properties": {
                "name": "\u0158\u00fdma\u0159ov autobusov\u00e9 n\u00e1dra\u017e\u00ed"
            }
        },
        {
            "type": "Feature",
            "geometry": {
                "type": "Point",
                "coordinates": [
                    13.9183801,
                    50.0356326
                ]
            },
            "properties": {
                "name": "Zbe\u010dno"
            }
        },
        {
            "type": "Feature",
            "geometry": {
                "type": "Point",
                "coordinates": [
                    17.4035676,
                    49.3011422
                ]
            },
            "properties": {
                "name": "Autobusov\u00e9 n\u00e1dra\u017e\u00ed Krom\u011b\u0159\u00ed\u017e"
            }
        },
        {
            "type": "Feature",
            "geometry": {
                "type": "Point",
                "coordinates": [
                    15.8751165,
                    49.2144983
                ]
            },
            "properties": {
                "name": "Autobusov\u00e9 n\u00e1dra\u017e\u00ed T\u0159eb\u00ed\u010d"
            }
        },
        {
            "type": "Feature",
            "geometry": {
                "type": "Point",
                "coordinates": [
                    16.6170245,
                    49.0327844
                ]
            },
            "properties": {
                "name": "\u017didlochovice"
            }
        },
        {
            "type": "Feature",
            "geometry": {
                "type": "Point",
                "coordinates": [
                    14.4287085,
                    49.6578143
                ]
            },
            "properties": {
                "name": "Autobusov\u00e9 n\u00e1dra\u017e\u00ed"
            }
        },
        {
            "type": "Feature",
            "geometry": {
                "type": "Point",
                "coordinates": [
                    12.7298089,
                    50.3209713
                ]
            },
            "properties": {
                "name": "Nejdek"
            }
        },
        {
            "type": "Feature",
            "geometry": {
                "type": "Point",
                "coordinates": [
                    17.1286081,
                    49.4729364
                ]
            },
            "properties": {
                "name": "Autobusov\u00e1 stanice"
            }
        },
        {
            "type": "Feature",
            "geometry": {
                "type": "Point",
                "coordinates": [
                    15.8894605,
                    49.0962
                ]
            },
            "properties": {
                "name": "Autobusov\u00e9 n\u00e1dra\u017e\u00ed Jarom\u011b\u0159ice nad Rokytnou"
            }
        },
        {
            "type": "Feature",
            "geometry": {
                "type": "Point",
                "coordinates": [
                    14.0746548,
                    49.9577355
                ]
            },
            "properties": {
                "name": "Beroun,,autobusov\u00e9 n\u00e1dra\u017e\u00ed"
            }
        },
        {
            "type": "Feature",
            "geometry": {
                "type": "Point",
                "coordinates": [
                    17.4421348,
                    49.7102793
                ]
            }
        },
        {
            "type": "Feature",
            "geometry": {
                "type": "Point",
                "coordinates": [
                    18.432794,
                    49.8793329
                ]
            },
            "properties": {
                "name": "Orlov\u00e1, Lutyn\u011b, aut. n\u00e1dr."
            }
        },
        {
            "type": "Feature",
            "geometry": {
                "type": "Point",
                "coordinates": [
                    18.3032609,
                    49.7973152
                ]
            },
            "properties": {
                "name": "Nov\u00e1 hu\u0165 hlavn\u00ed br\u00e1na"
            }
        },
        {
            "type": "Feature",
            "geometry": {
                "type": "Point",
                "coordinates": [
                    13.4143178,
                    50.4698568
                ]
            }
        },
        {
            "type": "Feature",
            "geometry": {
                "type": "Point",
                "coordinates": [
                    16.1242799,
                    50.6156133
                ]
            }
        },
        {
            "type": "Feature",
            "geometry": {
                "type": "Point",
                "coordinates": [
                    18.0097331,
                    49.5975823
                ]
            },
            "properties": {
                "name": "Nov\u00fd Ji\u010d\u00edn, autobusov\u00e9 n\u00e1dra\u017e\u00ed"
            }
        },
        {
            "type": "Feature",
            "geometry": {
                "type": "Point",
                "coordinates": [
                    15.8889175,
                    49.0959754
                ]
            },
            "properties": {
                "name": "Autobusov\u00e9 n\u00e1dra\u017e\u00ed Jarom\u011b\u0159ice nad Rokytnou"
            }
        },
        {
            "type": "Feature",
            "geometry": {
                "type": "Point",
                "coordinates": [
                    14.6001981,
                    50.6139281
                ]
            },
            "properties": {
                "name": "Jest\u0159eb\u00ed"
            }
        }
    ],
    "crs": {
        "type": "name",
        "properties": {
            "name": "urn:ogc:def:crs:OGC:1.3:CRS84"
        }
    }
}