{
    "type": "FeatureCollection",
    "features": [
        {
            "type": "Feature",
            "geometry": {
                "type": "Point",
                "coordinates": [
                    12.5459899,
                    41.8977934
                ]
            },
            "properties": {
                "name": "Roma Prenestina"
            }
        },
        {
            "type": "Feature",
            "geometry": {
                "type": "Point",
                "coordinates": [
                    13.5455328,
                    41.2713276
                ]
            },
            "properties": {
                "name": "Itri"
            }
        },
        {
            "type": "Feature",
            "geometry": {
                "type": "Point",
                "coordinates": [
                    14.0674619,
                    41.0052841
                ]
            },
            "properties": {
                "name": "Villa Literno"
            }
        },
        {
            "type": "Feature",
            "geometry": {
                "type": "Point",
                "coordinates": [
                    13.9718191,
                    41.1235215
                ]
            },
            "properties": {
                "name": "Falciano-Mondragone-Carinola"
            }
        },
        {
            "type": "Feature",
            "geometry": {
                "type": "Point",
                "coordinates": [
                    13.8757324,
                    41.1959083
                ]
            },
            "properties": {
                "name": "Sessa Aurunca - Roccamonfina"
            }
        },
        {
            "type": "Feature",
            "geometry": {
                "type": "Point",
                "coordinates": [
                    12.573554,
                    41.7060802
                ]
            },
            "properties": {
                "name": "Pomezia-Santa Palomba"
            }
        },
        {
            "type": "Feature",
            "geometry": {
                "type": "Point",
                "coordinates": [
                    13.832378,
                    41.4842559
                ]
            },
            "properties": {
                "name": "Cassino"
            }
        },
        {
            "type": "Feature",
            "geometry": {
                "type": "Point",
                "coordinates": [
                    13.7312046,
                    41.4955715
                ]
            },
            "properties": {
                "name": "Piedimonte-Villa Santa Lucia-Aquino"
            }
        },
        {
            "type": "Feature",
            "geometry": {
                "type": "Point",
                "coordinates": [
                    13.6457345,
                    41.5264104
                ]
            },
            "properties": {
                "name": "Roccasecca"
            }
        },
        {
            "type": "Feature",
            "geometry": {
                "type": "Point",
                "coordinates": [
                    13.5225947,
                    41.5237716
                ]
            },
            "properties": {
                "name": "Ceprano-Falvaterra"
            }
        },
        {
            "type": "Feature",
            "geometry": {
                "type": "Point",
                "coordinates": [
                    13.4107724,
                    41.5329571
                ]
            },
            "properties": {
                "name": "Castro-Pofi-Vallecorsa"
            }
        },
        {
            "type": "Feature",
            "geometry": {
                "type": "Point",
                "coordinates": [
                    13.1457651,
                    41.6871024
                ]
            },
            "properties": {
                "name": "Sgurgola"
            }
        },
        {
            "type": "Feature",
            "geometry": {
                "type": "Point",
                "coordinates": [
                    13.0960312,
                    41.7103587
                ]
            },
            "properties": {
                "name": "Anagni"
            }
        },
        {
            "type": "Feature",
            "geometry": {
                "type": "Point",
                "coordinates": [
                    13.0029306,
                    41.7400912
                ]
            },
            "properties": {
                "name": "Colleferro-Segni-Paliano"
            }
        },
        {
            "type": "Feature",
            "geometry": {
                "type": "Point",
                "coordinates": [
                    12.9237153,
                    41.7742852
                ]
            },
            "properties": {
                "name": "Valmontone"
            }
        },
        {
            "type": "Feature",
            "geometry": {
                "type": "Point",
                "coordinates": [
                    12.8897317,
                    41.7830799
                ]
            },
            "properties": {
                "name": "Labico"
            }
        },
        {
            "type": "Feature",
            "geometry": {
                "type": "Point",
                "coordinates": [
                    12.8269366,
                    41.8218387
                ]
            },
            "properties": {
                "name": "Zagarolo"
            }
        },
        {
            "type": "Feature",
            "geometry": {
                "type": "Point",
                "coordinates": [
                    12.7560556,
                    41.8385419
                ]
            },
            "properties": {
                "name": "Colonna Galleria"
            }
        },
        {
            "type": "Feature",
            "geometry": {
                "type": "Point",
                "coordinates": [
                    12.6698873,
                    41.8261011
                ]
            },
            "properties": {
                "name": "Tor Vergata"
            }
        },
        {
            "type": "Feature",
            "geometry": {
                "type": "Point",
                "coordinates": [
                    11.5404601,
                    45.5410988
                ]
            },
            "properties": {
                "name": "Vicenza"
            }
        },
        {
            "type": "Feature",
            "geometry": {
                "type": "Point",
                "coordinates": [
                    12.6779227,
                    41.8069274
                ]
            },
            "properties": {
                "name": "Frascati"
            }
        },
        {
            "type": "Feature",
            "geometry": {
                "type": "Point",
                "coordinates": [
                    12.5995327,
                    41.8043008
                ]
            },
            "properties": {
                "name": "Ciampino"
            }
        },
        {
            "type": "Feature",
            "geometry": {
                "type": "Point",
                "coordinates": [
                    12.4824794,
                    41.8748781
                ]
            },
            "properties": {
                "name": "Piramide"
            }
        },
        {
            "type": "Feature",
            "geometry": {
                "type": "Point",
                "coordinates": [
                    12.4830911,
                    41.866332
                ]
            },
            "properties": {
                "name": "Garbatella"
            }
        },
        {
            "type": "Feature",
            "geometry": {
                "type": "Point",
                "coordinates": [
                    12.4813113,
                    41.8270564
                ]
            },
            "properties": {
                "name": "Laurentina"
            }
        },
        {
            "type": "Feature",
            "geometry": {
                "type": "Point",
                "coordinates": [
                    12.6360633,
                    41.9150952
                ]
            },
            "properties": {
                "name": "Salone"
            }
        },
        {
            "type": "Feature",
            "geometry": {
                "type": "Point",
                "coordinates": [
                    12.6675468,
                    41.9238427
                ]
            },
            "properties": {
                "name": "Lunghezza"
            }
        },
        {
            "type": "Feature",
            "geometry": {
                "type": "Point",
                "coordinates": [
                    12.4756474,
                    41.8493351
                ]
            },
            "properties": {
                "name": "Marconi"
            }
        },
        {
            "type": "Feature",
            "geometry": {
                "type": "Point",
                "coordinates": [
                    12.4935191,
                    41.8948247
                ]
            },
            "properties": {
                "name": "Cavour"
            }
        },
        {
            "type": "Feature",
            "geometry": {
                "type": "Point",
                "coordinates": [
                    12.4880402,
                    41.8835112
                ]
            },
            "properties": {
                "name": "Circo Massimo"
            }
        },
        {
            "type": "Feature",
            "geometry": {
                "type": "Point",
                "coordinates": [
                    12.5025272,
                    41.9005815
                ]
            },
            "properties": {
                "name": "Roma Termini"
            }
        },
        {
            "type": "Feature",
            "geometry": {
                "type": "Point",
                "coordinates": [
                    12.4667231,
                    41.8300347
                ]
            },
            "properties": {
                "name": "EUR Palasport"
            }
        },
        {
            "type": "Feature",
            "geometry": {
                "type": "Point",
                "coordinates": [
                    12.470873,
                    41.828858
                ]
            },
            "properties": {
                "name": "EUR Fermi"
            }
        },
        {
            "type": "Feature",
            "geometry": {
                "type": "Point",
                "coordinates": [
                    12.5229311,
                    42.2975306
                ]
            },
            "properties": {
                "name": "Collevecchio-Poggio Sommavilla"
            }
        },
        {
            "type": "Feature",
            "geometry": {
                "type": "Point",
                "coordinates": [
                    10.7526514,
                    45.0495398
                ]
            },
            "properties": {
                "name": "Borgoforte"
            }
        },
        {
            "type": "Feature",
            "geometry": {
                "type": "Point",
                "coordinates": [
                    12.4877524,
                    42.0545945
                ]
            },
            "properties": {
                "name": "Sacrofano"
            }
        },
        {
            "type": "Feature",
            "geometry": {
                "type": "Point",
                "coordinates": [
                    12.5729213,
                    41.9257142
                ]
            },
            "properties": {
                "name": "Rebibbia"
            }
        },
        {
            "type": "Feature",
            "geometry": {
                "type": "Point",
                "coordinates": [
                    12.5651585,
                    41.9207965
                ]
            },
            "properties": {
                "name": "Ponte Mammolo"
            }
        },
        {
            "type": "Feature",
            "geometry": {
                "type": "Point",
                "coordinates": [
                    12.5550931,
                    41.9149254
                ]
            },
            "properties": {
                "name": "Pietralata"
            }
        },
        {
            "type": "Feature",
            "geometry": {
                "type": "Point",
                "coordinates": [
                    12.6292949,
                    41.45215
                ]
            },
            "properties": {
                "name": "Anzio"
            }
        },
        {
            "type": "Feature",
            "geometry": {
                "type": "Point",
                "coordinates": [
                    12.6160585,
                    41.4616098
                ]
            },
            "properties": {
                "name": "Anzio Colonia"
            }
        },
        {
            "type": "Feature",
            "geometry": {
                "type": "Point",
                "coordinates": [
                    12.62603,
                    41.5007045
                ]
            },
            "properties": {
                "name": "Lavinio"
            }
        },
        {
            "type": "Feature",
            "geometry": {
                "type": "Point",
                "coordinates": [
                    12.662108,
                    41.4595734
                ]
            },
            "properties": {
                "name": "Nettuno"
            }
        },
        {
            "type": "Feature",
            "geometry": {
                "type": "Point",
                "coordinates": [
                    12.4480549,
                    41.9070293
                ]
            },
            "properties": {
                "name": "Staz.ne Metro Cipro"
            }
        },
        {
            "type": "Feature",
            "geometry": {
                "type": "Point",
                "coordinates": [
                    12.4476984,
                    41.9073662
                ]
            },
            "properties": {
                "name": "Cipro"
            }
        },
        {
            "type": "Feature",
            "geometry": {
                "type": "Point",
                "coordinates": [
                    12.6042252,
                    41.7884509
                ]
            },
            "properties": {
                "name": "Casabianca"
            }
        },
        {
            "type": "Feature",
            "geometry": {
                "type": "Point",
                "coordinates": [
                    12.6100452,
                    41.7251339
                ]
            },
            "properties": {
                "name": "Pavona"
            }
        },
        {
            "type": "Feature",
            "geometry": {
                "type": "Point",
                "coordinates": [
                    12.6560183,
                    41.7689885
                ]
            },
            "properties": {
                "name": "Marino Laziale"
            }
        },
        {
            "type": "Feature",
            "geometry": {
                "type": "Point",
                "coordinates": [
                    12.4981047,
                    42.1030372
                ]
            },
            "properties": {
                "name": "Riano"
            }
        },
        {
            "type": "Feature",
            "geometry": {
                "type": "Point",
                "coordinates": [
                    12.495153,
                    42.1297531
                ]
            },
            "properties": {
                "name": "Castelnuovo di Porto"
            }
        },
        {
            "type": "Feature",
            "geometry": {
                "type": "Point",
                "coordinates": [
                    12.4571176,
                    42.2630484
                ]
            },
            "properties": {
                "name": "Pian Paradiso"
            }
        },
        {
            "type": "Feature",
            "geometry": {
                "type": "Point",
                "coordinates": [
                    12.4132895,
                    42.2916271
                ]
            },
            "properties": {
                "name": "Civita Castellana"
            }
        },
        {
            "type": "Feature",
            "geometry": {
                "type": "Point",
                "coordinates": [
                    12.2764497,
                    42.3826397
                ]
            },
            "properties": {
                "name": "Vignanello"
            }
        },
        {
            "type": "Feature",
            "geometry": {
                "type": "Point",
                "coordinates": [
                    12.2700592,
                    42.3841175
                ]
            },
            "properties": {
                "name": "Vallerano"
            }
        },
        {
            "type": "Feature",
            "geometry": {
                "type": "Point",
                "coordinates": [
                    12.2107148,
                    42.0768613
                ]
            },
            "properties": {
                "name": "Vigna di Valle"
            }
        },
        {
            "type": "Feature",
            "geometry": {
                "type": "Point",
                "coordinates": [
                    12.8049974,
                    41.9619237
                ]
            },
            "properties": {
                "name": "Tivoli"
            }
        },
        {
            "type": "Feature",
            "geometry": {
                "type": "Point",
                "coordinates": [
                    12.7913709,
                    41.9996399
                ]
            },
            "properties": {
                "name": "Marcellina-Palombara"
            }
        },
        {
            "type": "Feature",
            "geometry": {
                "type": "Point",
                "coordinates": [
                    12.5480024,
                    41.915735
                ]
            },
            "properties": {
                "name": "Monti Tiburtini"
            }
        },
        {
            "type": "Feature",
            "geometry": {
                "type": "Point",
                "coordinates": [
                    12.538835,
                    41.9152219
                ]
            },
            "properties": {
                "name": "Quintiliani"
            }
        },
        {
            "type": "Feature",
            "geometry": {
                "type": "Point",
                "coordinates": [
                    12.5208145,
                    41.9136627
                ]
            },
            "properties": {
                "name": "Bologna"
            }
        },
        {
            "type": "Feature",
            "geometry": {
                "type": "Point",
                "coordinates": [
                    12.5055586,
                    41.9062981
                ]
            },
            "properties": {
                "name": "Castro Pretorio"
            }
        },
        {
            "type": "Feature",
            "geometry": {
                "type": "Point",
                "coordinates": [
                    12.5121218,
                    41.9086625
                ]
            },
            "properties": {
                "name": "Policlinico"
            }
        },
        {
            "type": "Feature",
            "geometry": {
                "type": "Point",
                "coordinates": [
                    12.4915001,
                    41.8914366
                ]
            },
            "properties": {
                "name": "Colosseo"
            }
        },
        {
            "type": "Feature",
            "geometry": {
                "type": "Point",
                "coordinates": [
                    12.3778842,
                    41.789627
                ]
            },
            "properties": {
                "name": "Casal Bernocchi - Centro Giano"
            }
        },
        {
            "type": "Feature",
            "geometry": {
                "type": "Point",
                "coordinates": [
                    12.3608521,
                    41.7835343
                ]
            },
            "properties": {
                "name": "Acilia"
            }
        },
        {
            "type": "Feature",
            "geometry": {
                "type": "Point",
                "coordinates": [
                    12.6324117,
                    42.1034401
                ]
            },
            "properties": {
                "name": "Pianabella Di Montelibretti"
            }
        },
        {
            "type": "Feature",
            "geometry": {
                "type": "Point",
                "coordinates": [
                    12.5303507,
                    41.9107562
                ]
            },
            "properties": {
                "name": "Tiburtina FS"
            }
        },
        {
            "type": "Feature",
            "geometry": {
                "type": "Point",
                "coordinates": [
                    12.6166867,
                    41.7940524
                ]
            },
            "properties": {
                "name": "Acqua Acetosa"
            }
        },
        {
            "type": "Feature",
            "geometry": {
                "type": "Point",
                "coordinates": [
                    12.6260302,
                    41.7835594
                ]
            },
            "properties": {
                "name": "Sassone"
            }
        },
        {
            "type": "Feature",
            "geometry": {
                "type": "Point",
                "coordinates": [
                    12.6061979,
                    41.7742804
                ]
            },
            "properties": {
                "name": "Santa Maria delle Mole"
            }
        },
        {
            "type": "Feature",
            "geometry": {
                "type": "Point",
                "coordinates": [
                    14.4194021,
                    40.9941672
                ]
            },
            "properties": {
                "name": "Cancello"
            }
        },
        {
            "type": "Feature",
            "geometry": {
                "type": "Point",
                "coordinates": [
                    12.3021594,
                    41.7563089
                ]
            },
            "properties": {
                "name": "Ostia Antica"
            }
        },
        {
            "type": "Feature",
            "geometry": {
                "type": "Point",
                "coordinates": [
                    12.309033,
                    41.720476
                ]
            },
            "properties": {
                "name": "Castel Fusano"
            }
        },
        {
            "type": "Feature",
            "geometry": {
                "type": "Point",
                "coordinates": [
                    12.2953457,
                    41.7271585
                ]
            },
            "properties": {
                "name": "Stella Polare"
            }
        },
        {
            "type": "Feature",
            "geometry": {
                "type": "Point",
                "coordinates": [
                    12.2841734,
                    41.7332001
                ]
            },
            "properties": {
                "name": "Lido Centro"
            }
        },
        {
            "type": "Feature",
            "geometry": {
                "type": "Point",
                "coordinates": [
                    12.6171214,
                    41.4843294
                ]
            },
            "properties": {
                "name": "Villa Claudia"
            }
        },
        {
            "type": "Feature",
            "geometry": {
                "type": "Point",
                "coordinates": [
                    12.6294527,
                    41.513379
                ]
            },
            "properties": {
                "name": "Padiglione"
            }
        },
        {
            "type": "Feature",
            "geometry": {
                "type": "Point",
                "coordinates": [
                    12.6351338,
                    41.5520849
                ]
            },
            "properties": {
                "name": "Campo di Carne"
            }
        },
        {
            "type": "Feature",
            "geometry": {
                "type": "Point",
                "coordinates": [
                    12.6391724,
                    41.5923897
                ]
            },
            "properties": {
                "name": "Aprilia"
            }
        },
        {
            "type": "Feature",
            "geometry": {
                "type": "Point",
                "coordinates": [
                    12.6125371,
                    41.4714421
                ]
            },
            "properties": {
                "name": "Marechiaro"
            }
        },
        {
            "type": "Feature",
            "geometry": {
                "type": "Point",
                "coordinates": [
                    16.8727403,
                    41.1154896
                ]
            },
            "properties": {
                "name": "Ferrovie Sud Est - Largo Ciaia"
            }
        },
        {
            "type": "Feature",
            "geometry": {
                "type": "Point",
                "coordinates": [
                    12.4538736,
                    42.3465371
                ]
            },
            "properties": {
                "name": "Civita Castellana-Magliano"
            }
        },
        {
            "type": "Feature",
            "geometry": {
                "type": "Point",
                "coordinates": [
                    12.4958271,
                    41.9027646
                ]
            },
            "properties": {
                "name": "Repubblica"
            }
        },
        {
            "type": "Feature",
            "geometry": {
                "type": "Point",
                "coordinates": [
                    12.488764,
                    41.903837
                ]
            },
            "properties": {
                "name": "Barberini"
            }
        },
        {
            "type": "Feature",
            "geometry": {
                "type": "Point",
                "coordinates": [
                    12.4845057,
                    41.9067933
                ]
            },
            "properties": {
                "name": "Spagna"
            }
        },
        {
            "type": "Feature",
            "geometry": {
                "type": "Point",
                "coordinates": [
                    12.4771192,
                    41.912826
                ]
            },
            "properties": {
                "name": "Flaminio"
            }
        },
        {
            "type": "Feature",
            "geometry": {
                "type": "Point",
                "coordinates": [
                    12.5743771,
                    41.8493002
                ]
            },
            "properties": {
                "name": "Cinecitt\u00e0"
            }
        },
        {
            "type": "Feature",
            "geometry": {
                "type": "Point",
                "coordinates": [
                    12.528141,
                    41.9397676
                ]
            },
            "properties": {
                "name": "Conca d'Oro"
            }
        },
        {
            "type": "Feature",
            "geometry": {
                "type": "Point",
                "coordinates": [
                    12.106186,
                    42.4253185
                ]
            },
            "properties": {
                "name": "Viterbo Porta Fiorentina"
            }
        },
        {
            "type": "Feature",
            "geometry": {
                "type": "Point",
                "coordinates": [
                    12.1105216,
                    42.4119725
                ]
            },
            "properties": {
                "name": "Viterbo Porta Romana"
            }
        },
        {
            "type": "Feature",
            "geometry": {
                "type": "Point",
                "coordinates": [
                    12.086182,
                    42.3315132
                ]
            },
            "properties": {
                "name": "Tre Croci"
            }
        },
        {
            "type": "Feature",
            "geometry": {
                "type": "Point",
                "coordinates": [
                    12.5605966,
                    41.9155093
                ]
            },
            "properties": {
                "name": "Santa Maria del Soccorso"
            }
        },
        {
            "type": "Feature",
            "geometry": {
                "type": "Point",
                "coordinates": [
                    12.4090739,
                    42.4376073
                ]
            },
            "properties": {
                "name": "Orte"
            }
        },
        {
            "type": "Feature",
            "geometry": {
                "type": "Point",
                "coordinates": [
                    12.13848,
                    42.166872
                ]
            },
            "properties": {
                "name": "Oriolo"
            }
        },
        {
            "type": "Feature",
            "geometry": {
                "type": "Point",
                "coordinates": [
                    12.1572074,
                    42.2452209
                ]
            },
            "properties": {
                "name": "Capranica - Sutri"
            }
        },
        {
            "type": "Feature",
            "geometry": {
                "type": "Point",
                "coordinates": [
                    12.1216547,
                    42.2780296
                ]
            },
            "properties": {
                "name": "Vico Matrino"
            }
        },
        {
            "type": "Feature",
            "geometry": {
                "type": "Point",
                "coordinates": [
                    12.0891407,
                    42.3045956
                ]
            },
            "properties": {
                "name": "Vetralla"
            }
        },
        {
            "type": "Feature",
            "geometry": {
                "type": "Point",
                "coordinates": [
                    12.2337326,
                    42.4216813
                ]
            },
            "properties": {
                "name": "Soriano nel Cimino"
            }
        },
        {
            "type": "Feature",
            "geometry": {
                "type": "Point",
                "coordinates": [
                    12.1767962,
                    42.4414465
                ]
            },
            "properties": {
                "name": "Vitorchiano"
            }
        },
        {
            "type": "Feature",
            "geometry": {
                "type": "Point",
                "coordinates": [
                    12.153303,
                    42.427605
                ]
            },
            "properties": {
                "name": "Bagnaia"
            }
        },
        {
            "type": "Feature",
            "geometry": {
                "type": "Point",
                "coordinates": [
                    12.1083313,
                    42.4241245
                ]
            },
            "properties": {
                "name": "Viterbo"
            }
        },
        {
            "type": "Feature",
            "geometry": {
                "type": "Point",
                "coordinates": [
                    12.1730633,
                    42.1036916
                ]
            },
            "properties": {
                "name": "Bracciano"
            }
        },
        {
            "type": "Feature",
            "geometry": {
                "type": "Point",
                "coordinates": [
                    12.2845622,
                    41.7404251
                ]
            },
            "properties": {
                "name": "Lido Nord"
            }
        },
        {
            "type": "Feature",
            "geometry": {
                "type": "Point",
                "coordinates": [
                    12.3219552,
                    41.7145146
                ]
            },
            "properties": {
                "name": "Cristoforo Colombo"
            }
        },
        {
            "type": "Feature",
            "geometry": {
                "type": "Point",
                "coordinates": [
                    12.7808035,
                    41.6824357
                ]
            },
            "properties": {
                "name": "Velletri"
            }
        },
        {
            "type": "Feature",
            "geometry": {
                "type": "Point",
                "coordinates": [
                    12.4661718,
                    41.9113692
                ]
            },
            "properties": {
                "name": "Lepanto"
            }
        },
        {
            "type": "Feature",
            "geometry": {
                "type": "Point",
                "coordinates": [
                    12.4583068,
                    41.9094115
                ]
            },
            "properties": {
                "name": "Ottaviano"
            }
        },
        {
            "type": "Feature",
            "geometry": {
                "type": "Point",
                "coordinates": [
                    12.4413876,
                    41.9028779
                ]
            },
            "properties": {
                "name": "Valle Aurelia"
            }
        },
        {
            "type": "Feature",
            "geometry": {
                "type": "Point",
                "coordinates": [
                    12.4330515,
                    41.8988863
                ]
            },
            "properties": {
                "name": "Baldo degli Ubaldi"
            }
        },
        {
            "type": "Feature",
            "geometry": {
                "type": "Point",
                "coordinates": [
                    12.4264211,
                    41.9005296
                ]
            },
            "properties": {
                "name": "Cornelia"
            }
        },
        {
            "type": "Feature",
            "geometry": {
                "type": "Point",
                "coordinates": [
                    12.4151007,
                    41.9061381
                ]
            },
            "properties": {
                "name": "Battistini"
            }
        },
        {
            "type": "Feature",
            "geometry": {
                "type": "Point",
                "coordinates": [
                    12.5068491,
                    41.8903327
                ]
            },
            "properties": {
                "name": "Manzoni"
            }
        },
        {
            "type": "Feature",
            "geometry": {
                "type": "Point",
                "coordinates": [
                    12.5044677,
                    41.8948835
                ]
            },
            "properties": {
                "name": "Vittorio Emanuele"
            }
        },
        {
            "type": "Feature",
            "geometry": {
                "type": "Point",
                "coordinates": [
                    12.509976,
                    41.8853478
                ]
            },
            "properties": {
                "name": "San Giovanni"
            }
        },
        {
            "type": "Feature",
            "geometry": {
                "type": "Point",
                "coordinates": [
                    12.5144046,
                    41.8816351
                ]
            },
            "properties": {
                "name": "Re di Roma"
            }
        },
        {
            "type": "Feature",
            "geometry": {
                "type": "Point",
                "coordinates": [
                    12.5189574,
                    41.8778448
                ]
            },
            "properties": {
                "name": "Ponte Lungo"
            }
        },
        {
            "type": "Feature",
            "geometry": {
                "type": "Point",
                "coordinates": [
                    12.5230203,
                    41.8747435
                ]
            },
            "properties": {
                "name": "Furio Camillo"
            }
        },
        {
            "type": "Feature",
            "geometry": {
                "type": "Point",
                "coordinates": [
                    12.5300898,
                    41.8693853
                ]
            },
            "properties": {
                "name": "Colli Albani"
            }
        },
        {
            "type": "Feature",
            "geometry": {
                "type": "Point",
                "coordinates": [
                    12.5350994,
                    41.8663812
                ]
            },
            "properties": {
                "name": "Arco di Travertino"
            }
        },
        {
            "type": "Feature",
            "geometry": {
                "type": "Point",
                "coordinates": [
                    12.5482062,
                    41.86379
                ]
            },
            "properties": {
                "name": "Porta Furba/Quadraro"
            }
        },
        {
            "type": "Feature",
            "geometry": {
                "type": "Point",
                "coordinates": [
                    12.5526576,
                    41.8621329
                ]
            },
            "properties": {
                "name": "Numidio Quadrato"
            }
        },
        {
            "type": "Feature",
            "geometry": {
                "type": "Point",
                "coordinates": [
                    12.5572829,
                    41.8596969
                ]
            },
            "properties": {
                "name": "Lucio Sestio"
            }
        },
        {
            "type": "Feature",
            "geometry": {
                "type": "Point",
                "coordinates": [
                    12.5626327,
                    41.8565979
                ]
            },
            "properties": {
                "name": "Giulio Agricola"
            }
        },
        {
            "type": "Feature",
            "geometry": {
                "type": "Point",
                "coordinates": [
                    12.5677011,
                    41.8538307
                ]
            },
            "properties": {
                "name": "Subaugusta"
            }
        },
        {
            "type": "Feature",
            "geometry": {
                "type": "Point",
                "coordinates": [
                    12.5860085,
                    41.8425652
                ]
            },
            "properties": {
                "name": "Anagnina"
            }
        },
        {
            "type": "Feature",
            "geometry": {
                "type": "Point",
                "coordinates": [
                    13.2407416,
                    41.2980922
                ]
            },
            "properties": {
                "name": "Terracina"
            }
        },
        {
            "type": "Feature",
            "geometry": {
                "type": "Point",
                "coordinates": [
                    9.2312816,
                    44.3504925
                ]
            },
            "properties": {
                "name": "Rapallo FS Capolinea"
            }
        },
        {
            "type": "Feature",
            "geometry": {
                "type": "Point",
                "coordinates": [
                    12.2933308,
                    42.067092
                ]
            },
            "properties": {
                "name": "Anguillara"
            }
        },
        {
            "type": "Feature",
            "geometry": {
                "type": "Point",
                "coordinates": [
                    12.5578627,
                    41.8999933
                ]
            },
            "properties": {
                "name": "Serenissima"
            }
        },
        {
            "type": "Feature",
            "geometry": {
                "type": "Point",
                "coordinates": [
                    12.5741939,
                    41.9033311
                ]
            },
            "properties": {
                "name": "Palmiro Togliatti"
            }
        },
        {
            "type": "Feature",
            "geometry": {
                "type": "Point",
                "coordinates": [
                    12.5878507,
                    41.9058794
                ]
            },
            "properties": {
                "name": "Tor Sapienza"
            }
        },
        {
            "type": "Feature",
            "geometry": {
                "type": "Point",
                "coordinates": [
                    12.6096244,
                    41.9101529
                ]
            },
            "properties": {
                "name": "La Rustica Citt\u00e0"
            }
        },
        {
            "type": "Feature",
            "geometry": {
                "type": "Point",
                "coordinates": [
                    12.6218186,
                    41.9125488
                ]
            },
            "properties": {
                "name": "La Rustica U.I.R."
            }
        },
        {
            "type": "Feature",
            "geometry": {
                "type": "Point",
                "coordinates": [
                    12.5103323,
                    41.9554293
                ]
            },
            "properties": {
                "name": "Nuovo Salario"
            }
        },
        {
            "type": "Feature",
            "geometry": {
                "type": "Point",
                "coordinates": [
                    14.3382599,
                    40.8623232
                ]
            },
            "properties": {
                "name": "Argine Palasport"
            }
        },
        {
            "type": "Feature",
            "geometry": {
                "type": "Point",
                "coordinates": [
                    12.7223049,
                    41.9495792
                ]
            },
            "properties": {
                "name": "Bagni di Tivoli"
            }
        },
        {
            "type": "Feature",
            "geometry": {
                "type": "Point",
                "coordinates": [
                    12.1349416,
                    42.1282616
                ]
            },
            "properties": {
                "name": "Manziana - Canale Monterano"
            }
        },
        {
            "type": "Feature",
            "geometry": {
                "type": "Point",
                "coordinates": [
                    12.6898153,
                    41.6737219
                ]
            },
            "properties": {
                "name": "Lanuvio"
            }
        },
        {
            "type": "Feature",
            "geometry": {
                "type": "Point",
                "coordinates": [
                    12.6216259,
                    41.7110215
                ]
            },
            "properties": {
                "name": "Cancelliera"
            }
        },
        {
            "type": "Feature",
            "geometry": {
                "type": "Point",
                "coordinates": [
                    12.657916,
                    41.7264369
                ]
            },
            "properties": {
                "name": "Albano Laziale"
            }
        },
        {
            "type": "Feature",
            "geometry": {
                "type": "Point",
                "coordinates": [
                    12.5192683,
                    41.9317786
                ]
            },
            "properties": {
                "name": "Libia"
            }
        },
        {
            "type": "Feature",
            "geometry": {
                "type": "Point",
                "coordinates": [
                    12.7283952,
                    41.8327285
                ]
            },
            "properties": {
                "name": "Colle Mattia"
            }
        },
        {
            "type": "Feature",
            "geometry": {
                "type": "Point",
                "coordinates": [
                    12.6494381,
                    41.7388735
                ]
            },
            "properties": {
                "name": "Villetta"
            }
        },
        {
            "type": "Feature",
            "geometry": {
                "type": "Point",
                "coordinates": [
                    12.6522438,
                    41.7468956
                ]
            },
            "properties": {
                "name": "Castel Gandolfo"
            }
        },
        {
            "type": "Feature",
            "geometry": {
                "type": "Point",
                "coordinates": [
                    12.6339311,
                    41.7799342
                ]
            },
            "properties": {
                "name": "Pantanella"
            }
        },
        {
            "type": "Feature",
            "geometry": {
                "type": "Point",
                "coordinates": [
                    12.7515899,
                    41.6750538
                ]
            },
            "properties": {
                "name": "Sant'Eurosia"
            }
        },
        {
            "type": "Feature",
            "geometry": {
                "type": "Point",
                "coordinates": [
                    12.726246,
                    41.6745985
                ]
            },
            "properties": {
                "name": "San Gennaro"
            }
        },
        {
            "type": "Feature",
            "geometry": {
                "type": "Point",
                "coordinates": [
                    12.490769,
                    42.1433787
                ]
            },
            "properties": {
                "name": "Morlupo"
            }
        },
        {
            "type": "Feature",
            "geometry": {
                "type": "Point",
                "coordinates": [
                    12.4790075,
                    42.2107646
                ]
            },
            "properties": {
                "name": "Rignano Flaminio"
            }
        },
        {
            "type": "Feature",
            "geometry": {
                "type": "Point",
                "coordinates": [
                    12.4902148,
                    42.2250534
                ]
            },
            "properties": {
                "name": "Sant'Oreste"
            }
        },
        {
            "type": "Feature",
            "geometry": {
                "type": "Point",
                "coordinates": [
                    12.4455313,
                    42.2864114
                ]
            },
            "properties": {
                "name": "Ponzano"
            }
        },
        {
            "type": "Feature",
            "geometry": {
                "type": "Point",
                "coordinates": [
                    12.6485743,
                    41.6423082
                ]
            },
            "properties": {
                "name": "Campoleone"
            }
        },
        {
            "type": "Feature",
            "geometry": {
                "type": "Point",
                "coordinates": [
                    12.8275792,
                    41.5865239
                ]
            },
            "properties": {
                "name": "Cisterna di Latina"
            }
        },
        {
            "type": "Feature",
            "geometry": {
                "type": "Point",
                "coordinates": [
                    13.0384018,
                    41.4955675
                ]
            },
            "properties": {
                "name": "Sezze Romano"
            }
        },
        {
            "type": "Feature",
            "geometry": {
                "type": "Point",
                "coordinates": [
                    13.186832,
                    41.4216823
                ]
            },
            "properties": {
                "name": "Priverno-Fossanova"
            }
        },
        {
            "type": "Feature",
            "geometry": {
                "type": "Point",
                "coordinates": [
                    13.6062023,
                    41.2588346
                ]
            },
            "properties": {
                "name": "Formia-Gaeta"
            }
        },
        {
            "type": "Feature",
            "geometry": {
                "type": "Point",
                "coordinates": [
                    13.7208496,
                    41.257602
                ]
            },
            "properties": {
                "name": "Minturno-Scauri"
            }
        },
        {
            "type": "Feature",
            "geometry": {
                "type": "Point",
                "coordinates": [
                    13.3286274,
                    41.6252797
                ]
            },
            "properties": {
                "name": "Frosinone"
            }
        },
        {
            "type": "Feature",
            "geometry": {
                "type": "Point",
                "coordinates": [
                    13.6559776,
                    45.7541044
                ]
            },
            "properties": {
                "name": "Bivio d'Aurisina / Nabre\u017eina bivio"
            }
        },
        {
            "type": "Feature",
            "geometry": {
                "type": "Point",
                "coordinates": [
                    13.2008602,
                    41.3660848
                ]
            },
            "properties": {
                "name": "Frasso"
            }
        },
        {
            "type": "Feature",
            "geometry": {
                "type": "Point",
                "coordinates": [
                    13.0801805,
                    42.0956267
                ]
            },
            "properties": {
                "name": "Carsoli"
            }
        },
        {
            "type": "Feature",
            "geometry": {
                "type": "Point",
                "coordinates": [
                    13.2047522,
                    41.4006382
                ]
            },
            "properties": {
                "name": "Capocroce"
            }
        },
        {
            "type": "Feature",
            "geometry": {
                "type": "Point",
                "coordinates": [
                    16.8021791,
                    41.1297693
                ]
            },
            "properties": {
                "name": "Tesoro"
            }
        },
        {
            "type": "Feature",
            "geometry": {
                "type": "Point",
                "coordinates": [
                    16.785341,
                    41.1240381
                ]
            },
            "properties": {
                "name": "San Gabriele"
            }
        },
        {
            "type": "Feature",
            "geometry": {
                "type": "Point",
                "coordinates": [
                    16.7799876,
                    41.1176308
                ]
            },
            "properties": {
                "name": "Ospedale San Paolo"
            }
        },
        {
            "type": "Feature",
            "geometry": {
                "type": "Point",
                "coordinates": [
                    16.7927381,
                    41.1267605
                ]
            },
            "properties": {
                "name": "Cittadella"
            }
        },
        {
            "type": "Feature",
            "geometry": {
                "type": "Point",
                "coordinates": [
                    13.4264908,
                    42.0395812
                ]
            },
            "properties": {
                "name": "Avezzano"
            }
        },
        {
            "type": "Feature",
            "geometry": {
                "type": "Point",
                "coordinates": [
                    12.5686754,
                    42.2898625
                ]
            },
            "properties": {
                "name": "Stimigliano"
            }
        },
        {
            "type": "Feature",
            "geometry": {
                "type": "Point",
                "coordinates": [
                    12.6079817,
                    42.2730976
                ]
            },
            "properties": {
                "name": "Gavignano Sabino"
            }
        },
        {
            "type": "Feature",
            "geometry": {
                "type": "Point",
                "coordinates": [
                    12.6331458,
                    42.2421706
                ]
            },
            "properties": {
                "name": "Poggio Mirteto"
            }
        },
        {
            "type": "Feature",
            "geometry": {
                "type": "Point",
                "coordinates": [
                    15.8067793,
                    40.6294883
                ]
            },
            "properties": {
                "name": "Potenza Centrale"
            }
        },
        {
            "type": "Feature",
            "geometry": {
                "type": "Point",
                "coordinates": [
                    11.9579233,
                    43.0024431
                ]
            },
            "properties": {
                "name": "Chiusi-Chianciano Terme"
            }
        },
        {
            "type": "Feature",
            "geometry": {
                "type": "Point",
                "coordinates": [
                    12.9462886,
                    41.538182
                ]
            },
            "properties": {
                "name": "Latina"
            }
        },
        {
            "type": "Feature",
            "geometry": {
                "type": "Point",
                "coordinates": [
                    11.505536,
                    47.0024092
                ]
            },
            "properties": {
                "name": "Brenner - Brennero"
            }
        },
        {
            "type": "Feature",
            "geometry": {
                "type": "Point",
                "coordinates": [
                    12.922461,
                    42.016457
                ]
            },
            "properties": {
                "name": "Valle dell'Aniene-Mandela-Sambuci"
            }
        },
        {
            "type": "Feature",
            "geometry": {
                "type": "Point",
                "coordinates": [
                    13.3363076,
                    41.5735901
                ]
            },
            "properties": {
                "name": "Ceccano"
            }
        },
        {
            "type": "Feature",
            "geometry": {
                "type": "Point",
                "coordinates": [
                    13.3443862,
                    42.0530759
                ]
            },
            "properties": {
                "name": "Scurcola Marsicana"
            }
        },
        {
            "type": "Feature",
            "geometry": {
                "type": "Point",
                "coordinates": [
                    13.255704,
                    42.0706906
                ]
            },
            "properties": {
                "name": "Tagliacozzo"
            }
        },
        {
            "type": "Feature",
            "geometry": {
                "type": "Point",
                "coordinates": [
                    12.490039,
                    41.9503611
                ]
            },
            "properties": {
                "name": "Tor di Quinto"
            }
        },
        {
            "type": "Feature",
            "geometry": {
                "type": "Point",
                "coordinates": [
                    14.3282069,
                    41.068655
                ]
            },
            "properties": {
                "name": "Caserta"
            }
        },
        {
            "type": "Feature",
            "geometry": {
                "type": "Point",
                "coordinates": [
                    12.8649435,
                    41.9883617
                ]
            },
            "properties": {
                "name": "Castel Madama"
            }
        },
        {
            "type": "Feature",
            "geometry": {
                "type": "Point",
                "coordinates": [
                    16.4082676,
                    39.0425765
                ]
            },
            "properties": {
                "name": "Santa Margherita di Calabria"
            }
        },
        {
            "type": "Feature",
            "geometry": {
                "type": "Point",
                "coordinates": [
                    12.4612866,
                    41.9113757
                ]
            },
            "properties": {
                "name": "Dalla Chiesa"
            }
        },
        {
            "type": "Feature",
            "geometry": {
                "type": "Point",
                "coordinates": [
                    12.6461186,
                    41.8627739
                ]
            },
            "properties": {
                "name": "Grotte Celoni"
            }
        },
        {
            "type": "Feature",
            "geometry": {
                "type": "Point",
                "coordinates": [
                    14.2729455,
                    40.8529478
                ]
            },
            "properties": {
                "name": "Napoli Centrale"
            }
        },
        {
            "type": "Feature",
            "geometry": {
                "type": "Point",
                "coordinates": [
                    12.3806912,
                    42.0028528
                ]
            },
            "properties": {
                "name": "La Storta"
            }
        },
        {
            "type": "Feature",
            "geometry": {
                "type": "Point",
                "coordinates": [
                    12.4872444,
                    41.9315991
                ]
            },
            "properties": {
                "name": "Acqua Acetosa"
            }
        },
        {
            "type": "Feature",
            "geometry": {
                "type": "Point",
                "coordinates": [
                    12.34473,
                    41.8184083
                ]
            },
            "properties": {
                "name": "Ponte Galeria"
            }
        },
        {
            "type": "Feature",
            "geometry": {
                "type": "Point",
                "coordinates": [
                    12.5576763,
                    41.8094813
                ]
            },
            "properties": {
                "name": "Torricola"
            }
        },
        {
            "type": "Feature",
            "geometry": {
                "type": "Point",
                "coordinates": [
                    12.4817655,
                    41.8750004
                ]
            },
            "properties": {
                "name": "Roma Porta San Paolo"
            }
        },
        {
            "type": "Feature",
            "geometry": {
                "type": "Point",
                "coordinates": [
                    12.4894806,
                    42.001332
                ]
            },
            "properties": {
                "name": "La Giustiniana"
            }
        },
        {
            "type": "Feature",
            "geometry": {
                "type": "Point",
                "coordinates": [
                    12.4086483,
                    41.8247745
                ]
            },
            "properties": {
                "name": "Muratella"
            }
        },
        {
            "type": "Feature",
            "geometry": {
                "type": "Point",
                "coordinates": [
                    12.4551115,
                    41.8479018
                ]
            },
            "properties": {
                "name": "Villa Bonelli"
            }
        },
        {
            "type": "Feature",
            "geometry": {
                "type": "Point",
                "coordinates": [
                    12.4925044,
                    41.9337982
                ]
            },
            "properties": {
                "name": "Campi Sportivi"
            }
        },
        {
            "type": "Feature",
            "geometry": {
                "type": "Point",
                "coordinates": [
                    12.3191269,
                    41.8100197
                ]
            },
            "properties": {
                "name": "Fiera di Roma"
            }
        },
        {
            "type": "Feature",
            "geometry": {
                "type": "Point",
                "coordinates": [
                    12.3637412,
                    42.01463
                ]
            },
            "properties": {
                "name": "Olgiata"
            }
        },
        {
            "type": "Feature",
            "geometry": {
                "type": "Point",
                "coordinates": [
                    12.4661388,
                    41.8723848
                ]
            },
            "properties": {
                "name": "Roma Trastevere"
            }
        },
        {
            "type": "Feature",
            "geometry": {
                "type": "Point",
                "coordinates": [
                    12.4764638,
                    41.913065
                ]
            },
            "properties": {
                "name": "Flaminio"
            }
        },
        {
            "type": "Feature",
            "geometry": {
                "type": "Point",
                "coordinates": [
                    12.4867706,
                    41.9582613
                ]
            },
            "properties": {
                "name": "Due Ponti"
            }
        },
        {
            "type": "Feature",
            "geometry": {
                "type": "Point",
                "coordinates": [
                    12.4544672,
                    41.8960646
                ]
            },
            "properties": {
                "name": "Roma San Pietro"
            }
        },
        {
            "type": "Feature",
            "geometry": {
                "type": "Point",
                "coordinates": [
                    12.4968711,
                    41.9964871
                ]
            },
            "properties": {
                "name": "La Celsa"
            }
        },
        {
            "type": "Feature",
            "geometry": {
                "type": "Point",
                "coordinates": [
                    12.4388846,
                    41.9119079
                ]
            },
            "properties": {
                "name": "Appiano"
            }
        },
        {
            "type": "Feature",
            "geometry": {
                "type": "Point",
                "coordinates": [
                    12.4273722,
                    41.9278076
                ]
            },
            "properties": {
                "name": "Gemelli"
            }
        },
        {
            "type": "Feature",
            "geometry": {
                "type": "Point",
                "coordinates": [
                    12.2961862,
                    41.7998093
                ]
            },
            "properties": {
                "name": "Parco Leonardo"
            }
        },
        {
            "type": "Feature",
            "geometry": {
                "type": "Point",
                "coordinates": [
                    12.4163042,
                    41.9467027
                ]
            },
            "properties": {
                "name": "Roma San Filippo Neri"
            }
        },
        {
            "type": "Feature",
            "geometry": {
                "type": "Point",
                "coordinates": [
                    12.4936485,
                    41.9806528
                ]
            },
            "properties": {
                "name": "Centro RAI"
            }
        },
        {
            "type": "Feature",
            "geometry": {
                "type": "Point",
                "coordinates": [
                    12.3265007,
                    42.0618915
                ]
            },
            "properties": {
                "name": "Cesano di Roma"
            }
        },
        {
            "type": "Feature",
            "geometry": {
                "type": "Point",
                "coordinates": [
                    12.5688328,
                    41.8307643
                ]
            },
            "properties": {
                "name": "Capannelle"
            }
        },
        {
            "type": "Feature",
            "geometry": {
                "type": "Point",
                "coordinates": [
                    12.4813113,
                    41.926569
                ]
            },
            "properties": {
                "name": "Euclide"
            }
        },
        {
            "type": "Feature",
            "geometry": {
                "type": "Point",
                "coordinates": [
                    12.430979,
                    41.8342959
                ]
            },
            "properties": {
                "name": "Magliana"
            }
        },
        {
            "type": "Feature",
            "geometry": {
                "type": "Point",
                "coordinates": [
                    12.5084554,
                    41.9791768
                ]
            },
            "properties": {
                "name": "Fidene"
            }
        },
        {
            "type": "Feature",
            "geometry": {
                "type": "Point",
                "coordinates": [
                    12.4587872,
                    41.8785982
                ]
            },
            "properties": {
                "name": "Quattro Venti"
            }
        },
        {
            "type": "Feature",
            "geometry": {
                "type": "Point",
                "coordinates": [
                    12.4633029,
                    41.8395597
                ]
            },
            "properties": {
                "name": "EUR Magliana"
            }
        },
        {
            "type": "Feature",
            "geometry": {
                "type": "Point",
                "coordinates": [
                    12.4088535,
                    41.9687738
                ]
            },
            "properties": {
                "name": "Ipogeo degli Ottavi"
            }
        },
        {
            "type": "Feature",
            "geometry": {
                "type": "Point",
                "coordinates": [
                    12.5310879,
                    41.9110822
                ]
            },
            "properties": {
                "name": "Roma Tiburtina"
            }
        },
        {
            "type": "Feature",
            "geometry": {
                "type": "Point",
                "coordinates": [
                    12.4421536,
                    41.9029987
                ]
            },
            "properties": {
                "name": "Valle Aurelia"
            }
        },
        {
            "type": "Feature",
            "geometry": {
                "type": "Point",
                "coordinates": [
                    12.2518369,
                    41.7934987
                ]
            },
            "properties": {
                "name": "Fiumicino Aeroporto"
            }
        },
        {
            "type": "Feature",
            "geometry": {
                "type": "Point",
                "coordinates": [
                    12.4930507,
                    41.9742823
                ]
            },
            "properties": {
                "name": "Saxa Rubra"
            }
        },
        {
            "type": "Feature",
            "geometry": {
                "type": "Point",
                "coordinates": [
                    12.4944997,
                    41.9881279
                ]
            },
            "properties": {
                "name": "Labaro"
            }
        },
        {
            "type": "Feature",
            "geometry": {
                "type": "Point",
                "coordinates": [
                    12.496373,
                    41.9390621
                ]
            },
            "properties": {
                "name": "Monte Antenne"
            }
        },
        {
            "type": "Feature",
            "geometry": {
                "type": "Point",
                "coordinates": [
                    12.5236721,
                    41.8792368
                ]
            },
            "properties": {
                "name": "Roma Tuscolana"
            }
        },
        {
            "type": "Feature",
            "geometry": {
                "type": "Point",
                "coordinates": [
                    12.4038764,
                    41.7953268
                ]
            },
            "properties": {
                "name": "Vitinia"
            }
        },
        {
            "type": "Feature",
            "geometry": {
                "type": "Point",
                "coordinates": [
                    12.4217414,
                    41.9390641
                ]
            },
            "properties": {
                "name": "Roma Monte Mario"
            }
        },
        {
            "type": "Feature",
            "geometry": {
                "type": "Point",
                "coordinates": [
                    12.4905226,
                    41.9657601
                ]
            },
            "properties": {
                "name": "Grottarossa"
            }
        },
        {
            "type": "Feature",
            "geometry": {
                "type": "Point",
                "coordinates": [
                    12.4367553,
                    41.8195321
                ]
            },
            "properties": {
                "name": "Tor di Valle"
            }
        },
        {
            "type": "Feature",
            "geometry": {
                "type": "Point",
                "coordinates": [
                    12.488919,
                    42.0110565
                ]
            },
            "properties": {
                "name": "Montebello"
            }
        },
        {
            "type": "Feature",
            "geometry": {
                "type": "Point",
                "coordinates": [
                    12.4781845,
                    41.8558883
                ]
            },
            "properties": {
                "name": "Basilica San Paolo"
            }
        },
        {
            "type": "Feature",
            "geometry": {
                "type": "Point",
                "coordinates": [
                    12.4033448,
                    41.9852329
                ]
            },
            "properties": {
                "name": "La Giustiniana"
            }
        },
        {
            "type": "Feature",
            "geometry": {
                "type": "Point",
                "coordinates": [
                    12.5159705,
                    41.9240723
                ]
            },
            "properties": {
                "name": "Sant'Agnese/Annibaliano"
            }
        },
        {
            "type": "Feature",
            "geometry": {
                "type": "Point",
                "coordinates": [
                    12.4101423,
                    41.9603566
                ]
            },
            "properties": {
                "name": "Ottavia"
            }
        },
        {
            "type": "Feature",
            "geometry": {
                "type": "Point",
                "coordinates": [
                    12.4041011,
                    42.2956655
                ]
            },
            "properties": {
                "name": "Catalano"
            }
        },
        {
            "type": "Feature",
            "geometry": {
                "type": "Point",
                "coordinates": [
                    12.3400953,
                    42.3500464
                ]
            },
            "properties": {
                "name": "Corchiano"
            }
        },
        {
            "type": "Feature",
            "geometry": {
                "type": "Point",
                "coordinates": [
                    12.3518083,
                    42.305651
                ]
            },
            "properties": {
                "name": "Faleri"
            }
        },
        {
            "type": "Feature",
            "geometry": {
                "type": "Point",
                "coordinates": [
                    12.2049935,
                    42.4400772
                ]
            },
            "properties": {
                "name": "Fornacchia"
            }
        },
        {
            "type": "Feature",
            "geometry": {
                "type": "Point",
                "coordinates": [
                    12.4787208,
                    42.1480531
                ]
            },
            "properties": {
                "name": "Magliano Romano"
            }
        },
        {
            "type": "Feature",
            "geometry": {
                "type": "Point",
                "coordinates": [
                    12.4721653,
                    42.1749295
                ]
            },
            "properties": {
                "name": "Morolo"
            }
        },
        {
            "type": "Feature",
            "geometry": {
                "type": "Point",
                "coordinates": [
                    12.6483893,
                    42.1556138
                ]
            },
            "properties": {
                "name": "Fara Sabina-Montelibretti"
            }
        },
        {
            "type": "Feature",
            "geometry": {
                "type": "Point",
                "coordinates": [
                    12.5232973,
                    41.9327128
                ]
            },
            "properties": {
                "name": "Roma Nomentana"
            }
        },
        {
            "type": "Feature",
            "geometry": {
                "type": "Point",
                "coordinates": [
                    11.7987362,
                    42.0881223
                ]
            },
            "properties": {
                "name": "Civitavecchia"
            }
        },
        {
            "type": "Feature",
            "geometry": {
                "type": "Point",
                "coordinates": [
                    12.0819878,
                    41.9532786
                ]
            },
            "properties": {
                "name": "Ladispoli - Cerveteri"
            }
        },
        {
            "type": "Feature",
            "geometry": {
                "type": "Point",
                "coordinates": [
                    12.2373449,
                    41.8789807
                ]
            },
            "properties": {
                "name": "Maccarese - Fregene"
            }
        },
        {
            "type": "Feature",
            "geometry": {
                "type": "Point",
                "coordinates": [
                    12.0477861,
                    41.979226
                ]
            },
            "properties": {
                "name": "Marina di Cerveteri"
            }
        },
        {
            "type": "Feature",
            "geometry": {
                "type": "Point",
                "coordinates": [
                    12.3941868,
                    41.8830447
                ]
            },
            "properties": {
                "name": "Roma Aurelia"
            }
        },
        {
            "type": "Feature",
            "geometry": {
                "type": "Point",
                "coordinates": [
                    11.9690479,
                    42.0206506
                ]
            },
            "properties": {
                "name": "Santa Severa"
            }
        },
        {
            "type": "Feature",
            "geometry": {
                "type": "Point",
                "coordinates": [
                    12.1833367,
                    41.9242726
                ]
            },
            "properties": {
                "name": "Torre in Pietra - Palidoro"
            }
        },
        {
            "type": "Feature",
            "geometry": {
                "type": "Point",
                "coordinates": [
                    11.863058,
                    42.0359942
                ]
            },
            "properties": {
                "name": "Santa Marinella"
            }
        },
        {
            "type": "Feature",
            "geometry": {
                "type": "Point",
                "coordinates": [
                    14.2877417,
                    41.0359327
                ]
            },
            "properties": {
                "name": "Marcianise"
            }
        },
        {
            "type": "Feature",
            "geometry": {
                "type": "Point",
                "coordinates": [
                    14.3032808,
                    41.0623689
                ]
            },
            "properties": {
                "name": "Recale"
            }
        },
        {
            "type": "Feature",
            "geometry": {
                "type": "Point",
                "coordinates": [
                    14.3805934,
                    41.0359754
                ]
            },
            "properties": {
                "name": "Maddaloni Inferiore"
            }
        },
        {
            "type": "Feature",
            "geometry": {
                "type": "Point",
                "coordinates": [
                    13.2169561,
                    42.0970224
                ]
            },
            "properties": {
                "name": "Sante Marie"
            }
        },
        {
            "type": "Feature",
            "geometry": {
                "type": "Point",
                "coordinates": [
                    10.1391736,
                    44.0372043
                ]
            },
            "properties": {
                "name": "Massa"
            }
        },
        {
            "type": "Feature",
            "geometry": {
                "type": "Point",
                "coordinates": [
                    10.1383731,
                    44.0367202
                ]
            },
            "properties": {
                "name": "Massa"
            }
        },
        {
            "type": "Feature",
            "geometry": {
                "type": "Point",
                "coordinates": [
                    12.2329783,
                    45.5619727
                ]
            },
            "properties": {
                "name": "Stazione di Mogliano Veneto"
            }
        },
        {
            "type": "Feature",
            "geometry": {
                "type": "Point",
                "coordinates": [
                    12.2316221,
                    45.6036248
                ]
            },
            "properties": {
                "name": "Stazione di Preganziol"
            }
        },
        {
            "type": "Feature",
            "geometry": {
                "type": "Point",
                "coordinates": [
                    12.3939898,
                    41.8832896
                ]
            },
            "properties": {
                "name": "Staz.ne Aurelia"
            }
        },
        {
            "type": "Feature",
            "geometry": {
                "type": "Point",
                "coordinates": [
                    15.1566745,
                    41.9219026
                ]
            },
            "properties": {
                "name": "Chieuti Serracapriola"
            }
        },
        {
            "type": "Feature",
            "geometry": {
                "type": "Point",
                "coordinates": [
                    16.2875928,
                    39.7072643
                ]
            },
            "properties": {
                "name": "Spezzano Albanese Terme"
            }
        },
        {
            "type": "Feature",
            "geometry": {
                "type": "Point",
                "coordinates": [
                    12.4707101,
                    41.8286692
                ]
            },
            "properties": {
                "name": "EUR Fermi"
            }
        },
        {
            "type": "Feature",
            "geometry": {
                "type": "Point",
                "coordinates": [
                    15.4454969,
                    41.7789535
                ]
            },
            "properties": {
                "name": "Apricena Citt\u00e0"
            }
        },
        {
            "type": "Feature",
            "geometry": {
                "type": "Point",
                "coordinates": [
                    12.4497404,
                    41.973146
                ]
            },
            "properties": {
                "name": "Grottarossa/Istituto ASISIUM"
            }
        },
        {
            "type": "Feature",
            "geometry": {
                "type": "Point",
                "coordinates": [
                    11.6623782,
                    45.2284147
                ]
            },
            "properties": {
                "name": "Este Centro"
            }
        },
        {
            "type": "Feature",
            "geometry": {
                "type": "Point",
                "coordinates": [
                    13.2476366,
                    41.6556888
                ]
            },
            "properties": {
                "name": "Ferentino"
            }
        },
        {
            "type": "Feature",
            "geometry": {
                "type": "Point",
                "coordinates": [
                    13.5473625,
                    41.5278145
                ]
            },
            "properties": {
                "name": "Isoletta-San Giovanni Incarico"
            }
        },
        {
            "type": "Feature",
            "geometry": {
                "type": "Point",
                "coordinates": [
                    13.1945861,
                    41.6669923
                ]
            },
            "properties": {
                "name": "Morolo"
            }
        },
        {
            "type": "Feature",
            "geometry": {
                "type": "Point",
                "coordinates": [
                    12.9913434,
                    42.026498
                ]
            },
            "properties": {
                "name": "Roviano"
            }
        },
        {
            "type": "Feature",
            "geometry": {
                "type": "Point",
                "coordinates": [
                    12.6809329,
                    41.8651593
                ]
            },
            "properties": {
                "name": "Bolognetta"
            }
        },
        {
            "type": "Feature",
            "geometry": {
                "type": "Point",
                "coordinates": [
                    12.6672618,
                    41.8646918
                ]
            },
            "properties": {
                "name": "Borghesiana"
            }
        },
        {
            "type": "Feature",
            "geometry": {
                "type": "Point",
                "coordinates": [
                    12.6581296,
                    41.8649024
                ]
            },
            "properties": {
                "name": "Due Leoni - Fontana Candida"
            }
        },
        {
            "type": "Feature",
            "geometry": {
                "type": "Point",
                "coordinates": [
                    12.6876098,
                    41.8655206
                ]
            },
            "properties": {
                "name": "Finocchio"
            }
        },
        {
            "type": "Feature",
            "geometry": {
                "type": "Point",
                "coordinates": [
                    12.6980872,
                    41.865673
                ]
            },
            "properties": {
                "name": "Graniti"
            }
        },
        {
            "type": "Feature",
            "geometry": {
                "type": "Point",
                "coordinates": [
                    12.7076135,
                    41.8656767
                ]
            },
            "properties": {
                "name": "Monte Compatri - Pantano"
            }
        },
        {
            "type": "Feature",
            "geometry": {
                "type": "Point",
                "coordinates": [
                    12.6255783,
                    41.8643334
                ]
            },
            "properties": {
                "name": "Torre Angela"
            }
        },
        {
            "type": "Feature",
            "geometry": {
                "type": "Point",
                "coordinates": [
                    12.6355752,
                    41.8641551
                ]
            },
            "properties": {
                "name": "Torre Gaia"
            }
        },
        {
            "type": "Feature",
            "geometry": {
                "type": "Point",
                "coordinates": [
                    12.6168368,
                    41.8633135
                ]
            },
            "properties": {
                "name": "Torrenova"
            }
        },
        {
            "type": "Feature",
            "geometry": {
                "type": "Point",
                "coordinates": [
                    16.868134,
                    41.1184613
                ]
            },
            "properties": {
                "name": "Bari Centrale FAL"
            }
        },
        {
            "type": "Feature",
            "geometry": {
                "type": "Point",
                "coordinates": [
                    12.6105711,
                    41.8641331
                ]
            },
            "properties": {
                "name": "Giardinetti"
            }
        },
        {
            "type": "Feature",
            "geometry": {
                "type": "Point",
                "coordinates": [
                    12.5681295,
                    41.8748252
                ]
            },
            "properties": {
                "name": "Parco di Centocelle"
            }
        },
        {
            "type": "Feature",
            "geometry": {
                "type": "Point",
                "coordinates": [
                    12.5971565,
                    41.8666209
                ]
            },
            "properties": {
                "name": "Torre Maura"
            }
        },
        {
            "type": "Feature",
            "geometry": {
                "type": "Point",
                "coordinates": [
                    12.5865889,
                    41.8690198
                ]
            },
            "properties": {
                "name": "Torre Spaccata"
            }
        },
        {
            "type": "Feature",
            "geometry": {
                "type": "Point",
                "coordinates": [
                    12.5621065,
                    41.8862262
                ]
            },
            "properties": {
                "name": "Gardenie"
            }
        },
        {
            "type": "Feature",
            "geometry": {
                "type": "Point",
                "coordinates": [
                    12.518277,
                    41.886837
                ]
            },
            "properties": {
                "name": "Lodi"
            }
        },
        {
            "type": "Feature",
            "geometry": {
                "type": "Point",
                "coordinates": [
                    12.5405216,
                    41.8874172
                ]
            },
            "properties": {
                "name": "Malatesta"
            }
        },
        {
            "type": "Feature",
            "geometry": {
                "type": "Point",
                "coordinates": [
                    12.5665071,
                    41.8811408
                ]
            },
            "properties": {
                "name": "Mirti"
            }
        },
        {
            "type": "Feature",
            "geometry": {
                "type": "Point",
                "coordinates": [
                    12.5281685,
                    41.8884537
                ]
            },
            "properties": {
                "name": "Pigneto"
            }
        },
        {
            "type": "Feature",
            "geometry": {
                "type": "Point",
                "coordinates": [
                    12.5513611,
                    41.8890368
                ]
            },
            "properties": {
                "name": "Teano"
            }
        },
        {
            "type": "Feature",
            "geometry": {
                "type": "Point",
                "coordinates": [
                    12.5788298,
                    41.8712904
                ]
            },
            "properties": {
                "name": "Alessandrino"
            }
        },
        {
            "type": "Feature",
            "geometry": {
                "type": "Point",
                "coordinates": [
                    16.8681555,
                    41.1182633
                ]
            },
            "properties": {
                "name": "Bari Centrale Bari Nord"
            }
        },
        {
            "type": "Feature",
            "geometry": {
                "type": "Point",
                "coordinates": [
                    11.0339061,
                    45.8908227
                ]
            },
            "properties": {
                "name": "Rovereto"
            }
        },
        {
            "type": "Feature",
            "geometry": {
                "type": "Point",
                "coordinates": [
                    10.9823226,
                    45.4290927
                ]
            },
            "properties": {
                "name": "Verona Porta Nuova"
            }
        },
        {
            "type": "Feature",
            "geometry": {
                "type": "Point",
                "coordinates": [
                    17.1233531,
                    40.8567563
                ]
            },
            "properties": {
                "name": "Putignano"
            }
        },
        {
            "type": "Feature",
            "geometry": {
                "type": "Point",
                "coordinates": [
                    17.3315315,
                    40.7005269
                ]
            },
            "properties": {
                "name": "Martina Franca"
            }
        },
        {
            "type": "Feature",
            "geometry": {
                "type": "Point",
                "coordinates": [
                    16.8700416,
                    41.1175372
                ]
            },
            "properties": {
                "name": "Bari Centrale"
            }
        },
        {
            "type": "Feature",
            "geometry": {
                "type": "Point",
                "coordinates": [
                    16.8799652,
                    41.1172347
                ]
            },
            "properties": {
                "name": "Bari Sud-Est"
            }
        },
        {
            "type": "Feature",
            "geometry": {
                "type": "Point",
                "coordinates": [
                    16.8520365,
                    41.1180895
                ]
            },
            "properties": {
                "name": "Brigata Bari"
            }
        },
        {
            "type": "Feature",
            "geometry": {
                "type": "Point",
                "coordinates": [
                    16.8619501,
                    41.1180502
                ]
            },
            "properties": {
                "name": "Quintino Sella"
            }
        },
        {
            "type": "Feature",
            "geometry": {
                "type": "Point",
                "coordinates": [
                    16.8720543,
                    41.0064916
                ]
            },
            "properties": {
                "name": "Adelfia"
            }
        },
        {
            "type": "Feature",
            "geometry": {
                "type": "Point",
                "coordinates": [
                    16.8712508,
                    41.0686456
                ]
            },
            "properties": {
                "name": "Bari - Ceglie - Carbonara"
            }
        },
        {
            "type": "Feature",
            "geometry": {
                "type": "Point",
                "coordinates": [
                    16.9146184,
                    40.9545271
                ]
            },
            "properties": {
                "name": "Casamassima"
            }
        },
        {
            "type": "Feature",
            "geometry": {
                "type": "Point",
                "coordinates": [
                    16.8718101,
                    41.0611784
                ]
            },
            "properties": {
                "name": "Bari La Fitta"
            }
        },
        {
            "type": "Feature",
            "geometry": {
                "type": "Point",
                "coordinates": [
                    16.9001275,
                    41.0902247
                ]
            },
            "properties": {
                "name": "Mungivacca"
            }
        },
        {
            "type": "Feature",
            "geometry": {
                "type": "Point",
                "coordinates": [
                    17.1281274,
                    40.7955612
                ]
            },
            "properties": {
                "name": "Noci"
            }
        },
        {
            "type": "Feature",
            "geometry": {
                "type": "Point",
                "coordinates": [
                    17.1078706,
                    40.8288007
                ]
            },
            "properties": {
                "name": "Putignano in Monte Laureto"
            }
        },
        {
            "type": "Feature",
            "geometry": {
                "type": "Point",
                "coordinates": [
                    16.949813,
                    40.893112
                ]
            },
            "properties": {
                "name": "Sammichele"
            }
        },
        {
            "type": "Feature",
            "geometry": {
                "type": "Point",
                "coordinates": [
                    17.0875489,
                    40.8702462
                ]
            },
            "properties": {
                "name": "Putignano San Pietro Piturno"
            }
        },
        {
            "type": "Feature",
            "geometry": {
                "type": "Point",
                "coordinates": [
                    17.0173561,
                    40.9143532
                ]
            },
            "properties": {
                "name": "Turi"
            }
        },
        {
            "type": "Feature",
            "geometry": {
                "type": "Point",
                "coordinates": [
                    16.878301,
                    41.0317659
                ]
            },
            "properties": {
                "name": "Valenzano Lamie"
            }
        },
        {
            "type": "Feature",
            "geometry": {
                "type": "Point",
                "coordinates": [
                    16.8789878,
                    41.0430745
                ]
            },
            "properties": {
                "name": "Valenzano"
            }
        },
        {
            "type": "Feature",
            "geometry": {
                "type": "Point",
                "coordinates": [
                    16.8464664,
                    41.120285
                ]
            },
            "properties": {
                "name": "Francesco Crispi"
            }
        },
        {
            "type": "Feature",
            "geometry": {
                "type": "Point",
                "coordinates": [
                    13.0131866,
                    42.0458763
                ]
            },
            "properties": {
                "name": "Arsoli"
            }
        },
        {
            "type": "Feature",
            "geometry": {
                "type": "Point",
                "coordinates": [
                    13.1505743,
                    42.0971073
                ]
            },
            "properties": {
                "name": "Colli di Monte Bove"
            }
        },