{
    "type": "FeatureCollection",
    "features": [
        {
            "type": "Feature",
            "geometry": {
                "type": "Point",
                "coordinates": [
                    10.8031017,
                    55.3140171
                ]
            },
            "properties": {
                "name": "Nyborg"
            }
        },
        {
            "type": "Feature",
            "geometry": {
                "type": "Point",
                "coordinates": [
                    12.4591846,
                    55.6648012
                ]
            },
            "properties": {
                "name": "R\u00f8dovre"
            }
        },
        {
            "type": "Feature",
            "geometry": {
                "type": "Point",
                "coordinates": [
                    12.3867814,
                    55.6233618
                ]
            },
            "properties": {
                "name": "Vallensb\u00e6k"
            }
        },
        {
            "type": "Feature",
            "geometry": {
                "type": "Point",
                "coordinates": [
                    12.4218611,
                    55.6209797
                ]
            },
            "properties": {
                "name": "Br\u00f8ndby Strand"
            }
        },
        {
            "type": "Feature",
            "geometry": {
                "type": "Point",
                "coordinates": [
                    12.4555838,
                    55.6256622
                ]
            },
            "properties": {
                "name": "Aved\u00f8re"
            }
        },
        {
            "type": "Feature",
            "geometry": {
                "type": "Point",
                "coordinates": [
                    12.483656,
                    55.6294229
                ]
            },
            "properties": {
                "name": "Friheden"
            }
        },
        {
            "type": "Feature",
            "geometry": {
                "type": "Point",
                "coordinates": [
                    12.4998659,
                    55.6397683
                ]
            },
            "properties": {
                "name": "\u00c5marken"
            }
        },
        {
            "type": "Feature",
            "geometry": {
                "type": "Point",
                "coordinates": [
                    12.5267123,
                    55.6515213
                ]
            },
            "properties": {
                "name": "Sj\u00e6l\u00f8r"
            }
        },
        {
            "type": "Feature",
            "geometry": {
                "type": "Point",
                "coordinates": [
                    12.5376084,
                    55.6548839
                ]
            },
            "properties": {
                "name": "Sydhavn"
            }
        },
        {
            "type": "Feature",
            "geometry": {
                "type": "Point",
                "coordinates": [
                    12.3340961,
                    55.5979984
                ]
            },
            "properties": {
                "name": "Hundige"
            }
        },
        {
            "type": "Feature",
            "geometry": {
                "type": "Point",
                "coordinates": [
                    12.3578947,
                    55.613379
                ]
            },
            "properties": {
                "name": "Ish\u00f8j"
            }
        },
        {
            "type": "Feature",
            "geometry": {
                "type": "Point",
                "coordinates": [
                    12.2697441,
                    55.5662516
                ]
            },
            "properties": {
                "name": "Karlslunde"
            }
        },
        {
            "type": "Feature",
            "geometry": {
                "type": "Point",
                "coordinates": [
                    12.2181028,
                    55.5333354
                ]
            },
            "properties": {
                "name": "Solr\u00f8d Strand"
            }
        },
        {
            "type": "Feature",
            "geometry": {
                "type": "Point",
                "coordinates": [
                    12.2089516,
                    55.5214056
                ]
            },
            "properties": {
                "name": "Jersie"
            }
        },
        {
            "type": "Feature",
            "geometry": {
                "type": "Point",
                "coordinates": [
                    12.1866997,
                    55.4579613
                ]
            },
            "properties": {
                "name": "K\u00f8ge"
            }
        },
        {
            "type": "Feature",
            "geometry": {
                "type": "Point",
                "coordinates": [
                    12.2966496,
                    55.5816884
                ]
            },
            "properties": {
                "name": "Greve"
            }
        },
        {
            "type": "Feature",
            "geometry": {
                "type": "Point",
                "coordinates": [
                    8.6141987,
                    57.1206037
                ]
            }
        },
        {
            "type": "Feature",
            "geometry": {
                "type": "Point",
                "coordinates": [
                    9.358963,
                    54.8234993
                ]
            },
            "properties": {
                "name": "Padborg"
            }
        },
        {
            "type": "Feature",
            "geometry": {
                "type": "Point",
                "coordinates": [
                    12.0661855,
                    55.8349843
                ]
            },
            "properties": {
                "name": "Frederikssund"
            }
        },
        {
            "type": "Feature",
            "geometry": {
                "type": "Point",
                "coordinates": [
                    12.1593166,
                    55.7957669
                ]
            },
            "properties": {
                "name": "\u00d8lstykke"
            }
        },
        {
            "type": "Feature",
            "geometry": {
                "type": "Point",
                "coordinates": [
                    12.1854997,
                    55.7797855
                ]
            },
            "properties": {
                "name": "Egedal"
            }
        },
        {
            "type": "Feature",
            "geometry": {
                "type": "Point",
                "coordinates": [
                    12.2405908,
                    55.749917
                ]
            },
            "properties": {
                "name": "Veks\u00f8"
            }
        },
        {
            "type": "Feature",
            "geometry": {
                "type": "Point",
                "coordinates": [
                    12.4937549,
                    55.6643892
                ]
            },
            "properties": {
                "name": "Dansh\u00f8j"
            }
        },
        {
            "type": "Feature",
            "geometry": {
                "type": "Point",
                "coordinates": [
                    12.4931707,
                    55.6720657
                ]
            },
            "properties": {
                "name": "\u00c5lholm"
            }
        },
        {
            "type": "Feature",
            "geometry": {
                "type": "Point",
                "coordinates": [
                    12.4923389,
                    55.6778138
                ]
            },
            "properties": {
                "name": "KB Hallen"
            }
        },
        {
            "type": "Feature",
            "geometry": {
                "type": "Point",
                "coordinates": [
                    12.4990504,
                    55.6597688
                ]
            },
            "properties": {
                "name": "Vigerslev All\u00e9"
            }
        },
        {
            "type": "Feature",
            "geometry": {
                "type": "Point",
                "coordinates": [
                    12.5159547,
                    55.6526189
                ]
            },
            "properties": {
                "name": "Ny Ellebjerg"
            }
        },
        {
            "type": "Feature",
            "geometry": {
                "type": "Point",
                "coordinates": [
                    12.4410201,
                    55.6650504
                ]
            },
            "properties": {
                "name": "Br\u00f8ndby\u00f8ster"
            }
        },
        {
            "type": "Feature",
            "geometry": {
                "type": "Point",
                "coordinates": [
                    12.3987613,
                    55.663094
                ]
            },
            "properties": {
                "name": "Glostrup"
            }
        },
        {
            "type": "Feature",
            "geometry": {
                "type": "Point",
                "coordinates": [
                    12.4750201,
                    55.6644921
                ]
            },
            "properties": {
                "name": "Hvidovre"
            }
        },
        {
            "type": "Feature",
            "geometry": {
                "type": "Point",
                "coordinates": [
                    12.5040869,
                    55.6673952
                ]
            },
            "properties": {
                "name": "Langgade"
            }
        },
        {
            "type": "Feature",
            "geometry": {
                "type": "Point",
                "coordinates": [
                    12.302094,
                    55.6524851
                ]
            },
            "properties": {
                "name": "Taastrup"
            }
        },
        {
            "type": "Feature",
            "geometry": {
                "type": "Point",
                "coordinates": [
                    12.3537736,
                    55.6581188
                ]
            },
            "properties": {
                "name": "Albertslund"
            }
        },
        {
            "type": "Feature",
            "geometry": {
                "type": "Point",
                "coordinates": [
                    12.5794454,
                    55.6284116
                ]
            },
            "properties": {
                "name": "\u00d8restad"
            }
        },
        {
            "type": "Feature",
            "geometry": {
                "type": "Point",
                "coordinates": [
                    9.3933125,
                    55.9661434
                ]
            },
            "properties": {
                "name": "N\u00f8rre Snede Rutebilstation"
            }
        },
        {
            "type": "Feature",
            "geometry": {
                "type": "Point",
                "coordinates": [
                    8.2230599,
                    56.5209522
                ]
            },
            "properties": {
                "name": "Bonnet Station"
            }
        },
        {
            "type": "Feature",
            "geometry": {
                "type": "Point",
                "coordinates": [
                    9.2864145,
                    55.4279941
                ]
            },
            "properties": {
                "name": "Vamdrup Station"
            }
        },
        {
            "type": "Feature",
            "geometry": {
                "type": "Point",
                "coordinates": [
                    9.4811878,
                    55.4905195
                ]
            },
            "properties": {
                "name": "Kolding"
            }
        },
        {
            "type": "Feature",
            "geometry": {
                "type": "Point",
                "coordinates": [
                    8.1946652,
                    56.6567387
                ]
            },
            "properties": {
                "name": "R\u00f8nland"
            }
        },
        {
            "type": "Feature",
            "geometry": {
                "type": "Point",
                "coordinates": [
                    9.7395141,
                    55.5683885
                ]
            },
            "properties": {
                "name": "Fredericia"
            }
        },
        {
            "type": "Feature",
            "geometry": {
                "type": "Point",
                "coordinates": [
                    9.3038636,
                    55.4802044
                ]
            },
            "properties": {
                "name": "Lunderskov Station"
            }
        },
        {
            "type": "Feature",
            "geometry": {
                "type": "Point",
                "coordinates": [
                    10.2694085,
                    56.2449215
                ]
            },
            "properties": {
                "name": "Hjortsh\u00f8j"
            }
        },
        {
            "type": "Feature",
            "geometry": {
                "type": "Point",
                "coordinates": [
                    10.4171861,
                    57.5320953
                ]
            },
            "properties": {
                "name": "Jerup"
            }
        },
        {
            "type": "Feature",
            "geometry": {
                "type": "Point",
                "coordinates": [
                    10.490048,
                    57.4899617
                ]
            },
            "properties": {
                "name": "Strandby"
            }
        },
        {
            "type": "Feature",
            "geometry": {
                "type": "Point",
                "coordinates": [
                    10.4453825,
                    57.5047875
                ]
            },
            "properties": {
                "name": "Rimmen"
            }
        },
        {
            "type": "Feature",
            "geometry": {
                "type": "Point",
                "coordinates": [
                    10.3137828,
                    56.3207331
                ]
            },
            "properties": {
                "name": "Hornslet"
            }
        },
        {
            "type": "Feature",
            "geometry": {
                "type": "Point",
                "coordinates": [
                    10.1499565,
                    55.9714298
                ]
            },
            "properties": {
                "name": "Odder Busterminal"
            }
        },
        {
            "type": "Feature",
            "geometry": {
                "type": "Point",
                "coordinates": [
                    10.8797204,
                    56.412562
                ]
            },
            "properties": {
                "name": "Grenaa"
            }
        },
        {
            "type": "Feature",
            "geometry": {
                "type": "Point",
                "coordinates": [
                    10.2345921,
                    56.2308064
                ]
            },
            "properties": {
                "name": "Lystrup"
            }
        },
        {
            "type": "Feature",
            "geometry": {
                "type": "Point",
                "coordinates": [
                    10.3175502,
                    56.2760178
                ]
            },
            "properties": {
                "name": "L\u00f8gten"
            }
        },
        {
            "type": "Feature",
            "geometry": {
                "type": "Point",
                "coordinates": [
                    10.3760183,
                    56.339328
                ]
            },
            "properties": {
                "name": "M\u00f8rke"
            }
        },
        {
            "type": "Feature",
            "geometry": {
                "type": "Point",
                "coordinates": [
                    10.3031722,
                    56.2618784
                ]
            },
            "properties": {
                "name": "Sk\u00f8dstrup"
            }
        },
        {
            "type": "Feature",
            "geometry": {
                "type": "Point",
                "coordinates": [
                    9.9745215,
                    55.3960714
                ]
            },
            "properties": {
                "name": "Gelsted"
            }
        },
        {
            "type": "Feature",
            "geometry": {
                "type": "Point",
                "coordinates": [
                    9.9168667,
                    57.0429135
                ]
            },
            "properties": {
                "name": "Aalborg"
            }
        },
        {
            "type": "Feature",
            "geometry": {
                "type": "Point",
                "coordinates": [
                    9.5369404,
                    55.7061129
                ]
            },
            "properties": {
                "name": "Vejle"
            }
        },
        {
            "type": "Feature",
            "geometry": {
                "type": "Point",
                "coordinates": [
                    12.5652999,
                    55.6725496
                ]
            },
            "properties": {
                "name": "K\u00f8benhavn H"
            }
        },
        {
            "type": "Feature",
            "geometry": {
                "type": "Point",
                "coordinates": [
                    9.3328242,
                    55.0696351
                ]
            },
            "properties": {
                "name": "R\u00f8dekro Station"
            }
        },
        {
            "type": "Feature",
            "geometry": {
                "type": "Point",
                "coordinates": [
                    9.9246973,
                    56.0435631
                ]
            },
            "properties": {
                "name": "Skanderborg"
            }
        },
        {
            "type": "Feature",
            "geometry": {
                "type": "Point",
                "coordinates": [
                    11.9607827,
                    55.3294812
                ]
            },
            "properties": {
                "name": "Haslev"
            }
        },
        {
            "type": "Feature",
            "geometry": {
                "type": "Point",
                "coordinates": [
                    12.0996554,
                    55.5728238
                ]
            },
            "properties": {
                "name": "Gadstrup"
            }
        },
        {
            "type": "Feature",
            "geometry": {
                "type": "Point",
                "coordinates": [
                    12.5884166,
                    55.6931925
                ]
            },
            "properties": {
                "name": "\u00d8sterport"
            }
        },
        {
            "type": "Feature",
            "geometry": {
                "type": "Point",
                "coordinates": [
                    12.5719819,
                    55.6834858
                ]
            },
            "properties": {
                "name": "N\u00f8rreport"
            }
        },
        {
            "type": "Feature",
            "geometry": {
                "type": "Point",
                "coordinates": [
                    9.8355171,
                    55.8627441
                ]
            },
            "properties": {
                "name": "Horsens"
            }
        },
        {
            "type": "Feature",
            "geometry": {
                "type": "Point",
                "coordinates": [
                    11.1349459,
                    55.3572
                ]
            },
            "properties": {
                "name": "Kors\u00f8r"
            }
        },
        {
            "type": "Feature",
            "geometry": {
                "type": "Point",
                "coordinates": [
                    10.5866724,
                    55.3617364
                ]
            },
            "properties": {
                "name": "Langeskov"
            }
        },
        {
            "type": "Feature",
            "geometry": {
                "type": "Point",
                "coordinates": [
                    10.3861556,
                    55.4017528
                ]
            },
            "properties": {
                "name": "Odense"
            }
        },
        {
            "type": "Feature",
            "geometry": {
                "type": "Point",
                "coordinates": [
                    9.870742,
                    55.4601408
                ]
            },
            "properties": {
                "name": "N\u00f8rre Aaby"
            }
        },
        {
            "type": "Feature",
            "geometry": {
                "type": "Point",
                "coordinates": [
                    9.7347382,
                    55.5015956
                ]
            },
            "properties": {
                "name": "Middelfart"
            }
        },
        {
            "type": "Feature",
            "geometry": {
                "type": "Point",
                "coordinates": [
                    9.258146,
                    54.9361255
                ]
            },
            "properties": {
                "name": "Tinglev Station"
            }
        },
        {
            "type": "Feature",
            "geometry": {
                "type": "Point",
                "coordinates": [
                    10.2075025,
                    56.1672929
                ]
            },
            "properties": {
                "name": "Universitetsparken"
            }
        },
        {
            "type": "Feature",
            "geometry": {
                "type": "Point",
                "coordinates": [
                    10.2114018,
                    56.161791
                ]
            },
            "properties": {
                "name": "N\u00f8rreport"
            }
        },
        {
            "type": "Feature",
            "geometry": {
                "type": "Point",
                "coordinates": [
                    9.3050712,
                    55.2484465
                ]
            },
            "properties": {
                "name": "Vojens Station"
            }
        },
        {
            "type": "Feature",
            "geometry": {
                "type": "Point",
                "coordinates": [
                    10.2039136,
                    56.1497091
                ]
            },
            "properties": {
                "name": "Aarhus H"
            }
        },
        {
            "type": "Feature",
            "geometry": {
                "type": "Point",
                "coordinates": [
                    10.1598843,
                    56.121904
                ]
            },
            "properties": {
                "name": "Viby J"
            }
        },
        {
            "type": "Feature",
            "geometry": {
                "type": "Point",
                "coordinates": [
                    10.1505062,
                    55.9718333
                ]
            },
            "properties": {
                "name": "Odder"
            }
        },
        {
            "type": "Feature",
            "geometry": {
                "type": "Point",
                "coordinates": [
                    10.1541815,
                    55.9834059
                ]
            },
            "properties": {
                "name": "Rude Havvej"
            }
        },
        {
            "type": "Feature",
            "geometry": {
                "type": "Point",
                "coordinates": [
                    10.1826848,
                    56.0040245
                ]
            },
            "properties": {
                "name": "Assedrup"
            }
        },
        {
            "type": "Feature",
            "geometry": {
                "type": "Point",
                "coordinates": [
                    10.1912687,
                    56.0376501
                ]
            },
            "properties": {
                "name": "Malling"
            }
        },
        {
            "type": "Feature",
            "geometry": {
                "type": "Point",
                "coordinates": [
                    10.1982106,
                    56.0569162
                ]
            },
            "properties": {
                "name": "Beder"
            }
        },
        {
            "type": "Feature",
            "geometry": {
                "type": "Point",
                "coordinates": [
                    10.1789691,
                    56.0640386
                ]
            },
            "properties": {
                "name": "Vilhelmsborg"
            }
        },
        {
            "type": "Feature",
            "geometry": {
                "type": "Point",
                "coordinates": [
                    10.1642908,
                    56.0687756
                ]
            },
            "properties": {
                "name": "M\u00e5rslet"
            }
        },
        {
            "type": "Feature",
            "geometry": {
                "type": "Point",
                "coordinates": [
                    10.1543874,
                    56.0725737
                ]
            },
            "properties": {
                "name": "M\u00f8lleparken"
            }
        },
        {
            "type": "Feature",
            "geometry": {
                "type": "Point",
                "coordinates": [
                    10.1512014,
                    56.0921794
                ]
            },
            "properties": {
                "name": "N\u00f8rrev\u00e6nget"
            }
        },
        {
            "type": "Feature",
            "geometry": {
                "type": "Point",
                "coordinates": [
                    10.1358246,
                    56.096577
                ]
            },
            "properties": {
                "name": "Tranbjerg"
            }
        },
        {
            "type": "Feature",
            "geometry": {
                "type": "Point",
                "coordinates": [
                    10.1257973,
                    56.1114793
                ]
            },
            "properties": {
                "name": "G. Clausensvej"
            }
        },
        {
            "type": "Feature",
            "geometry": {
                "type": "Point",
                "coordinates": [
                    10.1338255,
                    56.1146056
                ]
            },
            "properties": {
                "name": "\u00d8lleg\u00e5rdsvej"
            }
        },
        {
            "type": "Feature",
            "geometry": {
                "type": "Point",
                "coordinates": [
                    10.147427,
                    56.1170042
                ]
            },
            "properties": {
                "name": "Rosenh\u00f8j"
            }
        },
        {
            "type": "Feature",
            "geometry": {
                "type": "Point",
                "coordinates": [
                    10.1596948,
                    56.1220185
                ]
            },
            "properties": {
                "name": "Viby J"
            }
        },
        {
            "type": "Feature",
            "geometry": {
                "type": "Point",
                "coordinates": [
                    10.1742357,
                    56.13538
                ]
            },
            "properties": {
                "name": "Kongsvang"
            }
        },
        {
            "type": "Feature",
            "geometry": {
                "type": "Point",
                "coordinates": [
                    10.1515956,
                    55.9780195
                ]
            },
            "properties": {
                "name": "Parkvej"
            }
        },
        {
            "type": "Feature",
            "geometry": {
                "type": "Point",
                "coordinates": [
                    10.2163979,
                    56.1628981
                ]
            },
            "properties": {
                "name": "\u00d8stbanetorvet"
            }
        },
        {
            "type": "Feature",
            "geometry": {
                "type": "Point",
                "coordinates": [
                    12.5645166,
                    55.6722871
                ]
            },
            "properties": {
                "name": "K\u00f8benhavn H"
            }
        },
        {
            "type": "Feature",
            "geometry": {
                "type": "Point",
                "coordinates": [
                    12.1900778,
                    55.7668501
                ]
            },
            "properties": {
                "name": "Stenl\u00f8se"
            }
        },
        {
            "type": "Feature",
            "geometry": {
                "type": "Point",
                "coordinates": [
                    10.2129758,
                    56.1541463
                ]
            },
            "properties": {
                "name": "Dokk1"
            }
        },
        {
            "type": "Feature",
            "geometry": {
                "type": "Point",
                "coordinates": [
                    10.2131208,
                    56.1571461
                ]
            },
            "properties": {
                "name": "Skolebakken"
            }
        },
        {
            "type": "Feature",
            "geometry": {
                "type": "Point",
                "coordinates": [
                    12.2687181,
                    55.6487617
                ]
            },
            "properties": {
                "name": "H\u00f8je Taastrup"
            }
        },
        {
            "type": "Feature",
            "geometry": {
                "type": "Point",
                "coordinates": [
                    9.4934251,
                    56.0263996
                ]
            },
            "properties": {
                "name": "Skaaningbro"
            }
        },
        {
            "type": "Feature",
            "geometry": {
                "type": "Point",
                "coordinates": [
                    12.1753286,
                    55.4800527
                ]
            },
            "properties": {
                "name": "\u00d8lby"
            }
        },
        {
            "type": "Feature",
            "geometry": {
                "type": "Point",
                "coordinates": [
                    12.1725392,
                    55.4994052
                ]
            },
            "properties": {
                "name": "K\u00f8ge Nord"
            }
        },
        {
            "type": "Feature",
            "geometry": {
                "type": "Point",
                "coordinates": [
                    12.1749102,
                    55.4990397
                ]
            },
            "properties": {
                "name": "K\u00f8ge Nord"
            }
        },
        {
            "type": "Feature",
            "geometry": {
                "type": "Point",
                "coordinates": [
                    11.8595491,
                    55.5953177
                ]
            },
            "properties": {
                "name": "Hvals\u00f8"
            }
        },
        {
            "type": "Feature",
            "geometry": {
                "type": "Point",
                "coordinates": [
                    12.5027475,
                    55.9904685
                ]
            },
            "properties": {
                "name": "Kvistg\u00e5rd"
            }
        },
        {
            "type": "Feature",
            "geometry": {
                "type": "Point",
                "coordinates": [
                    12.5376316,
                    55.7000983
                ]
            },
            "properties": {
                "name": "N\u00f8rrebro Station"
            }
        },
        {
            "type": "Feature",
            "geometry": {
                "type": "Point",
                "coordinates": [
                    8.4851558,
                    55.6166808
                ]
            },
            "properties": {
                "name": "Varde Station"
            }
        },
        {
            "type": "Feature",
            "geometry": {
                "type": "Point",
                "coordinates": [
                    11.7076322,
                    55.7161041
                ]
            },
            "properties": {
                "name": "Holb\u00e6k Bus station"
            }
        },
        {
            "type": "Feature",
            "geometry": {
                "type": "Point",
                "coordinates": [
                    12.1747764,
                    55.8440671
                ]
            },
            "properties": {
                "name": "Slangerup Busstation"
            }
        },
        {
            "type": "Feature",
            "geometry": {
                "type": "Point",
                "coordinates": [
                    10.2090745,
                    56.1518725
                ]
            },
            "properties": {
                "name": "\u00c5rhus Rutebilstation"
            }
        },
        {
            "type": "Feature",
            "geometry": {
                "type": "Point",
                "coordinates": [
                    9.541481,
                    56.1640516
                ]
            },
            "properties": {
                "name": "Silkeborg Station"
            }
        },
        {
            "type": "Feature",
            "geometry": {
                "type": "Point",
                "coordinates": [
                    10.6600629,
                    55.4504556
                ]
            },
            "properties": {
                "name": "Kerteminde Rutebilstation"
            }
        },
        {
            "type": "Feature",
            "geometry": {
                "type": "Point",
                "coordinates": [
                    9.9911279,
                    57.0159924
                ]
            },
            "properties": {
                "name": "AAU Busterminal"
            }
        },
        {
            "type": "Feature",
            "geometry": {
                "type": "Point",
                "coordinates": [
                    9.1349152,
                    55.4763115
                ]
            },
            "properties": {
                "name": "Vejen Rutebilstation"
            }
        },
        {
            "type": "Feature",
            "geometry": {
                "type": "Point",
                "coordinates": [
                    8.2507315,
                    56.0921341
                ]
            }
        },
        {
            "type": "Feature",
            "geometry": {
                "type": "Point",
                "coordinates": [
                    9.8655136,
                    54.9905618
                ]
            }
        },
        {
            "type": "Feature",
            "geometry": {
                "type": "Point",
                "coordinates": [
                    9.8448334,
                    56.052661
                ]
            }
        },
        {
            "type": "Feature",
            "geometry": {
                "type": "Point",
                "coordinates": [
                    9.7589113,
                    56.0907894
                ]
            }
        },
        {
            "type": "Feature",
            "geometry": {
                "type": "Point",
                "coordinates": [
                    10.5913749,
                    57.7241497
                ]
            }
        },
        {
            "type": "Feature",
            "geometry": {
                "type": "Point",
                "coordinates": [
                    10.5635365,
                    57.7245253
                ]
            }
        },
        {
            "type": "Feature",
            "geometry": {
                "type": "Point",
                "coordinates": [
                    10.4634541,
                    57.6598003
                ]
            }
        },
        {
            "type": "Feature",
            "geometry": {
                "type": "Point",
                "coordinates": [
                    10.4394806,
                    57.6302622
                ]
            }
        },
        {
            "type": "Feature",
            "geometry": {
                "type": "Point",
                "coordinates": [
                    10.4082986,
                    57.5923335
                ]
            }
        },
        {
            "type": "Feature",
            "geometry": {
                "type": "Point",
                "coordinates": [
                    9.1372812,
                    55.5705952
                ]
            }
        },
        {
            "type": "Feature",
            "geometry": {
                "type": "Point",
                "coordinates": [
                    10.540843,
                    57.441016
                ]
            },
            "properties": {
                "name": "Frederikshavn Busterminal"
            }
        },
        {
            "type": "Feature",
            "geometry": {
                "type": "Point",
                "coordinates": [
                    9.4224312,
                    55.045048
                ]
            },
            "properties": {
                "name": "Aabenraa Busstation"
            }
        },
        {
            "type": "Feature",
            "geometry": {
                "type": "Point",
                "coordinates": [
                    10.5403166,
                    57.4424828
                ]
            },
            "properties": {
                "name": "Frederikshavn Station"
            }
        },
        {
            "type": "Feature",
            "geometry": {
                "type": "Point",
                "coordinates": [
                    8.8009949,
                    55.469537
                ]
            },
            "properties": {
                "name": "G\u00f8rding"
            }
        },
        {
            "type": "Feature",
            "geometry": {
                "type": "Point",
                "coordinates": [
                    8.7078613,
                    55.4645021
                ]
            },
            "properties": {
                "name": "Bramming Station"
            }
        },
        {
            "type": "Feature",
            "geometry": {
                "type": "Point",
                "coordinates": [
                    10.2046211,
                    56.1716397
                ]
            },
            "properties": {
                "name": "Aahus Universitet (Ringgaden)"
            }
        },
        {
            "type": "Feature",
            "geometry": {
                "type": "Point",
                "coordinates": [
                    12.4921467,
                    55.6870909
                ]
            }
        },
        {
            "type": "Feature",
            "geometry": {
                "type": "Point",
                "coordinates": [
                    12.491941,
                    55.6872583
                ]
            }
        },
        {
            "type": "Feature",
            "geometry": {
                "type": "Point",
                "coordinates": [
                    10.8031484,
                    55.3130376
                ]
            }
        },
        {
            "type": "Feature",
            "geometry": {
                "type": "Point",
                "coordinates": [
                    8.4588561,
                    55.4694825
                ]
            }
        },
        {
            "type": "Feature",
            "geometry": {
                "type": "Point",
                "coordinates": [
                    10.3848011,
                    55.4023115
                ]
            },
            "properties": {
                "name": "OBC Nord Plads I (Odense Busterminal)"
            }
        },
        {
            "type": "Feature",
            "geometry": {
                "type": "Point",
                "coordinates": [
                    10.3850453,
                    55.4009562
                ]
            },
            "properties": {
                "name": "OBC Syd - Plads E"
            }
        },
        {
            "type": "Feature",
            "geometry": {
                "type": "Point",
                "coordinates": [
                    10.3850058,
                    55.4008025
                ]
            },
            "properties": {
                "name": "OBC Syd - Plads F"
            }
        },
        {
            "type": "Feature",
            "geometry": {
                "type": "Point",
                "coordinates": [
                    10.3859284,
                    55.4008624
                ]
            },
            "properties": {
                "name": "OBC Syd - Plads G"
            }
        },
        {
            "type": "Feature",
            "geometry": {
                "type": "Point",
                "coordinates": [
                    8.4407929,
                    55.4613415
                ]
            },
            "properties": {
                "name": "Fan\u00f8F\u00e6rgen"
            }
        },
        {
            "type": "Feature",
            "geometry": {
                "type": "Point",
                "coordinates": [
                    10.4083209,
                    57.5544473
                ]
            },
            "properties": {
                "name": "Napstjert Station"
            }
        }
    ],
    "crs": {
        "type": "name",
        "properties": {
            "name": "urn:ogc:def:crs:OGC:1.3:CRS84"
        }
    }
}