{
    "type": "FeatureCollection",
    "features": [
        {
            "type": "Feature",
            "geometry": {
                "type": "Point",
                "coordinates": [
                    16.125678,
                    47.6172038
                ]
            },
            "properties": {
                "name": "Volksschule Grimmenstein"
            }
        },
        {
            "type": "Feature",
            "geometry": {
                "type": "Point",
                "coordinates": [
                    16.3722157,
                    48.2205017
                ]
            },
            "properties": {
                "name": "HAK/HAS Augarten"
            }
        },
        {
            "type": "Feature",
            "geometry": {
                "type": "Point",
                "coordinates": [
                    16.4019672,
                    48.2802047
                ]
            },
            "properties": {
                "name": "Hauptschule/Volkschule Jochbergengasse"
            }
        },
        {
            "type": "Feature",
            "geometry": {
                "type": "Point",
                "coordinates": [
                    16.3708551,
                    48.2009198
                ]
            },
            "properties": {
                "name": "HAK I"
            }
        },
        {
            "type": "Feature",
            "geometry": {
                "type": "Point",
                "coordinates": [
                    16.3992724,
                    48.2063691
                ]
            },
            "properties": {
                "name": "Museum des Blindenwesens"
            }
        },
        {
            "type": "Feature",
            "geometry": {
                "type": "Point",
                "coordinates": [
                    16.4712427,
                    48.3626656
                ]
            },
            "properties": {
                "name": "Volksschule Gro\u00dfebersdorf"
            }
        },
        {
            "type": "Feature",
            "geometry": {
                "type": "Point",
                "coordinates": [
                    16.357504,
                    48.2273753
                ]
            },
            "properties": {
                "name": "Volksschule Marktgasse"
            }
        },
        {
            "type": "Feature",
            "geometry": {
                "type": "Point",
                "coordinates": [
                    15.4829991,
                    47.0470965
                ]
            },
            "properties": {
                "name": "Waldorfschule"
            }
        },
        {
            "type": "Feature",
            "geometry": {
                "type": "Point",
                "coordinates": [
                    16.7752613,
                    48.0292155
                ]
            },
            "properties": {
                "name": "Bundesrealgymnasium"
            }
        },
        {
            "type": "Feature",
            "geometry": {
                "type": "Point",
                "coordinates": [
                    16.7748322,
                    48.0293877
                ]
            },
            "properties": {
                "name": "Handelsakademie"
            }
        },
        {
            "type": "Feature",
            "geometry": {
                "type": "Point",
                "coordinates": [
                    15.6725907,
                    48.7941975
                ]
            },
            "properties": {
                "name": "NOE Landesberufsschule f\u00fcr das Gastgewerbe und Floristen"
            }
        },
        {
            "type": "Feature",
            "geometry": {
                "type": "Point",
                "coordinates": [
                    11.3192973,
                    47.2539549
                ]
            },
            "properties": {
                "name": "Neue Mittelschule V\u00f6ls"
            }
        },
        {
            "type": "Feature",
            "geometry": {
                "type": "Point",
                "coordinates": [
                    16.4961067,
                    48.3125777
                ]
            },
            "properties": {
                "name": "Volkschule Kapellerfeld"
            }
        },
        {
            "type": "Feature",
            "geometry": {
                "type": "Point",
                "coordinates": [
                    13.0848334,
                    47.7130367
                ]
            },
            "properties": {
                "name": "Volksschule Puch"
            }
        },
        {
            "type": "Feature",
            "geometry": {
                "type": "Point",
                "coordinates": [
                    16.3828693,
                    48.3677893
                ]
            },
            "properties": {
                "name": "Volksschule Stetten"
            }
        },
        {
            "type": "Feature",
            "geometry": {
                "type": "Point",
                "coordinates": [
                    11.2396729,
                    47.2684744
                ]
            },
            "properties": {
                "name": "Neue Mittelschule Zirl"
            }
        },
        {
            "type": "Feature",
            "geometry": {
                "type": "Point",
                "coordinates": [
                    16.4084633,
                    48.2768437
                ]
            }
        },
        {
            "type": "Feature",
            "geometry": {
                "type": "Point",
                "coordinates": [
                    16.331419,
                    48.2178847
                ]
            },
            "properties": {
                "name": "VS Kindermanngasse"
            }
        },
        {
            "type": "Feature",
            "geometry": {
                "type": "Point",
                "coordinates": [
                    16.4941519,
                    48.4129527
                ]
            },
            "properties": {
                "name": "Volksschule Ulrichskirchen"
            }
        },
        {
            "type": "Feature",
            "geometry": {
                "type": "Point",
                "coordinates": [
                    16.3284924,
                    48.2291548
                ]
            },
            "properties": {
                "name": "Marianum"
            }
        },
        {
            "type": "Feature",
            "geometry": {
                "type": "Point",
                "coordinates": [
                    16.33993,
                    48.228996
                ]
            },
            "properties": {
                "name": "Volksschule Cottagegasse"
            }
        },
        {
            "type": "Feature",
            "geometry": {
                "type": "Point",
                "coordinates": [
                    16.3186844,
                    48.1505359
                ]
            },
            "properties": {
                "name": "\u00d6KO Mittelschule"
            }
        },
        {
            "type": "Feature",
            "geometry": {
                "type": "Point",
                "coordinates": [
                    11.2109809,
                    47.2572848
                ]
            },
            "properties": {
                "name": "Volksschule Ranggen"
            }
        },
        {
            "type": "Feature",
            "geometry": {
                "type": "Point",
                "coordinates": [
                    16.2700379,
                    48.0988685
                ]
            },
            "properties": {
                "name": "Sportgymnasium Maria Enzersdorf"
            }
        },
        {
            "type": "Feature",
            "geometry": {
                "type": "Point",
                "coordinates": [
                    15.4116978,
                    48.1559198
                ]
            },
            "properties": {
                "name": "Volksschule"
            }
        },
        {
            "type": "Feature",
            "geometry": {
                "type": "Point",
                "coordinates": [
                    15.4118297,
                    48.1554896
                ]
            },
            "properties": {
                "name": "Neue N\u00d6 Mittelschule H\u00fcrm"
            }
        },
        {
            "type": "Feature",
            "geometry": {
                "type": "Point",
                "coordinates": [
                    16.3979405,
                    48.5478514
                ]
            },
            "properties": {
                "name": "Volksschule Niederleis"
            }
        },
        {
            "type": "Feature",
            "geometry": {
                "type": "Point",
                "coordinates": [
                    16.5722353,
                    48.5669701
                ]
            },
            "properties": {
                "name": "ECDL-Neue N\u00d6 Mittelschule 1 Mistelbach"
            }
        },
        {
            "type": "Feature",
            "geometry": {
                "type": "Point",
                "coordinates": [
                    13.2243152,
                    47.9465878
                ]
            },
            "properties": {
                "name": "Johann Aigner Volksschule"
            }
        },
        {
            "type": "Feature",
            "geometry": {
                "type": "Point",
                "coordinates": [
                    11.4428337,
                    47.2708726
                ]
            },
            "properties": {
                "name": "Neue Mittelschule Olympisches Dorf"
            }
        },
        {
            "type": "Feature",
            "geometry": {
                "type": "Point",
                "coordinates": [
                    16.4586982,
                    48.2967882
                ]
            },
            "properties": {
                "name": "Volkschule"
            }
        },
        {
            "type": "Feature",
            "geometry": {
                "type": "Point",
                "coordinates": [
                    15.4007061,
                    47.0741676
                ]
            },
            "properties": {
                "name": "Volksschule Algersdorf"
            }
        },
        {
            "type": "Feature",
            "geometry": {
                "type": "Point",
                "coordinates": [
                    15.4027561,
                    47.0924354
                ]
            },
            "properties": {
                "name": "HTL BULME"
            }
        },
        {
            "type": "Feature",
            "geometry": {
                "type": "Point",
                "coordinates": [
                    15.6775742,
                    48.7968923
                ]
            },
            "properties": {
                "name": "Volksschule Geras"
            }
        },
        {
            "type": "Feature",
            "geometry": {
                "type": "Point",
                "coordinates": [
                    16.2106504,
                    48.3228033
                ]
            },
            "properties": {
                "name": "Harald Godai Volksschule"
            }
        },
        {
            "type": "Feature",
            "geometry": {
                "type": "Point",
                "coordinates": [
                    16.5722599,
                    48.5672454
                ]
            },
            "properties": {
                "name": "Europa Mittelschule 2 Mistelbach"
            }
        },
        {
            "type": "Feature",
            "geometry": {
                "type": "Point",
                "coordinates": [
                    14.4528556,
                    48.2681835
                ]
            },
            "properties": {
                "name": "Neue Mittelschule"
            }
        },
        {
            "type": "Feature",
            "geometry": {
                "type": "Point",
                "coordinates": [
                    13.1021017,
                    47.6783605
                ]
            },
            "properties": {
                "name": "Volksschule Hallein Burgfried"
            }
        },
        {
            "type": "Feature",
            "geometry": {
                "type": "Point",
                "coordinates": [
                    13.1012631,
                    47.6780567
                ]
            },
            "properties": {
                "name": "Hauptschule Hallein Burgfried"
            }
        },
        {
            "type": "Feature",
            "geometry": {
                "type": "Point",
                "coordinates": [
                    14.1885885,
                    48.3240384
                ]
            },
            "properties": {
                "name": "Stiftsgymnasium Wilhering"
            }
        },
        {
            "type": "Feature",
            "geometry": {
                "type": "Point",
                "coordinates": [
                    11.2665956,
                    47.079032
                ]
            },
            "properties": {
                "name": "Volksschule Kr\u00f6\u00dfbach"
            }
        },
        {
            "type": "Feature",
            "geometry": {
                "type": "Point",
                "coordinates": [
                    14.4076689,
                    48.0415871
                ]
            },
            "properties": {
                "name": "BAKIP Steyr"
            }
        },
        {
            "type": "Feature",
            "geometry": {
                "type": "Point",
                "coordinates": [
                    15.4780941,
                    46.9616925
                ]
            },
            "properties": {
                "name": "NMS Kalsdorf"
            }
        },
        {
            "type": "Feature",
            "geometry": {
                "type": "Point",
                "coordinates": [
                    15.4332959,
                    47.0676094
                ]
            },
            "properties": {
                "name": "Johann Josef Fux Konservatorium"
            }
        },
        {
            "type": "Feature",
            "geometry": {
                "type": "Point",
                "coordinates": [
                    13.6448021,
                    47.6217093
                ]
            },
            "properties": {
                "name": "Volksschule"
            }
        },
        {
            "type": "Feature",
            "geometry": {
                "type": "Point",
                "coordinates": [
                    14.1971435,
                    48.0285199
                ]
            },
            "properties": {
                "name": "Volksschule Pfarrkirchen"
            }
        },
        {
            "type": "Feature",
            "geometry": {
                "type": "Point",
                "coordinates": [
                    11.4123648,
                    47.2837288
                ]
            },
            "properties": {
                "name": "Volksschule M\u00fchlau"
            }
        },
        {
            "type": "Feature",
            "geometry": {
                "type": "Point",
                "coordinates": [
                    14.2795288,
                    48.1447466
                ]
            }
        },
        {
            "type": "Feature",
            "geometry": {
                "type": "Point",
                "coordinates": [
                    15.4719303,
                    48.3065813
                ]
            },
            "properties": {
                "name": "Volksschule Gansbach"
            }
        },
        {
            "type": "Feature",
            "geometry": {
                "type": "Point",
                "coordinates": [
                    15.3255876,
                    47.2686586
                ]
            },
            "properties": {
                "name": "Schule f\u00fcr allgemeine Gesundheits- und Krankenpflege des Landes Steiermark"
            }
        },
        {
            "type": "Feature",
            "geometry": {
                "type": "Point",
                "coordinates": [
                    16.256275,
                    47.8160482
                ]
            },
            "properties": {
                "name": "Volksschule im Ungarviertel"
            }
        },
        {
            "type": "Feature",
            "geometry": {
                "type": "Point",
                "coordinates": [
                    16.2628937,
                    48.1925846
                ]
            },
            "properties": {
                "name": "Schulen der Dominikanerinnen"
            }
        },
        {
            "type": "Feature",
            "geometry": {
                "type": "Point",
                "coordinates": [
                    13.8410981,
                    46.6214249
                ]
            },
            "properties": {
                "name": "Neue Mittelschule, Sport Haupschule HS 2"
            }
        },
        {
            "type": "Feature",
            "geometry": {
                "type": "Point",
                "coordinates": [
                    13.8424787,
                    46.6069023
                ]
            },
            "properties": {
                "name": "CHS"
            }
        },
        {
            "type": "Feature",
            "geometry": {
                "type": "Point",
                "coordinates": [
                    9.7501457,
                    47.5059572
                ]
            },
            "properties": {
                "name": "HTL Bregenz"
            }
        },
        {
            "type": "Feature",
            "geometry": {
                "type": "Point",
                "coordinates": [
                    11.9902121,
                    47.4221084
                ]
            },
            "properties": {
                "name": "Volksschule Thierbach"
            }
        },
        {
            "type": "Feature",
            "geometry": {
                "type": "Point",
                "coordinates": [
                    14.7659818,
                    48.0276907
                ]
            },
            "properties": {
                "name": "VS Kematen"
            }
        },
        {
            "type": "Feature",
            "geometry": {
                "type": "Point",
                "coordinates": [
                    15.769113,
                    48.0356953
                ]
            },
            "properties": {
                "name": "Volks- & Sonderschule"
            }
        },
        {
            "type": "Feature",
            "geometry": {
                "type": "Point",
                "coordinates": [
                    16.3412415,
                    48.2243412
                ]
            },
            "properties": {
                "name": "De la Salle Schule - Schulbr\u00fcder W\u00e4hring"
            }
        },
        {
            "type": "Feature",
            "geometry": {
                "type": "Point",
                "coordinates": [
                    13.9683703,
                    48.6390116
                ]
            },
            "properties": {
                "name": "Hauptschule Aigen"
            }
        },
        {
            "type": "Feature",
            "geometry": {
                "type": "Point",
                "coordinates": [
                    13.9692722,
                    48.6390905
                ]
            },
            "properties": {
                "name": "Volksschule Schl\u00e4gl"
            }
        },
        {
            "type": "Feature",
            "geometry": {
                "type": "Point",
                "coordinates": [
                    15.5028722,
                    48.0995121
                ]
            },
            "properties": {
                "name": "Volksschule Hofstetten-Gr\u00fcnau"
            }
        },
        {
            "type": "Feature",
            "geometry": {
                "type": "Point",
                "coordinates": [
                    15.5026254,
                    48.0996088
                ]
            },
            "properties": {
                "name": "Neue Nieder\u00f6sterreichische Mittelschule Hofstetten-Gr\u00fcnau"
            }
        },
        {
            "type": "Feature",
            "geometry": {
                "type": "Point",
                "coordinates": [
                    14.7800875,
                    47.9583219
                ]
            },
            "properties": {
                "name": "Volksschule Zell"
            }
        },
        {
            "type": "Feature",
            "geometry": {
                "type": "Point",
                "coordinates": [
                    14.780676,
                    47.9582911
                ]
            },
            "properties": {
                "name": "Neue N\u00d6 Mittelschule 2 Waidhofen/Ybbs"
            }
        },
        {
            "type": "Feature",
            "geometry": {
                "type": "Point",
                "coordinates": [
                    16.6435935,
                    47.8996039
                ]
            },
            "properties": {
                "name": "Volksschule"
            }
        },
        {
            "type": "Feature",
            "geometry": {
                "type": "Point",
                "coordinates": [
                    16.6409865,
                    47.8914309
                ]
            },
            "properties": {
                "name": "Kindergarten"
            }
        },
        {
            "type": "Feature",
            "geometry": {
                "type": "Point",
                "coordinates": [
                    14.310738,
                    46.6115166
                ]
            },
            "properties": {
                "name": "VS 11 St. Ruprecht"
            }
        },
        {
            "type": "Feature",
            "geometry": {
                "type": "Point",
                "coordinates": [
                    14.3111867,
                    46.6111946
                ]
            },
            "properties": {
                "name": "NMS St. Ruprecht"
            }
        },
        {
            "type": "Feature",
            "geometry": {
                "type": "Point",
                "coordinates": [
                    14.3131824,
                    46.6228883
                ]
            },
            "properties": {
                "name": "Musikhauptschule"
            }
        },
        {
            "type": "Feature",
            "geometry": {
                "type": "Point",
                "coordinates": [
                    14.7806973,
                    47.9584348
                ]
            },
            "properties": {
                "name": "Neue N\u00d6 Sportmittelschule Zell"
            }
        },
        {
            "type": "Feature",
            "geometry": {
                "type": "Point",
                "coordinates": [
                    14.7626945,
                    48.0254913
                ]
            },
            "properties": {
                "name": "Musikschule Kematen"
            }
        },
        {
            "type": "Feature",
            "geometry": {
                "type": "Point",
                "coordinates": [
                    16.2346053,
                    47.8307007
                ]
            },
            "properties": {
                "name": "Rudolf Wehrl Schule"
            }
        },
        {
            "type": "Feature",
            "geometry": {
                "type": "Point",
                "coordinates": [
                    15.5025251,
                    46.8381716
                ]
            }
        },
        {
            "type": "Feature",
            "geometry": {
                "type": "Point",
                "coordinates": [
                    16.1160973,
                    47.7265061
                ]
            }
        },
        {
            "type": "Feature",
            "geometry": {
                "type": "Point",
                "coordinates": [
                    16.3591541,
                    48.3299081
                ]
            },
            "properties": {
                "name": "Volksschule Bisamberg"
            }
        },
        {
            "type": "Feature",
            "geometry": {
                "type": "Point",
                "coordinates": [
                    15.338036,
                    47.1958123
                ]
            },
            "properties": {
                "name": "Volksschule Deutschfeistritz"
            }
        },
        {
            "type": "Feature",
            "geometry": {
                "type": "Point",
                "coordinates": [
                    15.9485552,
                    47.623447
                ]
            },
            "properties": {
                "name": "Volksschule"
            }
        },
        {
            "type": "Feature",
            "geometry": {
                "type": "Point",
                "coordinates": [
                    15.9342356,
                    47.6748186
                ]
            },
            "properties": {
                "name": "Volksschule"
            }
        },
        {
            "type": "Feature",
            "geometry": {
                "type": "Point",
                "coordinates": [
                    15.9337319,
                    47.6741708
                ]
            },
            "properties": {
                "name": "Neue Nieder\u00f6sterreichische Mittelschule Gloggnitz"
            }
        },
        {
            "type": "Feature",
            "geometry": {
                "type": "Point",
                "coordinates": [
                    11.634286,
                    47.3007276
                ]
            },
            "properties": {
                "name": "Volksschule Kolsass"
            }
        },
        {
            "type": "Feature",
            "geometry": {
                "type": "Point",
                "coordinates": [
                    14.6112439,
                    48.4161795
                ]
            },
            "properties": {
                "name": "Volks- und Neue Mittelschule Gutau"
            }
        },
        {
            "type": "Feature",
            "geometry": {
                "type": "Point",
                "coordinates": [
                    14.6105765,
                    48.4158667
                ]
            },
            "properties": {
                "name": "Musikschule Gutau"
            }
        },
        {
            "type": "Feature",
            "geometry": {
                "type": "Point",
                "coordinates": [
                    14.6168437,
                    48.4537249
                ]
            },
            "properties": {
                "name": "Volksschule F\u00fcrling"
            }
        },
        {
            "type": "Feature",
            "geometry": {
                "type": "Point",
                "coordinates": [
                    10.8969274,
                    47.2468841
                ]
            },
            "properties": {
                "name": "Volksschule"
            }
        },
        {
            "type": "Feature",
            "geometry": {
                "type": "Point",
                "coordinates": [
                    14.3347937,
                    48.0487115
                ]
            },
            "properties": {
                "name": "Volksschule Sierninghofen"
            }
        },
        {
            "type": "Feature",
            "geometry": {
                "type": "Point",
                "coordinates": [
                    15.6411037,
                    48.3057508
                ]
            },
            "properties": {
                "name": "Volksschule Statzendorf"
            }
        },
        {
            "type": "Feature",
            "geometry": {
                "type": "Point",
                "coordinates": [
                    12.1951483,
                    47.5053671
                ]
            },
            "properties": {
                "name": "Neue Mittelschule S\u00f6ll Scheffau"
            }
        },
        {
            "type": "Feature",
            "geometry": {
                "type": "Point",
                "coordinates": [
                    12.195095,
                    47.5066419
                ]
            },
            "properties": {
                "name": "Volksschule neu"
            }
        },
        {
            "type": "Feature",
            "geometry": {
                "type": "Point",
                "coordinates": [
                    15.6020714,
                    48.4499578
                ]
            },
            "properties": {
                "name": "Volksschule"
            }
        },
        {
            "type": "Feature",
            "geometry": {
                "type": "Point",
                "coordinates": [
                    13.9476151,
                    48.6019981
                ]
            },
            "properties": {
                "name": "Volksschule \u00d6pping"
            }
        },
        {
            "type": "Feature",
            "geometry": {
                "type": "Point",
                "coordinates": [
                    15.4311481,
                    47.0695637
                ]
            },
            "properties": {
                "name": "Volks-/ Neue Mittelschule St. Andr\u00e4"
            }
        },
        {
            "type": "Feature",
            "geometry": {
                "type": "Point",
                "coordinates": [
                    15.4248339,
                    47.0717304
                ]
            },
            "properties": {
                "name": "Volkshochschule"
            }
        },
        {
            "type": "Feature",
            "geometry": {
                "type": "Point",
                "coordinates": [
                    14.3610482,
                    48.258032
                ]
            },
            "properties": {
                "name": "VHS"
            }
        },
        {
            "type": "Feature",
            "geometry": {
                "type": "Point",
                "coordinates": [
                    14.4286282,
                    48.040628
                ]
            },
            "properties": {
                "name": "Tanzschule 7-dance"
            }
        },
        {
            "type": "Feature",
            "geometry": {
                "type": "Point",
                "coordinates": [
                    15.3944807,
                    47.1884327
                ]
            },
            "properties": {
                "name": "Volkschule Augraben"
            }
        },
        {
            "type": "Feature",
            "geometry": {
                "type": "Point",
                "coordinates": [
                    16.3749473,
                    48.2212781
                ]
            },
            "properties": {
                "name": "Leopoldschule"
            }
        },
        {
            "type": "Feature",
            "geometry": {
                "type": "Point",
                "coordinates": [
                    14.1822753,
                    48.2226853
                ]
            },
            "properties": {
                "name": "Volksschule H\u00f6rsching"
            }
        },
        {
            "type": "Feature",
            "geometry": {
                "type": "Point",
                "coordinates": [
                    9.6353692,
                    47.4610345
                ]
            },
            "properties": {
                "name": "Hauptschule H\u00f6chst"
            }
        },
        {
            "type": "Feature",
            "geometry": {
                "type": "Point",
                "coordinates": [
                    9.6479388,
                    47.4380601
                ]
            },
            "properties": {
                "name": "Volksschule Rheindorf, Expositur Augarten"
            }
        },
        {
            "type": "Feature",
            "geometry": {
                "type": "Point",
                "coordinates": [
                    16.3145533,
                    48.1515545
                ]
            },
            "properties": {
                "name": "Volksschule Alterlaa (Halbtags-/ u. Ganztagsschule"
            }
        },
        {
            "type": "Feature",
            "geometry": {
                "type": "Point",
                "coordinates": [
                    16.6036504,
                    48.3596927
                ]
            }
        },
        {
            "type": "Feature",
            "geometry": {
                "type": "Point",
                "coordinates": [
                    16.3902564,
                    48.2101554
                ]
            },
            "properties": {
                "name": "Kolonitzschule"
            }
        },
        {
            "type": "Feature",
            "geometry": {
                "type": "Point",
                "coordinates": [
                    16.3774902,
                    48.215473
                ]
            },
            "properties": {
                "name": "VS Kleine Sperlgasse"
            }
        },
        {
            "type": "Feature",
            "geometry": {
                "type": "Point",
                "coordinates": [
                    16.3800582,
                    48.2154449
                ]
            },
            "properties": {
                "name": "Musikschule Leopoldstadt"
            }
        },
        {
            "type": "Feature",
            "geometry": {
                "type": "Point",
                "coordinates": [
                    11.2432072,
                    47.2739417
                ]
            },
            "properties": {
                "name": "Landes-Musikschule"
            }
        },
        {
            "type": "Feature",
            "geometry": {
                "type": "Point",
                "coordinates": [
                    13.3047701,
                    47.9529736
                ]
            },
            "properties": {
                "name": "Volksschule"
            }
        },
        {
            "type": "Feature",
            "geometry": {
                "type": "Point",
                "coordinates": [
                    13.3049467,
                    47.9528211
                ]
            },
            "properties": {
                "name": "Kindergarten"
            }
        },
        {
            "type": "Feature",
            "geometry": {
                "type": "Point",
                "coordinates": [
                    16.6988615,
                    48.3675371
                ]
            },
            "properties": {
                "name": "Volksschule"
            }
        },
        {
            "type": "Feature",
            "geometry": {
                "type": "Point",
                "coordinates": [
                    16.3042519,
                    48.0951177
                ]
            },
            "properties": {
                "name": "Volksschule"
            }
        },
        {
            "type": "Feature",
            "geometry": {
                "type": "Point",
                "coordinates": [
                    16.2694279,
                    48.0988028
                ]
            },
            "properties": {
                "name": "Volksschule der Erzdi\u00f6zese Wien"
            }
        },
        {
            "type": "Feature",
            "geometry": {
                "type": "Point",
                "coordinates": [
                    16.081882,
                    48.5614971
                ]
            },
            "properties": {
                "name": "Aufbaugymnasium"
            }
        },
        {
            "type": "Feature",
            "geometry": {
                "type": "Point",
                "coordinates": [
                    16.0817905,
                    48.5611454
                ]
            },
            "properties": {
                "name": "Handelsakademie"
            }
        },
        {
            "type": "Feature",
            "geometry": {
                "type": "Point",
                "coordinates": [
                    16.3779575,
                    48.2154295
                ]
            },
            "properties": {
                "name": "Neue Mittelschule Kleine Sperlgasse"
            }
        },
        {
            "type": "Feature",
            "geometry": {
                "type": "Point",
                "coordinates": [
                    16.3746512,
                    48.2215128
                ]
            },
            "properties": {
                "name": "Neue Mittelschule St. Elisabeth"
            }
        },
        {
            "type": "Feature",
            "geometry": {
                "type": "Point",
                "coordinates": [
                    16.3774839,
                    48.2192454
                ]
            },
            "properties": {
                "name": "SPZ Schwarzingergasse"
            }
        },
        {
            "type": "Feature",
            "geometry": {
                "type": "Point",
                "coordinates": [
                    16.3757854,
                    48.2220559
                ]
            },
            "properties": {
                "name": "KMS Augartenschule"
            }
        },
        {
            "type": "Feature",
            "geometry": {
                "type": "Point",
                "coordinates": [
                    16.3768387,
                    48.2203818
                ]
            },
            "properties": {
                "name": "Beth Jakov J\u00fcdische M\u00e4dchenschule f\u00fcr wirtschaftliche Berufe"
            }
        },
        {
            "type": "Feature",
            "geometry": {
                "type": "Point",
                "coordinates": [
                    16.399753,
                    48.2063714
                ]
            },
            "properties": {
                "name": "Bundes-Blindenerziehungsinstitut"
            }
        },
        {
            "type": "Feature",
            "geometry": {
                "type": "Point",
                "coordinates": [
                    13.8822124,
                    46.5991449
                ]
            },
            "properties": {
                "name": "VS 11"
            }
        },
        {
            "type": "Feature",
            "geometry": {
                "type": "Point",
                "coordinates": [
                    13.8410835,
                    46.6213607
                ]
            },
            "properties": {
                "name": "Polytechnische Schule"
            }
        },
        {
            "type": "Feature",
            "geometry": {
                "type": "Point",
                "coordinates": [
                    16.3886499,
                    48.2052216
                ]
            },
            "properties": {
                "name": "EWI Institut"
            }
        },
        {
            "type": "Feature",
            "geometry": {
                "type": "Point",
                "coordinates": [
                    14.4676582,
                    46.6158063
                ]
            },
            "properties": {
                "name": "Volksschule Grafenstein : Clemens Holzmeister"
            }
        },
        {
            "type": "Feature",
            "geometry": {
                "type": "Point",
                "coordinates": [
                    14.4682855,
                    46.6157162
                ]
            },
            "properties": {
                "name": "Musikschule Grafenstein"
            }
        },
        {
            "type": "Feature",
            "geometry": {
                "type": "Point",
                "coordinates": [
                    14.0469326,
                    48.5748485
                ]
            },
            "properties": {
                "name": "Hauptschule Haslach"
            }
        },
        {
            "type": "Feature",
            "geometry": {
                "type": "Point",
                "coordinates": [
                    16.5486823,
                    47.6026496
                ]
            },
            "properties": {
                "name": "Volksschule"
            }
        },
        {
            "type": "Feature",
            "geometry": {
                "type": "Point",
                "coordinates": [
                    16.6329624,
                    48.6650501
                ]
            },
            "properties": {
                "name": "Neue N\u00d6 Mittelschule Poysdorf 1"
            }
        },
        {
            "type": "Feature",
            "geometry": {
                "type": "Point",
                "coordinates": [
                    13.9601716,
                    48.0782272
                ]
            },
            "properties": {
                "name": "Hauptschule"
            }
        },
        {
            "type": "Feature",
            "geometry": {
                "type": "Point",
                "coordinates": [
                    16.1953063,
                    47.9631513
                ]
            },
            "properties": {
                "name": "Volksschule Gainfarn"
            }
        },
        {
            "type": "Feature",
            "geometry": {
                "type": "Point",
                "coordinates": [
                    16.2033237,
                    47.9635444
                ]
            },
            "properties": {
                "name": "Musikschule Bad V\u00f6slau"
            }
        },
        {
            "type": "Feature",
            "geometry": {
                "type": "Point",
                "coordinates": [
                    12.4897507,
                    46.7520696
                ]
            }
        },
        {
            "type": "Feature",
            "geometry": {
                "type": "Point",
                "coordinates": [
                    14.5102205,
                    48.3491509
                ]
            },
            "properties": {
                "name": "Volksschule"
            }
        },
        {
            "type": "Feature",
            "geometry": {
                "type": "Point",
                "coordinates": [
                    15.3198309,
                    48.9133711
                ]
            },
            "properties": {
                "name": "Neue N\u00d6 Mittelschule Dobersberg"
            }
        },
        {
            "type": "Feature",
            "geometry": {
                "type": "Point",
                "coordinates": [
                    15.2900744,
                    48.8548601
                ]
            },
            "properties": {
                "name": "Volksschule Thaya"
            }
        },
        {
            "type": "Feature",
            "geometry": {
                "type": "Point",
                "coordinates": [
                    15.4944267,
                    47.9335248
                ]
            },
            "properties": {
                "name": "Volksschule"
            }
        },
        {
            "type": "Feature",
            "geometry": {
                "type": "Point",
                "coordinates": [
                    16.3395388,
                    48.22047
                ]
            },
            "properties": {
                "name": "Lutherschule und Sch\u00fclerhort"
            }
        },
        {
            "type": "Feature",
            "geometry": {
                "type": "Point",
                "coordinates": [
                    9.6623211,
                    47.4399245
                ]
            },
            "properties": {
                "name": "Volksschule Rotkreuz"
            }
        },
        {
            "type": "Feature",
            "geometry": {
                "type": "Point",
                "coordinates": [
                    9.6605218,
                    47.4295487
                ]
            },
            "properties": {
                "name": "Hauptschule Kirchdorf"
            }
        },
        {
            "type": "Feature",
            "geometry": {
                "type": "Point",
                "coordinates": [
                    16.4371329,
                    48.0807672
                ]
            },
            "properties": {
                "name": "Schulzentrum Himberg"
            }
        },
        {
            "type": "Feature",
            "geometry": {
                "type": "Point",
                "coordinates": [
                    11.3273124,
                    47.2533869
                ]
            },
            "properties": {
                "name": "Volksschule V\u00f6ls"
            }
        },
        {
            "type": "Feature",
            "geometry": {
                "type": "Point",
                "coordinates": [
                    14.5175948,
                    48.3671696
                ]
            },
            "properties": {
                "name": "Volksschule"
            }
        },
        {
            "type": "Feature",
            "geometry": {
                "type": "Point",
                "coordinates": [
                    15.302888,
                    47.0367563
                ]
            },
            "properties": {
                "name": "Neue Mittelschule Hitzendorf"
            }
        },
        {
            "type": "Feature",
            "geometry": {
                "type": "Point",
                "coordinates": [
                    15.3024923,
                    47.0363213
                ]
            },
            "properties": {
                "name": "Volksschule Hitzendorf"
            }
        },
        {
            "type": "Feature",
            "geometry": {
                "type": "Point",
                "coordinates": [
                    15.9340918,
                    47.0010463
                ]
            },
            "properties": {
                "name": "Volksschule"
            }
        },
        {
            "type": "Feature",
            "geometry": {
                "type": "Point",
                "coordinates": [
                    16.3840669,
                    48.1981112
                ]
            },
            "properties": {
                "name": "Volksschule Reisnerstra\u00dfe"
            }
        },
        {
            "type": "Feature",
            "geometry": {
                "type": "Point",
                "coordinates": [
                    13.8209542,
                    48.0241629
                ]
            },
            "properties": {
                "name": "Volksschule"
            }
        },
        {
            "type": "Feature",
            "geometry": {
                "type": "Point",
                "coordinates": [
                    13.7768627,
                    47.8039919
                ]
            },
            "properties": {
                "name": "Hauptschule II"
            }
        },
        {
            "type": "Feature",
            "geometry": {
                "type": "Point",
                "coordinates": [
                    13.7764276,
                    47.80336
                ]
            },
            "properties": {
                "name": "BHS Mode und Bekleidung"
            }
        },
        {
            "type": "Feature",
            "geometry": {
                "type": "Point",
                "coordinates": [
                    13.7717799,
                    47.8132885
                ]
            }
        },
        {
            "type": "Feature",
            "geometry": {
                "type": "Point",
                "coordinates": [
                    15.6217311,
                    48.1845799
                ]
            },
            "properties": {
                "name": "Seminarzentrum Schwaighof"
            }
        },
        {
            "type": "Feature",
            "geometry": {
                "type": "Point",
                "coordinates": [
                    15.2953193,
                    47.8146434
                ]
            },
            "properties": {
                "name": "Volksschule Mitterbach"
            }
        },
        {
            "type": "Feature",
            "geometry": {
                "type": "Point",
                "coordinates": [
                    16.4036439,
                    48.1977391
                ]
            },
            "properties": {
                "name": "GRgIII Hagenm\u00fcllergasse 30"
            }
        },
        {
            "type": "Feature",
            "geometry": {
                "type": "Point",
                "coordinates": [
                    15.2893812,
                    48.76527
                ]
            },
            "properties": {
                "name": "Volkschule Windigsteig"
            }
        },
        {
            "type": "Feature",
            "geometry": {
                "type": "Point",
                "coordinates": [
                    16.352378,
                    48.1907694
                ]
            },
            "properties": {
                "name": "SAE Institute"
            }
        },
        {
            "type": "Feature",
            "geometry": {
                "type": "Point",
                "coordinates": [
                    15.9304403,
                    48.5277654
                ]
            },
            "properties": {
                "name": "Neue N\u00d6 Mittelschule Ziersdorf"
            }
        },
        {
            "type": "Feature",
            "geometry": {
                "type": "Point",
                "coordinates": [
                    14.7928239,
                    48.0266337
                ]
            },
            "properties": {
                "name": "Volksschule Allhartsberg"
            }
        },
        {
            "type": "Feature",
            "geometry": {
                "type": "Point",
                "coordinates": [
                    14.7930314,
                    48.026685
                ]
            },
            "properties": {
                "name": "Neue N\u00d6 Mittelschule Allhartsberg"
            }
        },
        {
            "type": "Feature",
            "geometry": {
                "type": "Point",
                "coordinates": [
                    14.7958697,
                    48.0269244
                ]
            },
            "properties": {
                "name": "Musikschule Allhartsberg"
            }
        },
        {
            "type": "Feature",
            "geometry": {
                "type": "Point",
                "coordinates": [
                    16.3413898,
                    48.2060914
                ]
            },
            "properties": {
                "name": "Volksschule der Stadt Wien"
            }
        },
        {
            "type": "Feature",
            "geometry": {
                "type": "Point",
                "coordinates": [
                    15.806392,
                    48.0025023
                ]
            },
            "properties": {
                "name": "Volksschule u. Kindergarten"
            }
        },
        {
            "type": "Feature",
            "geometry": {
                "type": "Point",
                "coordinates": [
                    13.8955494,
                    48.6167939
                ]
            },
            "properties": {
                "name": "Hauptschule Peilstein"
            }
        },
        {
            "type": "Feature",
            "geometry": {
                "type": "Point",
                "coordinates": [
                    16.4736949,
                    48.433977
                ]
            }
        },
        {
            "type": "Feature",
            "geometry": {
                "type": "Point",
                "coordinates": [
                    14.1332307,
                    47.8797512
                ]
            },
            "properties": {
                "name": "Allgemeine Sonderschule"
            }
        },
        {
            "type": "Feature",
            "geometry": {
                "type": "Point",
                "coordinates": [
                    16.3855983,
                    48.2162724
                ]
            },
            "properties": {
                "name": "Evangelische Volksschule Leopoldstadt"
            }
        },
        {
            "type": "Feature",
            "geometry": {
                "type": "Point",
                "coordinates": [
                    16.3875998,
                    48.214857
                ]
            },
            "properties": {
                "name": "Volksschule Czerninplatz"
            }
        },
        {
            "type": "Feature",
            "geometry": {
                "type": "Point",
                "coordinates": [
                    15.7161134,
                    47.1069361
                ]
            },
            "properties": {
                "name": "Neue Mittelschule"
            }
        },
        {
            "type": "Feature",
            "geometry": {
                "type": "Point",
                "coordinates": [
                    15.7143217,
                    47.1070232
                ]
            },
            "properties": {
                "name": "BG/BRG Gleisdorf"
            }
        },
        {
            "type": "Feature",
            "geometry": {
                "type": "Point",
                "coordinates": [
                    16.3247633,
                    48.2333108
                ]
            },
            "properties": {
                "name": "Musikhauptschule Wien KMMS Alseggerstra\u00dfe"
            }
        },
        {
            "type": "Feature",
            "geometry": {
                "type": "Point",
                "coordinates": [
                    16.9848133,
                    48.0160071
                ]
            },
            "properties": {
                "name": "Volksschule"
            }
        },
        {
            "type": "Feature",
            "geometry": {
                "type": "Point",
                "coordinates": [
                    16.3686581,
                    48.1993616
                ]
            },
            "properties": {
                "name": "pVS evangelische Kirche Karlsplatz 14"
            }
        },
        {
            "type": "Feature",
            "geometry": {
                "type": "Point",
                "coordinates": [
                    11.3986158,
                    47.2816964
                ]
            },
            "properties": {
                "name": "Zooschule"
            }
        },
        {
            "type": "Feature",
            "geometry": {
                "type": "Point",
                "coordinates": [
                    14.2902223,
                    48.5212853
                ]
            },
            "properties": {
                "name": "Hauptschule"
            }
        },
        {
            "type": "Feature",
            "geometry": {
                "type": "Point",
                "coordinates": [
                    16.3629036,
                    48.1969218
                ]
            },
            "properties": {
                "name": "Konservatorium f\u00fcr Musik und Dramatische Kunst der Margarete Prayner"
            }
        },
        {
            "type": "Feature",
            "geometry": {
                "type": "Point",
                "coordinates": [
                    15.8812588,
                    48.1078394
                ]
            },
            "properties": {
                "name": "Volksschule"
            }
        },
        {
            "type": "Feature",
            "geometry": {
                "type": "Point",
                "coordinates": [
                    15.6688236,
                    48.0442921
                ]
            },
            "properties": {
                "name": "Volks- und NMS-Neue Mittelschule St. Veit"
            }
        },
        {
            "type": "Feature",
            "geometry": {
                "type": "Point",
                "coordinates": [
                    16.333769,
                    48.2248919
                ]
            },
            "properties": {
                "name": "Schulzentrum Antonigasse"
            }
        },
        {
            "type": "Feature",
            "geometry": {
                "type": "Point",
                "coordinates": [
                    15.2873981,
                    48.8556835
                ]
            },
            "properties": {
                "name": "Musikschule"
            }
        },
        {
            "type": "Feature",
            "geometry": {
                "type": "Point",
                "coordinates": [
                    13.5061352,
                    46.9550275
                ]
            },
            "properties": {
                "name": "Volksschule Malta"
            }
        },
        {
            "type": "Feature",
            "geometry": {
                "type": "Point",
                "coordinates": [
                    11.3744721,
                    47.2640675
                ]
            },
            "properties": {
                "name": "Bundesrealgymnasium in der Au"
            }
        },
        {
            "type": "Feature",
            "geometry": {
                "type": "Point",
                "coordinates": [
                    11.3589309,
                    47.265311
                ]
            },
            "properties": {
                "name": "Tiroler Fachberufsschule f\u00fcr Handel und B\u00fcro"
            }
        },
        {
            "type": "Feature",
            "geometry": {
                "type": "Point",
                "coordinates": [
                    11.3586443,
                    47.2650692
                ]
            },
            "properties": {
                "name": "Tiroler Fachberufsschule f\u00fcr Handel und B\u00fcro"
            }
        },
        {
            "type": "Feature",
            "geometry": {
                "type": "Point",
                "coordinates": [
                    11.3583957,
                    47.2645553
                ]
            },
            "properties": {
                "name": "Tiroler Fachberufschule f\u00fcr Elektrotechnik, Kommunikation und Elektronik"
            }
        },
        {
            "type": "Feature",
            "geometry": {
                "type": "Point",
                "coordinates": [
                    15.7112285,
                    47.1082506
                ]
            },
            "properties": {
                "name": "Volksschule Gleisdorf"
            }
        },
        {
            "type": "Feature",
            "geometry": {
                "type": "Point",
                "coordinates": [
                    15.6184793,
                    48.2071725
                ]
            },
            "properties": {
                "name": "H\u00f6here Technische Lehranstalt Hauptgeb\u00e4ude"
            }
        },
        {
            "type": "Feature",
            "geometry": {
                "type": "Point",
                "coordinates": [
                    14.1030799,
                    47.5063776
                ]
            },
            "properties": {
                "name": "Volksschule Irdning"
            }
        },
        {
            "type": "Feature",
            "geometry": {
                "type": "Point",
                "coordinates": [
                    14.0996492,
                    47.5024227
                ]
            },
            "properties": {
                "name": "Neue Mittelschule Irdning"
            }
        },
        {
            "type": "Feature",
            "geometry": {
                "type": "Point",
                "coordinates": [
                    14.4160836,
                    48.051259
                ]
            },
            "properties": {
                "name": "HS Tabor"
            }
        },
        {
            "type": "Feature",
            "geometry": {
                "type": "Point",
                "coordinates": [
                    14.405495,
                    48.0425534
                ]
            },
            "properties": {
                "name": "Wehrgrabenschule"
            }
        },
        {
            "type": "Feature",
            "geometry": {
                "type": "Point",
                "coordinates": [
                    14.4078267,
                    48.0429448
                ]
            },
            "properties": {
                "name": "Altenpflegeschule Steyr"
            }
        },
        {
            "type": "Feature",
            "geometry": {
                "type": "Point",
                "coordinates": [
                    14.4155944,
                    48.0377742
                ]
            },
            "properties": {
                "name": "Musikhauptschule"
            }
        },
        {
            "type": "Feature",
            "geometry": {
                "type": "Point",
                "coordinates": [
                    14.4190893,
                    48.0464404
                ]
            },
            "properties": {
                "name": "Volksschule Tabor"
            }
        },
        {
            "type": "Feature",
            "geometry": {
                "type": "Point",
                "coordinates": [
                    16.339945,
                    48.1990626
                ]
            },
            "properties": {
                "name": "Mater Salvatoris"
            }
        },
        {
            "type": "Feature",
            "geometry": {
                "type": "Point",
                "coordinates": [
                    14.636552,
                    48.2403333
                ]
            },
            "properties": {
                "name": "Borg Perg"
            }
        },
        {
            "type": "Feature",
            "geometry": {
                "type": "Point",
                "coordinates": [
                    16.7138339,
                    48.1151476
                ]
            },
            "properties": {
                "name": "Volksschule Haslau an der Donau"
            }
        },
        {
            "type": "Feature",
            "geometry": {
                "type": "Point",
                "coordinates": [
                    11.4425316,
                    47.2361736
                ]
            },
            "properties": {
                "name": "Volksschule Sistrans"
            }
        },
        {
            "type": "Feature",
            "geometry": {
                "type": "Point",
                "coordinates": [
                    14.5327427,
                    46.7481604
                ]
            },
            "properties": {
                "name": "Volksschule Br\u00fcckl"
            }
        },
        {
            "type": "Feature",
            "geometry": {
                "type": "Point",
                "coordinates": [
                    11.3773031,
                    47.2331514
                ]
            },
            "properties": {
                "name": "Kindergarten Natters"
            }
        },
        {
            "type": "Feature",
            "geometry": {
                "type": "Point",
                "coordinates": [
                    16.7005282,
                    48.1455515
                ]
            },
            "properties": {
                "name": "Neue Nieder\u00f6sterreichische Mittelschule Orth an der Donau"
            }
        },
        {
            "type": "Feature",
            "geometry": {
                "type": "Point",
                "coordinates": [
                    16.7043669,
                    48.1466097
                ]
            },
            "properties": {
                "name": "Volksschule Orth an der Donau"
            }
        },
        {
            "type": "Feature",
            "geometry": {
                "type": "Point",
                "coordinates": [
                    15.2132494,
                    47.0096456
                ]
            },
            "properties": {
                "name": "Hauptschule und Neue Mittelschule Krottendorf"
            }
        },
        {
            "type": "Feature",
            "geometry": {
                "type": "Point",
                "coordinates": [
                    16.3853138,
                    48.1950754
                ]
            },
            "properties": {
                "name": "Institut Sacre-Coeur d. Erzdi\u00f6zese Wien"
            }
        },
        {
            "type": "Feature",
            "geometry": {
                "type": "Point",
                "coordinates": [
                    9.8960416,
                    47.4687546
                ]
            },
            "properties": {
                "name": "Volks- und Sonderschule"
            }
        },
        {
            "type": "Feature",
            "geometry": {
                "type": "Point",
                "coordinates": [
                    15.6213044,
                    48.2015644
                ]
            },
            "properties": {
                "name": "H\u00f6here Technische Lehranstalt Exposit f\u00fcr EDV und Organisation"
            }
        },
        {
            "type": "Feature",
            "geometry": {
                "type": "Point",
                "coordinates": [
                    15.0789149,
                    48.5205869
                ]
            },
            "properties": {
                "name": "Neue N\u00d6 Mittelschule Rappottenstein"
            }
        },
        {
            "type": "Feature",
            "geometry": {
                "type": "Point",
                "coordinates": [
                    15.0781437,
                    48.5204828
                ]
            },
            "properties": {
                "name": "Volksschule"
            }
        },
        {
            "type": "Feature",
            "geometry": {
                "type": "Point",
                "coordinates": [
                    15.0776821,
                    48.5206959
                ]
            },
            "properties": {
                "name": "Kindergarten"
            }
        },
        {
            "type": "Feature",
            "geometry": {
                "type": "Point",
                "coordinates": [
                    13.4238063,
                    47.9853915
                ]
            },
            "properties": {
                "name": "Volksschule Frankenmarkt"
            }
        },
        {
            "type": "Feature",
            "geometry": {
                "type": "Point",
                "coordinates": [
                    12.7559938,
                    47.2708757
                ]
            },
            "properties": {
                "name": "Hauptschule Kaprun"
            }
        },
        {
            "type": "Feature",
            "geometry": {
                "type": "Point",
                "coordinates": [
                    16.2389851,
                    47.8139272
                ]
            },
            "properties": {
                "name": "BORG Wiener Neustadt"
            }
        },
        {
            "type": "Feature",
            "geometry": {
                "type": "Point",
                "coordinates": [
                    16.2373882,
                    47.8180676
                ]
            },
            "properties": {
                "name": "Bundesrealgymnasium Gr\u00f6hrm\u00fchlgasse"
            }
        },
        {
            "type": "Feature",
            "geometry": {
                "type": "Point",
                "coordinates": [
                    16.3922007,
                    48.1951535
                ]
            },
            "properties": {
                "name": "BG & BRG Wien 3 (HIB)"
            }
        },
        {
            "type": "Feature",
            "geometry": {
                "type": "Point",
                "coordinates": [
                    16.3871512,
                    48.1960336
                ]
            },
            "properties": {
                "name": "Schulzentrum Ungargasse"
            }
        },
        {
            "type": "Feature",
            "geometry": {
                "type": "Point",
                "coordinates": [
                    16.3144752,
                    48.1288116
                ]
            }
        },
        {
            "type": "Feature",
            "geometry": {
                "type": "Point",
                "coordinates": [
                    16.3140457,
                    48.1282463
                ]
            }
        },
        {
            "type": "Feature",
            "geometry": {
                "type": "Point",
                "coordinates": [
                    16.378104,
                    48.2068608
                ]
            },
            "properties": {
                "name": "GRG1 Stubenbastei"
            }
        },
        {
            "type": "Feature",
            "geometry": {
                "type": "Point",
                "coordinates": [
                    16.0128406,
                    47.169459
                ]
            },
            "properties": {
                "name": "VOLKSSCHULE Bad Waltersdorf"
            }
        },
        {
            "type": "Feature",
            "geometry": {
                "type": "Point",
                "coordinates": [
                    16.0135372,
                    47.1695245
                ]
            },
            "properties": {
                "name": "HAUPTSCHULE Bad Waltersdorf"
            }
        },
        {
            "type": "Feature",
            "geometry": {
                "type": "Point",
                "coordinates": [
                    16.2345886,
                    48.0066593
                ]
            },
            "properties": {
                "name": "BG und BRG Baden Frauengasse"
            }
        },
        {
            "type": "Feature",
            "geometry": {
                "type": "Point",
                "coordinates": [
                    13.0008709,
                    46.6723618
                ]
            },
            "properties": {
                "name": "Volks- und Musikschule K\u00f6tschach-Mauthen"
            }
        },
        {
            "type": "Feature",
            "geometry": {
                "type": "Point",
                "coordinates": [
                    16.1844148,
                    47.9207553
                ]
            },
            "properties": {
                "name": "Volksschule Enzesfeld \u2013 Lindabrunn"
            }
        },
        {
            "type": "Feature",
            "geometry": {
                "type": "Point",
                "coordinates": [
                    16.4682652,
                    48.2176441
                ]
            },
            "properties": {
                "name": "Krankenpflegeschule Donauspital"
            }
        },
        {
            "type": "Feature",
            "geometry": {
                "type": "Point",
                "coordinates": [
                    16.4776465,
                    48.2192707
                ]
            },
            "properties": {
                "name": "Volkshochschule Donaustadt"
            }
        },
        {
            "type": "Feature",
            "geometry": {
                "type": "Point",
                "coordinates": [
                    12.540149,
                    47.001925
                ]
            },
            "properties": {
                "name": "Landesmusikschule Matrei-Iseltal"
            }
        },
        {
            "type": "Feature",
            "geometry": {
                "type": "Point",
                "coordinates": [
                    13.0723412,
                    47.7811348
                ]
            },
            "properties": {
                "name": "Fachschule f\u00fcr Sozialberufe - Caritas"
            }
        },
        {
            "type": "Feature",
            "geometry": {
                "type": "Point",
                "coordinates": [
                    12.8452518,
                    47.4272899
                ]
            },
            "properties": {
                "name": "Bildungszentrum"
            }
        },
        {
            "type": "Feature",
            "geometry": {
                "type": "Point",
                "coordinates": [
                    14.2333282,
                    48.3951738
                ]
            },
            "properties": {
                "name": "Volksschule Eidenberg"
            }
        },
        {
            "type": "Feature",
            "geometry": {
                "type": "Point",
                "coordinates": [
                    15.8686858,
                    47.6502224
                ]
            },
            "properties": {
                "name": "Musikschule"
            }
        },
        {
            "type": "Feature",
            "geometry": {
                "type": "Point",
                "coordinates": [
                    16.2979182,
                    47.5070861
                ]
            },
            "properties": {
                "name": "Volksschule"
            }
        },
        {
            "type": "Feature",
            "geometry": {
                "type": "Point",
                "coordinates": [
                    12.4198527,
                    47.2755715
                ]
            },
            "properties": {
                "name": "Volksschule Hollersbach"
            }
        },
        {
            "type": "Feature",
            "geometry": {
                "type": "Point",
                "coordinates": [
                    15.955406,
                    48.7592779
                ]
            },
            "properties": {
                "name": "Neue N\u00d6 Mittelschule & Polytechnischer Lehrgang Retz"
            }
        },
        {
            "type": "Feature",
            "geometry": {
                "type": "Point",
                "coordinates": [
                    15.134942,
                    48.0588214
                ]
            },
            "properties": {
                "name": "Musikschule"
            }
        },
        {
            "type": "Feature",
            "geometry": {
                "type": "Point",
                "coordinates": [
                    15.9566173,
                    48.7499542
                ]
            },
            "properties": {
                "name": "H\u00f6here Bundeslehranstalt f\u00fcr Tourismus Retz"
            }
        },
        {
            "type": "Feature",
            "geometry": {
                "type": "Point",
                "coordinates": [
                    15.9532506,
                    48.7586303
                ]
            },
            "properties": {
                "name": "Volksschule Retz"
            }
        },
        {
            "type": "Feature",
            "geometry": {
                "type": "Point",
                "coordinates": [
                    16.4774605,
                    48.1398302
                ]
            },
            "properties": {
                "name": "Musikschule Schwechat"
            }
        },
        {
            "type": "Feature",
            "geometry": {
                "type": "Point",
                "coordinates": [
                    9.9842371,
                    47.3230505
                ]
            },
            "properties": {
                "name": "Volks-/Hauptschule"
            }
        },
        {
            "type": "Feature",
            "geometry": {
                "type": "Point",
                "coordinates": [
                    12.8790774,
                    46.8692818
                ]
            },
            "properties": {
                "name": "Nationalpark Hauptschule"
            }
        },
        {
            "type": "Feature",
            "geometry": {
                "type": "Point",
                "coordinates": [
                    16.3687967,
                    48.2136167
                ]
            },
            "properties": {
                "name": "Volksschule B\u00f6rsegasse"
            }
        },
        {
            "type": "Feature",
            "geometry": {
                "type": "Point",
                "coordinates": [
                    16.3646655,
                    48.2141596
                ]
            },
            "properties": {
                "name": "Lise Meitner Realgymnasium"
            }
        },
        {
            "type": "Feature",
            "geometry": {
                "type": "Point",
                "coordinates": [
                    16.368569,
                    48.2136159
                ]
            },
            "properties": {
                "name": "NMS Renngasse"
            }
        },
        {
            "type": "Feature",
            "geometry": {
                "type": "Point",
                "coordinates": [
                    16.3643485,
                    48.2121474
                ]
            },
            "properties": {
                "name": "\u00d6ffentliches Schottengymnasium der Benediktiner in Wien"
            }
        },
        {
            "type": "Feature",
            "geometry": {
                "type": "Point",
                "coordinates": [
                    16.3696874,
                    48.2111421
                ]
            },
            "properties": {
                "name": "Gastgewerbefachschule der Wiener Gastwirte"
            }
        },
        {
            "type": "Feature",
            "geometry": {
                "type": "Point",
                "coordinates": [
                    16.3728781,
                    48.2078766
                ]
            },
            "properties": {
                "name": "Religionsp\u00e4dagogische Akademie"
            }
        },
        {
            "type": "Feature",
            "geometry": {
                "type": "Point",
                "coordinates": [
                    16.3709485,
                    48.2078924
                ]
            },
            "properties": {
                "name": "Konservatorium der Erzdi\u00f6zese Wien"
            }
        },
        {
            "type": "Feature",
            "geometry": {
                "type": "Point",
                "coordinates": [
                    16.3751369,
                    48.20345
                ]
            },
            "properties": {
                "name": "BORG f\u00fcr Musik und Kunst"
            }
        },
        {
            "type": "Feature",
            "geometry": {
                "type": "Point",
                "coordinates": [
                    16.3744354,
                    48.2028598
                ]
            },
            "properties": {
                "name": "ORG Hegelgasse 14"
            }
        },
        {
            "type": "Feature",
            "geometry": {
                "type": "Point",
                "coordinates": [
                    16.3766125,
                    48.2015474
                ]
            },
            "properties": {
                "name": "Akademisches Gymnasium"
            }
        },
        {
            "type": "Feature",
            "geometry": {
                "type": "Point",
                "coordinates": [
                    11.0811212,
                    47.3171007
                ]
            },
            "properties": {
                "name": "Kindergarten"
            }
        },
        {
            "type": "Feature",
            "geometry": {
                "type": "Point",
                "coordinates": [
                    14.3658963,
                    48.2854731
                ]
            },
            "properties": {
                "name": "Volksschule"
            }
        },
        {
            "type": "Feature",
            "geometry": {
                "type": "Point",
                "coordinates": [
                    13.2822456,
                    48.2938408
                ]
            },
            "properties": {
                "name": "Volksschule Kirchdorf am Inn"
            }
        },
        {
            "type": "Feature",
            "geometry": {
                "type": "Point",
                "coordinates": [
                    15.1358709,
                    48.125237
                ]
            },
            "properties": {
                "name": "Volksschule Wieselburg"
            }
        },
        {
            "type": "Feature",
            "geometry": {
                "type": "Point",
                "coordinates": [
                    16.0141402,
                    48.6192383
                ]
            },
            "properties": {
                "name": "Volksschule Mittergrabern"
            }
        },
        {
            "type": "Feature",
            "geometry": {
                "type": "Point",
                "coordinates": [
                    15.2229259,
                    48.6066544
                ]
            },
            "properties": {
                "name": "Landwirtschaftliche Fachschule"
            }
        },
        {
            "type": "Feature",
            "geometry": {
                "type": "Point",
                "coordinates": [
                    15.2181309,
                    48.7204977
                ]
            },
            "properties": {
                "name": "Volksschule"
            }
        },
        {
            "type": "Feature",
            "geometry": {
                "type": "Point",
                "coordinates": [
                    16.4015,
                    48.7231865
                ]
            },
            "properties": {
                "name": "Bundeshandelsakademie Handelsschule"
            }
        },
        {
            "type": "Feature",
            "geometry": {
                "type": "Point",
                "coordinates": [
                    11.3927393,
                    47.2663151
                ]
            },
            "properties": {
                "name": "Bundesrealgymnasium am Adolf-Pichler-Platz Innsbruck"
            }
        },
        {
            "type": "Feature",
            "geometry": {
                "type": "Point",
                "coordinates": [
                    11.3884601,
                    47.2721763
                ]
            },
            "properties": {
                "name": "Priesterseminar Innsbruck"
            }
        },
        {
            "type": "Feature",
            "geometry": {
                "type": "Point",
                "coordinates": [
                    14.5503702,
                    47.8868116
                ]
            },
            "properties": {
                "name": "Landesmusikschule"
            }
        },
        {
            "type": "Feature",
            "geometry": {
                "type": "Point",
                "coordinates": [
                    14.2077963,
                    46.6277148
                ]
            },
            "properties": {
                "name": "Volksschule Krumpendorf"
            }
        },
        {
            "type": "Feature",
            "geometry": {
                "type": "Point",
                "coordinates": [
                    12.4379679,
                    46.7506228
                ]
            },
            "properties": {
                "name": "Volkschule Heinfels"
            }
        },
        {
            "type": "Feature",
            "geometry": {
                "type": "Point",
                "coordinates": [
                    14.2563697,
                    48.2659722
                ]
            },
            "properties": {
                "name": "Neue Mittelschule Hart"
            }
        },
        {
            "type": "Feature",
            "geometry": {
                "type": "Point",
                "coordinates": [
                    14.2553513,
                    48.2658477
                ]
            },
            "properties": {
                "name": "Polytechnische Schule Leonding"
            }
        },
        {
            "type": "Feature",
            "geometry": {
                "type": "Point",
                "coordinates": [
                    14.2558617,
                    48.2659104
                ]
            },
            "properties": {
                "name": "Volksschule Hart"
            }
        },
        {
            "type": "Feature",
            "geometry": {
                "type": "Point",
                "coordinates": [
                    16.4026949,
                    48.2818485
                ]
            },
            "properties": {
                "name": "GRG 21 \u00d6denburgerstra\u00dfe"
            }
        },
        {
            "type": "Feature",
            "geometry": {
                "type": "Point",
                "coordinates": [
                    13.7254483,
                    47.7743356
                ]
            },
            "properties": {
                "name": "Volksschule Langwies"
            }
        },
        {
            "type": "Feature",
            "geometry": {
                "type": "Point",
                "coordinates": [
                    15.8184621,
                    46.7445792
                ]
            },
            "properties": {
                "name": "Volksschule"
            }
        },
        {
            "type": "Feature",
            "geometry": {
                "type": "Point",
                "coordinates": [
                    15.4067243,
                    47.0320631
                ]
            },
            "properties": {
                "name": "bit schulungscenter"
            }
        },
        {
            "type": "Feature",
            "geometry": {
                "type": "Point",
                "coordinates": [
                    12.8191171,
                    46.831869
                ]
            },
            "properties": {
                "name": "Hauptschule"
            }
        },
        {
            "type": "Feature",
            "geometry": {
                "type": "Point",
                "coordinates": [
                    15.3376561,
                    47.19546
                ]
            },
            "properties": {
                "name": "Hauptschule Deutschfeistritz"
            }
        },
        {
            "type": "Feature",
            "geometry": {
                "type": "Point",
                "coordinates": [
                    10.0014865,
                    47.1238217
                ]
            },
            "properties": {
                "name": "Volksschule"
            }
        },
        {
            "type": "Feature",
            "geometry": {
                "type": "Point",
                "coordinates": [
                    15.5130224,
                    46.7791969
                ]
            },
            "properties": {
                "name": "Weinbauschule Silberberg"
            }
        },
        {
            "type": "Feature",
            "geometry": {
                "type": "Point",
                "coordinates": [
                    16.2908717,
                    48.0151719
                ]
            },
            "properties": {
                "name": "Alle Kassen"
            }
        },
        {
            "type": "Feature",
            "geometry": {
                "type": "Point",
                "coordinates": [
                    15.9676824,
                    47.2787412
                ]
            },
            "properties": {
                "name": "Gerlitz Hauptschule"
            }
        },
        {
            "type": "Feature",
            "geometry": {
                "type": "Point",
                "coordinates": [
                    11.3690147,
                    47.2600682
                ]
            },
            "properties": {
                "name": "Volkschule Angergasse"
            }
        },
        {
            "type": "Feature",
            "geometry": {
                "type": "Point",
                "coordinates": [
                    13.0692348,
                    47.823476
                ]
            },
            "properties": {
                "name": "KIndergarten Sam Alterbach"
            }
        },
        {
            "type": "Feature",
            "geometry": {
                "type": "Point",
                "coordinates": [
                    13.0493913,
                    47.8041128
                ]
            },
            "properties": {
                "name": "Studentenwohnheim Glockengasse"
            }
        },
        {
            "type": "Feature",
            "geometry": {
                "type": "Point",
                "coordinates": [
                    15.7049632,
                    46.7765886
                ]
            },
            "properties": {
                "name": "alte Volksschule Siebing"
            }
        },
        {
            "type": "Feature",
            "geometry": {
                "type": "Point",
                "coordinates": [
                    14.4193494,
                    48.4063641
                ]
            },
            "properties": {
                "name": "Volksschule Alberndorf"
            }
        },
        {
            "type": "Feature",
            "geometry": {
                "type": "Point",
                "coordinates": [
                    14.391945,
                    47.7129819
                ]
            },
            "properties": {
                "name": "Volksschule Rosenau"
            }
        },
        {
            "type": "Feature",
            "geometry": {
                "type": "Point",
                "coordinates": [
                    13.0436008,
                    47.7983769
                ]
            },
            "properties": {
                "name": "ICT&S Center der Universit\u00e4t Salzburg"
            }
        },
        {
            "type": "Feature",
            "geometry": {
                "type": "Point",
                "coordinates": [
                    15.115144,
                    48.4363419
                ]
            },
            "properties": {
                "name": "Volksschule"
            }
        },
        {
            "type": "Feature",
            "geometry": {
                "type": "Point",
                "coordinates": [
                    16.5587774,
                    48.2980204
                ]
            },
            "properties": {
                "name": "Bundesoberstufenrealgymnasium Deutsch-Wagram"
            }
        },
        {
            "type": "Feature",
            "geometry": {
                "type": "Point",
                "coordinates": [
                    16.2185733,
                    47.9283713
                ]
            },
            "properties": {
                "name": "Musikschule"
            }
        },
        {
            "type": "Feature",
            "geometry": {
                "type": "Point",
                "coordinates": [
                    12.5266432,
                    47.4898299
                ]
            },
            "properties": {
                "name": "Volksschule Rosenegg"
            }
        },
        {
            "type": "Feature",
            "geometry": {
                "type": "Point",
                "coordinates": [
                    16.569104,
                    48.3558331
                ]
            },
            "properties": {
                "name": "Volksschule"
            }
        },
        {
            "type": "Feature",
            "geometry": {
                "type": "Point",
                "coordinates": [
                    15.0375773,
                    48.4543651
                ]
            },
            "properties": {
                "name": "Volksschule"
            }
        },
        {
            "type": "Feature",
            "geometry": {
                "type": "Point",
                "coordinates": [
                    10.8679154,
                    46.986376
                ]
            },
            "properties": {
                "name": "Volksschule Plangeross"
            }
        },
        {
            "type": "Feature",
            "geometry": {
                "type": "Point",
                "coordinates": [
                    15.5619917,
                    47.8515176
                ]
            },
            "properties": {
                "name": "Neue Nieder\u00f6sterreichische Mittelschule St. Aegyd"
            }
        },
        {
            "type": "Feature",
            "geometry": {
                "type": "Point",
                "coordinates": [
                    10.4465642,
                    47.572205
                ]
            },
            "properties": {
                "name": "Schule Jungholz"
            }
        },
        {
            "type": "Feature",
            "geometry": {
                "type": "Point",
                "coordinates": [
                    14.1016416,
                    48.5685356
                ]
            },
            "properties": {
                "name": "Volksschule Sankt Stefan"
            }
        },
        {
            "type": "Feature",
            "geometry": {
                "type": "Point",
                "coordinates": [
                    12.9954225,
                    47.226361
                ]
            },
            "properties": {
                "name": "Hauptschule Rauris"
            }
        },
        {
            "type": "Feature",
            "geometry": {
                "type": "Point",
                "coordinates": [
                    16.4571441,
                    48.2187282
                ]
            },
            "properties": {
                "name": "Volksschule Maria Frieden"
            }
        },
        {
            "type": "Feature",
            "geometry": {
                "type": "Point",
                "coordinates": [
                    16.3449789,
                    48.2430602
                ]
            },
            "properties": {
                "name": "Bundesgymnasium & Bundesrealgymnasium GRG 19"
            }
        },
        {
            "type": "Feature",
            "geometry": {
                "type": "Point",
                "coordinates": [
                    16.349481,
                    48.2378871
                ]
            },
            "properties": {
                "name": "GRG19 Gymnasium"
            }
        },
        {
            "type": "Feature",
            "geometry": {
                "type": "Point",
                "coordinates": [
                    14.289482,
                    48.5214061
                ]
            },
            "properties": {
                "name": "Polytechnische Schule"
            }
        },
        {
            "type": "Feature",
            "geometry": {
                "type": "Point",
                "coordinates": [
                    16.7429382,
                    48.4653416
                ]
            },
            "properties": {
                "name": "Volksschule Spannberg"
            }
        },
        {
            "type": "Feature",
            "geometry": {
                "type": "Point",
                "coordinates": [
                    11.3566934,
                    47.2676436
                ]
            },
            "properties": {
                "name": "Volksschule Allerheiligen"
            }
        },
        {
            "type": "Feature",
            "geometry": {
                "type": "Point",
                "coordinates": [
                    16.3556013,
                    48.3088038
                ]
            },
            "properties": {
                "name": "Musikschule Langenzersdorf"
            }
        },
        {
            "type": "Feature",
            "geometry": {
                "type": "Point",
                "coordinates": [
                    15.4011046,
                    47.2177536
                ]
            },
            "properties": {
                "name": "VS Semriach"
            }
        },
        {
            "type": "Feature",
            "geometry": {
                "type": "Point",
                "coordinates": [
                    16.3895453,
                    48.2603384
                ]
            },
            "properties": {
                "name": "Henry-Dunant-Volksschule"
            }
        },
        {
            "type": "Feature",
            "geometry": {
                "type": "Point",
                "coordinates": [
                    15.5117381,
                    47.5406301
                ]
            },
            "properties": {
                "name": "Forstschule Pichl"
            }
        },
        {
            "type": "Feature",
            "geometry": {
                "type": "Point",
                "coordinates": [
                    15.9781441,
                    47.2795102
                ]
            },
            "properties": {
                "name": "HLW"
            }
        },
        {
            "type": "Feature",
            "geometry": {
                "type": "Point",
                "coordinates": [
                    13.1860884,
                    47.899751
                ]
            },
            "properties": {
                "name": "Musikmittelschule und Hauptschule"
            }
        },