{
    "type": "FeatureCollection",
    "features": [
        {
            "type": "Feature",
            "geometry": {
                "type": "Point",
                "coordinates": [
                    -8.4681313,
                    40.204569
                ]
            }
        },
        {
            "type": "Feature",
            "geometry": {
                "type": "Point",
                "coordinates": [
                    -8.4144674,
                    40.2501894
                ]
            },
            "properties": {
                "name": "Escola Prim\u00e1ria"
            }
        },
        {
            "type": "Feature",
            "geometry": {
                "type": "Point",
                "coordinates": [
                    -8.3451375,
                    40.1588174
                ]
            },
            "properties": {
                "name": "Escola Professor Doutor Ferrer Correia"
            }
        },
        {
            "type": "Feature",
            "geometry": {
                "type": "Point",
                "coordinates": [
                    -9.1704064,
                    38.7600625
                ]
            }
        },
        {
            "type": "Feature",
            "geometry": {
                "type": "Point",
                "coordinates": [
                    -8.8867068,
                    38.5800281
                ]
            },
            "properties": {
                "name": "St. Peter's Internacional School"
            }
        },
        {
            "type": "Feature",
            "geometry": {
                "type": "Point",
                "coordinates": [
                    -9.2813633,
                    38.7319782
                ]
            },
            "properties": {
                "name": "Escola Primaria N1 de Barcarena"
            }
        },
        {
            "type": "Feature",
            "geometry": {
                "type": "Point",
                "coordinates": [
                    -17.0788856,
                    32.6839668
                ]
            },
            "properties": {
                "name": "Escola Basica Tabua"
            }
        },
        {
            "type": "Feature",
            "geometry": {
                "type": "Point",
                "coordinates": [
                    -8.6765328,
                    37.09249
                ]
            },
            "properties": {
                "name": "Torraltinha"
            }
        },
        {
            "type": "Feature",
            "geometry": {
                "type": "Point",
                "coordinates": [
                    -9.394603,
                    38.995051
                ]
            },
            "properties": {
                "name": "Escola B\u00e1sica de Santo Isidoro"
            }
        },
        {
            "type": "Feature",
            "geometry": {
                "type": "Point",
                "coordinates": [
                    -8.8401409,
                    37.2955743
                ]
            },
            "properties": {
                "name": "Amovate"
            }
        },
        {
            "type": "Feature",
            "geometry": {
                "type": "Point",
                "coordinates": [
                    -7.4981601,
                    39.8206192
                ]
            },
            "properties": {
                "name": "Escola Secund\u00e1ria Amato Lusitano"
            }
        },
        {
            "type": "Feature",
            "geometry": {
                "type": "Point",
                "coordinates": [
                    -9.2577985,
                    39.0841173
                ]
            },
            "properties": {
                "name": "Madeira Torres"
            }
        },
        {
            "type": "Feature",
            "geometry": {
                "type": "Point",
                "coordinates": [
                    -8.6321429,
                    41.0055455
                ]
            }
        },
        {
            "type": "Feature",
            "geometry": {
                "type": "Point",
                "coordinates": [
                    -8.630233,
                    41.0100001
                ]
            }
        },
        {
            "type": "Feature",
            "geometry": {
                "type": "Point",
                "coordinates": [
                    -9.2554794,
                    38.8519657
                ]
            }
        },
        {
            "type": "Feature",
            "geometry": {
                "type": "Point",
                "coordinates": [
                    -8.7615768,
                    41.3743583
                ]
            }
        },
        {
            "type": "Feature",
            "geometry": {
                "type": "Point",
                "coordinates": [
                    -8.8153857,
                    39.743788
                ]
            },
            "properties": {
                "name": "Jardim de Inf\u00e2ncia dos Capuchos"
            }
        },
        {
            "type": "Feature",
            "geometry": {
                "type": "Point",
                "coordinates": [
                    -8.8724549,
                    37.9600917
                ]
            },
            "properties": {
                "name": "Escola B\u00e1sica do 2\u00ba e 3\u00ba Ciclo Vasco da Gama"
            }
        },
        {
            "type": "Feature",
            "geometry": {
                "type": "Point",
                "coordinates": [
                    -8.6859871,
                    39.227169
                ]
            },
            "properties": {
                "name": "Escola Secund\u00e1ria Doutor Ginestal Machado"
            }
        },
        {
            "type": "Feature",
            "geometry": {
                "type": "Point",
                "coordinates": [
                    -8.7934376,
                    39.7457605
                ]
            },
            "properties": {
                "name": "Escola Correia Mateus"
            }
        },
        {
            "type": "Feature",
            "geometry": {
                "type": "Point",
                "coordinates": [
                    -8.6169753,
                    37.1589164
                ]
            },
            "properties": {
                "name": "E.B.2,3"
            }
        },
        {
            "type": "Feature",
            "geometry": {
                "type": "Point",
                "coordinates": [
                    -7.4915945,
                    39.826956
                ]
            },
            "properties": {
                "name": "Conservat\u00f3rio"
            }
        },
        {
            "type": "Feature",
            "geometry": {
                "type": "Point",
                "coordinates": [
                    -8.6622396,
                    41.2445637
                ]
            },
            "properties": {
                "name": "Escola B\u00e1sica do 2\u00ba e 3\u00ba Ciclo Professor Vieira de Carvalho"
            }
        },
        {
            "type": "Feature",
            "geometry": {
                "type": "Point",
                "coordinates": [
                    -8.661062,
                    41.2524568
                ]
            }
        },
        {
            "type": "Feature",
            "geometry": {
                "type": "Point",
                "coordinates": [
                    -8.6637477,
                    41.2441852
                ]
            },
            "properties": {
                "name": "Escola B\u00e1sica do 1\u00ba Ciclo e Jardim de Inf\u00e2ncia Matos"
            }
        },
        {
            "type": "Feature",
            "geometry": {
                "type": "Point",
                "coordinates": [
                    -9.0926108,
                    38.8235344
                ]
            },
            "properties": {
                "name": "Escola Secund\u00e1ria de S\u00e3o Jo\u00e3o da Talha"
            }
        },
        {
            "type": "Feature",
            "geometry": {
                "type": "Point",
                "coordinates": [
                    -9.0999258,
                    38.8081885
                ]
            }
        },
        {
            "type": "Feature",
            "geometry": {
                "type": "Point",
                "coordinates": [
                    -9.1001919,
                    38.8069177
                ]
            }
        },
        {
            "type": "Feature",
            "geometry": {
                "type": "Point",
                "coordinates": [
                    -8.59037,
                    37.1282802
                ]
            }
        },
        {
            "type": "Feature",
            "geometry": {
                "type": "Point",
                "coordinates": [
                    -8.3754249,
                    40.8244551
                ]
            },
            "properties": {
                "name": "Complexo Escolar de Cavi\u00e3o"
            }
        },
        {
            "type": "Feature",
            "geometry": {
                "type": "Point",
                "coordinates": [
                    -16.8208589,
                    32.7071831
                ]
            },
            "properties": {
                "name": "Arendrup"
            }
        },
        {
            "type": "Feature",
            "geometry": {
                "type": "Point",
                "coordinates": [
                    -8.8153939,
                    39.5981227
                ]
            },
            "properties": {
                "name": "Escola 3\u00ba Ciclo e Secund\u00e1ria de Porto de M\u00f2s"
            }
        },
        {
            "type": "Feature",
            "geometry": {
                "type": "Point",
                "coordinates": [
                    -9.2053353,
                    38.768192
                ]
            }
        },
        {
            "type": "Feature",
            "geometry": {
                "type": "Point",
                "coordinates": [
                    -9.2125477,
                    38.7803433
                ]
            }
        },
        {
            "type": "Feature",
            "geometry": {
                "type": "Point",
                "coordinates": [
                    -8.3707615,
                    41.1864258
                ]
            },
            "properties": {
                "name": "Casa M\u00e3e"
            }
        },
        {
            "type": "Feature",
            "geometry": {
                "type": "Point",
                "coordinates": [
                    -7.9133088,
                    39.9213796
                ]
            }
        },
        {
            "type": "Feature",
            "geometry": {
                "type": "Point",
                "coordinates": [
                    -8.8237097,
                    39.7631289
                ]
            },
            "properties": {
                "name": "Escola Secund\u00e1ria Afonso Lopes Vieira"
            }
        },
        {
            "type": "Feature",
            "geometry": {
                "type": "Point",
                "coordinates": [
                    -8.8526122,
                    37.9536249
                ]
            },
            "properties": {
                "name": "Escola Secund\u00e1ria 3.\u00ba CEB Poeta Al Berto"
            }
        },
        {
            "type": "Feature",
            "geometry": {
                "type": "Point",
                "coordinates": [
                    -8.8479316,
                    41.6995001
                ]
            }
        },
        {
            "type": "Feature",
            "geometry": {
                "type": "Point",
                "coordinates": [
                    -8.7034849,
                    39.729881
                ]
            }
        },
        {
            "type": "Feature",
            "geometry": {
                "type": "Point",
                "coordinates": [
                    -8.8191142,
                    39.755805
                ]
            }
        },
        {
            "type": "Feature",
            "geometry": {
                "type": "Point",
                "coordinates": [
                    -8.2875813,
                    37.0849842
                ]
            },
            "properties": {
                "name": "EB1 Das Sesmarias"
            }
        },
        {
            "type": "Feature",
            "geometry": {
                "type": "Point",
                "coordinates": [
                    -8.315886,
                    37.0984832
                ]
            },
            "properties": {
                "name": "Escola Primaria"
            }
        },
        {
            "type": "Feature",
            "geometry": {
                "type": "Point",
                "coordinates": [
                    -8.2994409,
                    37.1253908
                ]
            },
            "properties": {
                "name": "Escola Primaria"
            }
        },
        {
            "type": "Feature",
            "geometry": {
                "type": "Point",
                "coordinates": [
                    -9.2460735,
                    38.7121176
                ]
            },
            "properties": {
                "name": "Escola B\u00e1sica Dom Pedro V"
            }
        },
        {
            "type": "Feature",
            "geometry": {
                "type": "Point",
                "coordinates": [
                    -8.3887004,
                    41.2130925
                ]
            },
            "properties": {
                "name": "Escola B\u00e1sica e Jardim de Inf\u00e2ncia do Bac\u00ealo"
            }
        },
        {
            "type": "Feature",
            "geometry": {
                "type": "Point",
                "coordinates": [
                    -9.0634836,
                    38.6560242
                ]
            },
            "properties": {
                "name": "Escola B\u00e1sica do Barreiro n\u00ba 5"
            }
        },
        {
            "type": "Feature",
            "geometry": {
                "type": "Point",
                "coordinates": [
                    -9.1588894,
                    38.7820734
                ]
            },
            "properties": {
                "name": "Academia de M\u00fasica de Santa Cec\u00edlia"
            }
        },
        {
            "type": "Feature",
            "geometry": {
                "type": "Point",
                "coordinates": [
                    -8.8914422,
                    38.5268533
                ]
            },
            "properties": {
                "name": "Escola Secund\u00e1ria Sebasti\u00e3o da Gama"
            }
        },
        {
            "type": "Feature",
            "geometry": {
                "type": "Point",
                "coordinates": [
                    -8.8902849,
                    38.5376228
                ]
            }
        },
        {
            "type": "Feature",
            "geometry": {
                "type": "Point",
                "coordinates": [
                    -9.1463168,
                    38.738351
                ]
            },
            "properties": {
                "name": "Externato Infante Dom Pedro"
            }
        },
        {
            "type": "Feature",
            "geometry": {
                "type": "Point",
                "coordinates": [
                    -8.3148521,
                    41.658306
                ]
            },
            "properties": {
                "name": "Escola Prim\u00e1ria (Velha)"
            }
        },
        {
            "type": "Feature",
            "geometry": {
                "type": "Point",
                "coordinates": [
                    -8.3166257,
                    41.6578143
                ]
            },
            "properties": {
                "name": "Escola Prim\u00e1ria (Nova)"
            }
        },
        {
            "type": "Feature",
            "geometry": {
                "type": "Point",
                "coordinates": [
                    -9.287036,
                    38.7535499
                ]
            },
            "properties": {
                "name": "Escola E B 1 N. 2 de Massam\u00e1"
            }
        },
        {
            "type": "Feature",
            "geometry": {
                "type": "Point",
                "coordinates": [
                    -9.2321637,
                    38.7509179
                ]
            },
            "properties": {
                "name": "EB1/JI Vasco Martins Rebolo"
            }
        },
        {
            "type": "Feature",
            "geometry": {
                "type": "Point",
                "coordinates": [
                    -9.0775576,
                    38.4622596
                ]
            },
            "properties": {
                "name": "Escola das Pedreiras (Antiga)"
            }
        },
        {
            "type": "Feature",
            "geometry": {
                "type": "Point",
                "coordinates": [
                    -8.4466101,
                    37.1883186
                ]
            },
            "properties": {
                "name": "EB 2, 3 Doutor Garcia Domingues"
            }
        },
        {
            "type": "Feature",
            "geometry": {
                "type": "Point",
                "coordinates": [
                    -8.439932,
                    40.2395944
                ]
            },
            "properties": {
                "name": "Cearte - Centro de Forma\u00e7\u00e3o"
            }
        },
        {
            "type": "Feature",
            "geometry": {
                "type": "Point",
                "coordinates": [
                    -8.4458175,
                    37.1873748
                ]
            },
            "properties": {
                "name": "Amigos dos Pequeninos de Silves"
            }
        },
        {
            "type": "Feature",
            "geometry": {
                "type": "Point",
                "coordinates": [
                    -25.6590059,
                    37.745038
                ]
            },
            "properties": {
                "name": "Escola M\u00e3e de Deus"
            }
        },
        {
            "type": "Feature",
            "geometry": {
                "type": "Point",
                "coordinates": [
                    -7.8956448,
                    40.8362451
                ]
            },
            "properties": {
                "name": "Escola Prim\u00e1ria da Moita"
            }
        },
        {
            "type": "Feature",
            "geometry": {
                "type": "Point",
                "coordinates": [
                    -8.4470637,
                    37.1907481
                ]
            },
            "properties": {
                "name": "Escola EB 1 n.\u00ba 1"
            }
        },
        {
            "type": "Feature",
            "geometry": {
                "type": "Point",
                "coordinates": [
                    -8.445746,
                    37.1904788
                ]
            },
            "properties": {
                "name": "Escola Secund\u00e1ria de Silves"
            }
        },
        {
            "type": "Feature",
            "geometry": {
                "type": "Point",
                "coordinates": [
                    -8.7959307,
                    39.1681554
                ]
            },
            "properties": {
                "name": "Escola Secund\u00e1ra do Cartaxo"
            }
        },
        {
            "type": "Feature",
            "geometry": {
                "type": "Point",
                "coordinates": [
                    -7.6535135,
                    39.5157837
                ]
            },
            "properties": {
                "name": "Escola EB1/JI de Nisa"
            }
        },
        {
            "type": "Feature",
            "geometry": {
                "type": "Point",
                "coordinates": [
                    -8.4467455,
                    37.1874023
                ]
            },
            "properties": {
                "name": "Polo de Forma\u00e7\u00e3o Profissional"
            }
        },
        {
            "type": "Feature",
            "geometry": {
                "type": "Point",
                "coordinates": [
                    -8.1930977,
                    40.2842579
                ]
            },
            "properties": {
                "name": "Escola Prim\u00e1ria de Hombres"
            }
        },
        {
            "type": "Feature",
            "geometry": {
                "type": "Point",
                "coordinates": [
                    -8.70757,
                    39.8410693
                ]
            },
            "properties": {
                "name": "Col\u00e9gio Jo\u00e3o de Barros"
            }
        },
        {
            "type": "Feature",
            "geometry": {
                "type": "Point",
                "coordinates": [
                    -9.2615816,
                    38.7794302
                ]
            }
        },
        {
            "type": "Feature",
            "geometry": {
                "type": "Point",
                "coordinates": [
                    -9.2345551,
                    38.7991786
                ]
            }
        },
        {
            "type": "Feature",
            "geometry": {
                "type": "Point",
                "coordinates": [
                    -9.2373774,
                    38.8019587
                ]
            }
        },
        {
            "type": "Feature",
            "geometry": {
                "type": "Point",
                "coordinates": [
                    -8.1472283,
                    37.1138088
                ]
            },
            "properties": {
                "name": "Vilamoura International School"
            }
        },
        {
            "type": "Feature",
            "geometry": {
                "type": "Point",
                "coordinates": [
                    -8.4276477,
                    41.648078
                ]
            },
            "properties": {
                "name": "Escola EB 2-3 de Vila Verde"
            }
        },
        {
            "type": "Feature",
            "geometry": {
                "type": "Point",
                "coordinates": [
                    -8.2152576,
                    38.6193873
                ]
            }
        },
        {
            "type": "Feature",
            "geometry": {
                "type": "Point",
                "coordinates": [
                    -9.133604,
                    38.6101636
                ]
            },
            "properties": {
                "name": "Escola Basica 1 Foros de Amora"
            }
        },
        {
            "type": "Feature",
            "geometry": {
                "type": "Point",
                "coordinates": [
                    -8.7008554,
                    39.8266399
                ]
            }
        },
        {
            "type": "Feature",
            "geometry": {
                "type": "Point",
                "coordinates": [
                    -9.3992647,
                    38.7330368
                ]
            },
            "properties": {
                "name": "Escola Superior de Sa\u00fade do Alcoit\u00e3o"
            }
        },
        {
            "type": "Feature",
            "geometry": {
                "type": "Point",
                "coordinates": [
                    -8.6979075,
                    39.7470566
                ]
            }
        },
        {
            "type": "Feature",
            "geometry": {
                "type": "Point",
                "coordinates": [
                    -9.2407776,
                    38.7108349
                ]
            },
            "properties": {
                "name": "EB1"
            }
        },
        {
            "type": "Feature",
            "geometry": {
                "type": "Point",
                "coordinates": [
                    -9.3150859,
                    38.691369
                ]
            },
            "properties": {
                "name": "GTPB Bioinformatics Training Room"
            }
        },
        {
            "type": "Feature",
            "geometry": {
                "type": "Point",
                "coordinates": [
                    -8.6080569,
                    40.8544716
                ]
            },
            "properties": {
                "name": "S\u00e3o Miguel Ovar"
            }
        },
        {
            "type": "Feature",
            "geometry": {
                "type": "Point",
                "coordinates": [
                    -8.6130458,
                    40.8546096
                ]
            },
            "properties": {
                "name": "EJI"
            }
        },
        {
            "type": "Feature",
            "geometry": {
                "type": "Point",
                "coordinates": [
                    -8.6128098,
                    40.8542607
                ]
            },
            "properties": {
                "name": "ESM"
            }
        },
        {
            "type": "Feature",
            "geometry": {
                "type": "Point",
                "coordinates": [
                    -17.1729268,
                    32.866473
                ]
            },
            "properties": {
                "name": "Escola Prim\u00e1ria do Porto Moniz"
            }
        },
        {
            "type": "Feature",
            "geometry": {
                "type": "Point",
                "coordinates": [
                    -16.8441823,
                    32.6790556
                ]
            },
            "properties": {
                "name": "Camacha"
            }
        },
        {
            "type": "Feature",
            "geometry": {
                "type": "Point",
                "coordinates": [
                    -8.626751,
                    39.6477167
                ]
            },
            "properties": {
                "name": "Escola Prim\u00e1ria"
            }
        },
        {
            "type": "Feature",
            "geometry": {
                "type": "Point",
                "coordinates": [
                    -16.9420542,
                    32.6501722
                ]
            },
            "properties": {
                "name": "Escola Prim\u00e1ria de S\u00e3o Martinho"
            }
        },
        {
            "type": "Feature",
            "geometry": {
                "type": "Point",
                "coordinates": [
                    -16.8949024,
                    32.6566967
                ]
            },
            "properties": {
                "name": "Escola Basica Visconde Cacongo"
            }
        },
        {
            "type": "Feature",
            "geometry": {
                "type": "Point",
                "coordinates": [
                    -9.2993742,
                    38.7164061
                ]
            },
            "properties": {
                "name": "EB1 de Porto Salvo"
            }
        },
        {
            "type": "Feature",
            "geometry": {
                "type": "Point",
                "coordinates": [
                    -7.2868099,
                    39.1198571
                ]
            },
            "properties": {
                "name": "Escola Prim\u00e1ria"
            }
        },
        {
            "type": "Feature",
            "geometry": {
                "type": "Point",
                "coordinates": [
                    -9.2635919,
                    38.7242749
                ]
            },
            "properties": {
                "name": "Escola eb1/"
            }
        },
        {
            "type": "Feature",
            "geometry": {
                "type": "Point",
                "coordinates": [
                    -8.3580883,
                    41.6310993
                ]
            },
            "properties": {
                "name": "Escola de ingles"
            }
        },
        {
            "type": "Feature",
            "geometry": {
                "type": "Point",
                "coordinates": [
                    -8.5910397,
                    39.6423842
                ]
            }
        },
        {
            "type": "Feature",
            "geometry": {
                "type": "Point",
                "coordinates": [
                    -17.1484075,
                    32.7123488
                ]
            },
            "properties": {
                "name": "Escola Primeiro ciclo - Pr\u00e9 Ladeira e Lamaceiros"
            }
        },
        {
            "type": "Feature",
            "geometry": {
                "type": "Point",
                "coordinates": [
                    -7.6606762,
                    39.1974413
                ]
            }
        },
        {
            "type": "Feature",
            "geometry": {
                "type": "Point",
                "coordinates": [
                    -8.6529604,
                    40.2817012
                ]
            }
        },
        {
            "type": "Feature",
            "geometry": {
                "type": "Point",
                "coordinates": [
                    -7.3570068,
                    40.7719581
                ]
            }
        },
        {
            "type": "Feature",
            "geometry": {
                "type": "Point",
                "coordinates": [
                    -7.9216237,
                    37.0188553
                ]
            },
            "properties": {
                "name": "Centro de Forma\u00e7\u00e3o Ria Formosa"
            }
        },
        {
            "type": "Feature",
            "geometry": {
                "type": "Point",
                "coordinates": [
                    -7.9402949,
                    37.0237735
                ]
            },
            "properties": {
                "name": "Escola do Ensino B\u00e1sico 2, 3 D. Afonso III"
            }
        },
        {
            "type": "Feature",
            "geometry": {
                "type": "Point",
                "coordinates": [
                    -8.5794939,
                    41.039313
                ]
            },
            "properties": {
                "name": "Escola B\u00e1sica do 1\u00ba Ciclo de Corveiros"
            }
        },
        {
            "type": "Feature",
            "geometry": {
                "type": "Point",
                "coordinates": [
                    -8.5714258,
                    41.0221145
                ]
            },
            "properties": {
                "name": "Escola B\u00e1sica do 1\u00ba Ciclo do Loureiro"
            }
        },
        {
            "type": "Feature",
            "geometry": {
                "type": "Point",
                "coordinates": [
                    -8.564892,
                    41.0304432
                ]
            },
            "properties": {
                "name": "Escola B\u00e1sica do 1\u00ba Ciclo de Murraceses"
            }
        },
        {
            "type": "Feature",
            "geometry": {
                "type": "Point",
                "coordinates": [
                    -8.5871275,
                    41.0281236
                ]
            },
            "properties": {
                "name": "Escola B\u00e1sica do 1\u00ba Ciclo Santo Ant\u00f3nio"
            }
        },
        {
            "type": "Feature",
            "geometry": {
                "type": "Point",
                "coordinates": [
                    -8.5756476,
                    41.0278808
                ]
            },
            "properties": {
                "name": "Escola B\u00e1sica do 1\u00ba e 2\u00ba Ciclo de Grij\u00f3"
            }
        },
        {
            "type": "Feature",
            "geometry": {
                "type": "Point",
                "coordinates": [
                    -7.072447,
                    40.7737784
                ]
            },
            "properties": {
                "name": "Escola do 2\u00ba Ciclo de Pinhel"
            }
        },
        {
            "type": "Feature",
            "geometry": {
                "type": "Point",
                "coordinates": [
                    -7.0709466,
                    40.7740095
                ]
            },
            "properties": {
                "name": "Escola do 1\u00ba Ciclo de Pinhel"
            }
        },
        {
            "type": "Feature",
            "geometry": {
                "type": "Point",
                "coordinates": [
                    -7.0743744,
                    40.773461
                ]
            },
            "properties": {
                "name": "Escola Secund\u00e1ria c/ 3\u00ba Ciclo de Pinhel"
            }
        },
        {
            "type": "Feature",
            "geometry": {
                "type": "Point",
                "coordinates": [
                    -8.6731295,
                    40.1833448
                ]
            },
            "properties": {
                "name": "Escola Profissional de Montemor-o-Velho"
            }
        },
        {
            "type": "Feature",
            "geometry": {
                "type": "Point",
                "coordinates": [
                    -8.2467704,
                    37.1302088
                ]
            },
            "properties": {
                "name": "EB2/3 Ferreiras"
            }
        },
        {
            "type": "Feature",
            "geometry": {
                "type": "Point",
                "coordinates": [
                    -9.2280677,
                    38.7613368
                ]
            },
            "properties": {
                "name": "Escola B\u00e1sica E B 1 Artur Bual"
            }
        },
        {
            "type": "Feature",
            "geometry": {
                "type": "Point",
                "coordinates": [
                    -9.2091286,
                    38.7603039
                ]
            },
            "properties": {
                "name": "Escola B\u00e1sica E23 Alfornelos"
            }
        },
        {
            "type": "Feature",
            "geometry": {
                "type": "Point",
                "coordinates": [
                    -9.2246323,
                    38.7634866
                ]
            },
            "properties": {
                "name": "Agrupamento Vertical de Escolas M\u00e3es D'\u00c1gua"
            }
        },
        {
            "type": "Feature",
            "geometry": {
                "type": "Point",
                "coordinates": [
                    -9.2300366,
                    38.759009
                ]
            },
            "properties": {
                "name": "Escola EB1 da Mina"
            }
        },
        {
            "type": "Feature",
            "geometry": {
                "type": "Point",
                "coordinates": [
                    -8.5541806,
                    41.2092709
                ]
            },
            "properties": {
                "name": "Extrenato Maria Droste"
            }
        },
        {
            "type": "Feature",
            "geometry": {
                "type": "Point",
                "coordinates": [
                    -8.4706683,
                    40.6099107
                ]
            },
            "properties": {
                "name": "Instituto Duarte Lemos"
            }
        },
        {
            "type": "Feature",
            "geometry": {
                "type": "Point",
                "coordinates": [
                    -8.4316259,
                    37.1488818
                ]
            },
            "properties": {
                "name": "Deutsche Schule Algarve"
            }
        },
        {
            "type": "Feature",
            "geometry": {
                "type": "Point",
                "coordinates": [
                    -8.9083087,
                    38.5712131
                ]
            },
            "properties": {
                "name": "Escola Secund\u00e1ria de Palmela"
            }
        },
        {
            "type": "Feature",
            "geometry": {
                "type": "Point",
                "coordinates": [
                    -8.9009146,
                    38.5751134
                ]
            },
            "properties": {
                "name": "Escola C+S Hermenegildo Capelo"
            }
        },
        {
            "type": "Feature",
            "geometry": {
                "type": "Point",
                "coordinates": [
                    -8.4505811,
                    37.1392841
                ]
            },
            "properties": {
                "name": "Escola Secund\u00e1ria de Lagoa"
            }
        },
        {
            "type": "Feature",
            "geometry": {
                "type": "Point",
                "coordinates": [
                    -9.2333216,
                    38.8094688
                ]
            },
            "properties": {
                "name": "Escola Secund\u00e1ria de Cane\u00e7as"
            }
        },
        {
            "type": "Feature",
            "geometry": {
                "type": "Point",
                "coordinates": [
                    -8.490235,
                    39.5112278
                ]
            },
            "properties": {
                "name": "Escola Prim\u00e1ria"
            }
        },
        {
            "type": "Feature",
            "geometry": {
                "type": "Point",
                "coordinates": [
                    -8.4259507,
                    41.2090299
                ]
            },
            "properties": {
                "name": "Escola Prim\u00e1ria da Serrinha"
            }
        },
        {
            "type": "Feature",
            "geometry": {
                "type": "Point",
                "coordinates": [
                    -8.3967043,
                    40.8414459
                ]
            },
            "properties": {
                "name": "Academia Compassos"
            }
        },
        {
            "type": "Feature",
            "geometry": {
                "type": "Point",
                "coordinates": [
                    -8.3961324,
                    40.841249
                ]
            },
            "properties": {
                "name": "Cubo Sabich\u00e3o"
            }
        },
        {
            "type": "Feature",
            "geometry": {
                "type": "Point",
                "coordinates": [
                    -8.396217,
                    40.8411032
                ]
            },
            "properties": {
                "name": "Academia de dan\u00e7a Fame"
            }
        },
        {
            "type": "Feature",
            "geometry": {
                "type": "Point",
                "coordinates": [
                    -8.4299698,
                    41.4790205
                ]
            },
            "properties": {
                "name": "EB1 e Jardim de Inf\u00e2ncia de Escudeiros"
            }
        },
        {
            "type": "Feature",
            "geometry": {
                "type": "Point",
                "coordinates": [
                    -8.6443262,
                    41.0819651
                ]
            },
            "properties": {
                "name": "Francelos"
            }
        },
        {
            "type": "Feature",
            "geometry": {
                "type": "Point",
                "coordinates": [
                    -8.4730814,
                    42.0391845
                ]
            }
        },
        {
            "type": "Feature",
            "geometry": {
                "type": "Point",
                "coordinates": [
                    -8.8298481,
                    41.6920931
                ]
            },
            "properties": {
                "name": "Academia de M\u00fasica de Viana do Castelo"
            }
        },
        {
            "type": "Feature",
            "geometry": {
                "type": "Point",
                "coordinates": [
                    -8.5549932,
                    41.3341964
                ]
            },
            "properties": {
                "name": "Escola do Paranho"
            }
        },
        {
            "type": "Feature",
            "geometry": {
                "type": "Point",
                "coordinates": [
                    -8.5385796,
                    41.3401695
                ]
            },
            "properties": {
                "name": "Escola B\u00e1sica N\u00ba1 do 1\u00ba Ciclo de Esprela"
            }
        },
        {
            "type": "Feature",
            "geometry": {
                "type": "Point",
                "coordinates": [
                    -8.5435775,
                    41.3441378
                ]
            },
            "properties": {
                "name": "Escola B\u00e1sica N\u00ba2 do 1\u00ba Ciclo de Esprela"
            }
        },
        {
            "type": "Feature",
            "geometry": {
                "type": "Point",
                "coordinates": [
                    -8.4189791,
                    41.5448145
                ]
            },
            "properties": {
                "name": "Escola de M\u00fasica - Sal\u00e3o Mozart"
            }
        },
        {
            "type": "Feature",
            "geometry": {
                "type": "Point",
                "coordinates": [
                    -8.54417,
                    41.062364
                ]
            },
            "properties": {
                "name": "Escola Prim\u00e1ria do Pis\u00e3o"
            }
        },
        {
            "type": "Feature",
            "geometry": {
                "type": "Point",
                "coordinates": [
                    -8.2568237,
                    37.1671022
                ]
            },
            "properties": {
                "name": "Escola B\u00e1sica de Tunes"
            }
        },
        {
            "type": "Feature",
            "geometry": {
                "type": "Point",
                "coordinates": [
                    -8.3007316,
                    37.1248329
                ]
            }
        },
        {
            "type": "Feature",
            "geometry": {
                "type": "Point",
                "coordinates": [
                    -9.1141352,
                    38.7570115
                ]
            },
            "properties": {
                "name": "Escola Secundaria Vitorino Nemesio"
            }
        },
        {
            "type": "Feature",
            "geometry": {
                "type": "Point",
                "coordinates": [
                    -9.3774869,
                    39.0077709
                ]
            }
        },
        {
            "type": "Feature",
            "geometry": {
                "type": "Point",
                "coordinates": [
                    -8.4376831,
                    40.5602977
                ]
            },
            "properties": {
                "name": "EB1 da Borralha"
            }
        },
        {
            "type": "Feature",
            "geometry": {
                "type": "Point",
                "coordinates": [
                    -9.0800139,
                    38.8593216
                ]
            },
            "properties": {
                "name": "Creche Chuxinhas"
            }
        },
        {
            "type": "Feature",
            "geometry": {
                "type": "Point",
                "coordinates": [
                    -9.3718173,
                    39.1214932
                ]
            },
            "properties": {
                "name": "Escola Prim\u00e1ria Boavista"
            }
        },
        {
            "type": "Feature",
            "geometry": {
                "type": "Point",
                "coordinates": [
                    -7.6011124,
                    37.1349742
                ]
            },
            "properties": {
                "name": "Escola Prim\u00e1ria Cabanas"
            }
        },
        {
            "type": "Feature",
            "geometry": {
                "type": "Point",
                "coordinates": [
                    -8.4847891,
                    42.0717016
                ]
            },
            "properties": {
                "name": "EPRAMI - Escola profissional"
            }
        },
        {
            "type": "Feature",
            "geometry": {
                "type": "Point",
                "coordinates": [
                    -8.6334217,
                    39.0668253
                ]
            }
        },
        {
            "type": "Feature",
            "geometry": {
                "type": "Point",
                "coordinates": [
                    -9.2984621,
                    38.6975056
                ]
            },
            "properties": {
                "name": "Col\u00e9gio da Torre do Bugio"
            }
        },
        {
            "type": "Feature",
            "geometry": {
                "type": "Point",
                "coordinates": [
                    -9.2948011,
                    38.696639
                ]
            },
            "properties": {
                "name": "Externato A minha Escola"
            }
        },
        {
            "type": "Feature",
            "geometry": {
                "type": "Point",
                "coordinates": [
                    -9.2943424,
                    38.6972858
                ]
            },
            "properties": {
                "name": "Col\u00e9gio da Linha"
            }
        },
        {
            "type": "Feature",
            "geometry": {
                "type": "Point",
                "coordinates": [
                    -17.1345323,
                    32.7023024
                ]
            }
        },
        {
            "type": "Feature",
            "geometry": {
                "type": "Point",
                "coordinates": [
                    -8.3625508,
                    40.5898649
                ]
            },
            "properties": {
                "name": "EB1 - Castanheira do Vouga"
            }
        },
        {
            "type": "Feature",
            "geometry": {
                "type": "Point",
                "coordinates": [
                    -8.6662911,
                    37.5820613
                ]
            },
            "properties": {
                "name": "Escola Prim\u00e1ria"
            }
        },
        {
            "type": "Feature",
            "geometry": {
                "type": "Point",
                "coordinates": [
                    -7.8924973,
                    38.1617213
                ]
            },
            "properties": {
                "name": "Escola Profissional de Cuba"
            }
        },
        {
            "type": "Feature",
            "geometry": {
                "type": "Point",
                "coordinates": [
                    -9.2176566,
                    38.6963094
                ]
            }
        },
        {
            "type": "Feature",
            "geometry": {
                "type": "Point",
                "coordinates": [
                    -8.0086591,
                    38.3381545
                ]
            }
        },
        {
            "type": "Feature",
            "geometry": {
                "type": "Point",
                "coordinates": [
                    -7.9172646,
                    38.571776
                ]
            },
            "properties": {
                "name": "Col\u00e9gio Salesianos - \u00c9vora"
            }
        },
        {
            "type": "Feature",
            "geometry": {
                "type": "Point",
                "coordinates": [
                    -8.6646344,
                    39.4611265
                ]
            },
            "properties": {
                "name": "Escola EB1 de Alcanena"
            }
        },
        {
            "type": "Feature",
            "geometry": {
                "type": "Point",
                "coordinates": [
                    -7.8027013,
                    40.3392533
                ]
            }
        },
        {
            "type": "Feature",
            "geometry": {
                "type": "Point",
                "coordinates": [
                    -7.8542886,
                    40.354998
                ]
            }
        },
        {
            "type": "Feature",
            "geometry": {
                "type": "Point",
                "coordinates": [
                    -7.856885,
                    40.3601813
                ]
            }
        },
        {
            "type": "Feature",
            "geometry": {
                "type": "Point",
                "coordinates": [
                    -8.7291792,
                    38.1477969
                ]
            }
        },
        {
            "type": "Feature",
            "geometry": {
                "type": "Point",
                "coordinates": [
                    -8.6018397,
                    38.1214478
                ]
            }
        },
        {
            "type": "Feature",
            "geometry": {
                "type": "Point",
                "coordinates": [
                    -8.3104971,
                    40.9364307
                ]
            },
            "properties": {
                "name": "Escola B\u00e1sica do 1\u00ba Ciclo de Bac\u00ealo"
            }
        },
        {
            "type": "Feature",
            "geometry": {
                "type": "Point",
                "coordinates": [
                    -8.4279344,
                    40.9175227
                ]
            },
            "properties": {
                "name": "Montepio"
            }
        },
        {
            "type": "Feature",
            "geometry": {
                "type": "Point",
                "coordinates": [
                    -8.6646556,
                    39.4663347
                ]
            },
            "properties": {
                "name": "Escola EB2-3 Doutor Anast\u00e1cio Gon\u00e7alves"
            }
        },
        {
            "type": "Feature",
            "geometry": {
                "type": "Point",
                "coordinates": [
                    -8.3237698,
                    40.9356014
                ]
            },
            "properties": {
                "name": "E. B. 1 S. Jo\u00e3o"
            }
        },
        {
            "type": "Feature",
            "geometry": {
                "type": "Point",
                "coordinates": [
                    -8.5866646,
                    41.165689
                ]
            },
            "properties": {
                "name": "Agrupamento de Escola da Antas"
            }
        },
        {
            "type": "Feature",
            "geometry": {
                "type": "Point",
                "coordinates": [
                    -7.7463672,
                    41.2987002
                ]
            },
            "properties": {
                "name": "Escola Prim\u00e1ria Carvalho de Ara\u00fajo"
            }
        },
        {
            "type": "Feature",
            "geometry": {
                "type": "Point",
                "coordinates": [
                    -7.7438916,
                    41.2996472
                ]
            },
            "properties": {
                "name": "Col\u00e9gio S. Jos\u00e9"
            }
        },
        {
            "type": "Feature",
            "geometry": {
                "type": "Point",
                "coordinates": [
                    -8.6725157,
                    40.1819572
                ]
            },
            "properties": {
                "name": "Agrupamento de Escolas de Montemor-o-Velho"
            }
        },
        {
            "type": "Feature",
            "geometry": {
                "type": "Point",
                "coordinates": [
                    -8.6751174,
                    40.2874092
                ]
            },
            "properties": {
                "name": "Agrupamento de Escolas de Arazede"
            }
        },
        {
            "type": "Feature",
            "geometry": {
                "type": "Point",
                "coordinates": [
                    -7.4311253,
                    41.5654785
                ]
            }
        },
        {
            "type": "Feature",
            "geometry": {
                "type": "Point",
                "coordinates": [
                    -8.4196155,
                    41.5567575
                ]
            },
            "properties": {
                "name": "Instituto Brit\u00e2nico de Braga"
            }
        },
        {
            "type": "Feature",
            "geometry": {
                "type": "Point",
                "coordinates": [
                    -8.419519,
                    41.5643836
                ]
            },
            "properties": {
                "name": "Esprominho"
            }
        },
        {
            "type": "Feature",
            "geometry": {
                "type": "Point",
                "coordinates": [
                    -16.9150975,
                    32.6590679
                ]
            },
            "properties": {
                "name": "Escola Basica 2/3 Bartolomeu Perestrelo"
            }
        },
        {
            "type": "Feature",
            "geometry": {
                "type": "Point",
                "coordinates": [
                    -8.4199589,
                    41.5578299
                ]
            },
            "properties": {
                "name": "Tempos Livres"
            }
        },
        {
            "type": "Feature",
            "geometry": {
                "type": "Point",
                "coordinates": [
                    -8.8642858,
                    40.1546473
                ]
            },
            "properties": {
                "name": "2\u00ba Jardim-Escola Jo\u00e3o de Deus"
            }
        },
        {
            "type": "Feature",
            "geometry": {
                "type": "Point",
                "coordinates": [
                    -8.4211127,
                    41.5580888
                ]
            },
            "properties": {
                "name": "Escola de Capoeira"
            }
        },
        {
            "type": "Feature",
            "geometry": {
                "type": "Point",
                "coordinates": [
                    -8.4273073,
                    41.552358
                ]
            },
            "properties": {
                "name": "Wall Street"
            }
        },
        {
            "type": "Feature",
            "geometry": {
                "type": "Point",
                "coordinates": [
                    -16.3554139,
                    33.0468478
                ]
            },
            "properties": {
                "name": "Escola Campo de Baixo"
            }
        },
        {
            "type": "Feature",
            "geometry": {
                "type": "Point",
                "coordinates": [
                    -16.3331757,
                    33.0623749
                ]
            },
            "properties": {
                "name": "Escola da Vila"
            }
        },
        {
            "type": "Feature",
            "geometry": {
                "type": "Point",
                "coordinates": [
                    -8.5210723,
                    41.4068509
                ]
            },
            "properties": {
                "name": "Instituto de L\u00ednguas de VNF - Instituto Brit\u00e2nico"
            }
        },
        {
            "type": "Feature",
            "geometry": {
                "type": "Point",
                "coordinates": [
                    -25.6999956,
                    37.762035
                ]
            },
            "properties": {
                "name": "Escola B\u00e1sica Integrada de Arrifes"
            }
        },
        {
            "type": "Feature",
            "geometry": {
                "type": "Point",
                "coordinates": [
                    -8.5431515,
                    41.7925953
                ]
            },
            "properties": {
                "name": "Prim\u00e1ria de Ref\u00f3ios do Lima"
            }
        },
        {
            "type": "Feature",
            "geometry": {
                "type": "Point",
                "coordinates": [
                    -8.5834113,
                    41.7641011
                ]
            },
            "properties": {
                "name": "Instituto Brit\u00e2nico"
            }
        },
        {
            "type": "Feature",
            "geometry": {
                "type": "Point",
                "coordinates": [
                    -7.2431738,
                    40.5517283
                ]
            }
        },
        {
            "type": "Feature",
            "geometry": {
                "type": "Point",
                "coordinates": [
                    -8.3906173,
                    41.1374191
                ]
            },
            "properties": {
                "name": "Escola EB1 de Casconha n\u00ba1"
            }
        },
        {
            "type": "Feature",
            "geometry": {
                "type": "Point",
                "coordinates": [
                    -8.4318873,
                    39.4589394
                ]
            },
            "properties": {
                "name": "Escola de Condu\u00e7\u00e3o Central da Barquinha"
            }
        },
        {
            "type": "Feature",
            "geometry": {
                "type": "Point",
                "coordinates": [
                    -25.2992855,
                    37.73613
                ]
            },
            "properties": {
                "name": "Escola da Ribeira"
            }
        },
        {
            "type": "Feature",
            "geometry": {
                "type": "Point",
                "coordinates": [
                    -8.4677898,
                    40.1407473
                ]
            },
            "properties": {
                "name": "Escola B\u00e1sica do 1\u00ba Ciclo de Cernache"
            }
        },
        {
            "type": "Feature",
            "geometry": {
                "type": "Point",
                "coordinates": [
                    -9.2655594,
                    39.2467562
                ]
            }
        },
        {
            "type": "Feature",
            "geometry": {
                "type": "Point",
                "coordinates": [
                    -9.3325306,
                    38.9373458
                ]
            },
            "properties": {
                "name": "Escola Learning Gate"
            }
        },
        {
            "type": "Feature",
            "geometry": {
                "type": "Point",
                "coordinates": [
                    -8.4468029,
                    40.5770432
                ]
            },
            "properties": {
                "name": "Escola de Bailado de \u00c1gueda"
            }
        },
        {
            "type": "Feature",
            "geometry": {
                "type": "Point",
                "coordinates": [
                    -8.1911824,
                    41.3909451
                ]
            },
            "properties": {
                "name": "Antiga Escola Prim\u00e1ria de Gondim"
            }
        },
        {
            "type": "Feature",
            "geometry": {
                "type": "Point",
                "coordinates": [
                    -8.6912777,
                    40.2365556
                ]
            },
            "properties": {
                "name": "Escola Prim\u00e1ria do Seixo"
            }
        },
        {
            "type": "Feature",
            "geometry": {
                "type": "Point",
                "coordinates": [
                    -8.1033013,
                    39.3734254
                ]
            },
            "properties": {
                "name": "Escola Prim\u00e1ria"
            }
        },
        {
            "type": "Feature",
            "geometry": {
                "type": "Point",
                "coordinates": [
                    -9.1847042,
                    38.8092599
                ]
            }
        },
        {
            "type": "Feature",
            "geometry": {
                "type": "Point",
                "coordinates": [
                    -9.3288764,
                    38.7004166
                ]
            }
        },
        {
            "type": "Feature",
            "geometry": {
                "type": "Point",
                "coordinates": [
                    -8.3105814,
                    41.3675586
                ]
            },
            "properties": {
                "name": "Escola E.B. 23 Vizela"
            }
        },
        {
            "type": "Feature",
            "geometry": {
                "type": "Point",
                "coordinates": [
                    -8.2826221,
                    41.3662059
                ]
            },
            "properties": {
                "name": "Escola B\u00e1sica Dona Maria de Lurdes"
            }
        },
        {
            "type": "Feature",
            "geometry": {
                "type": "Point",
                "coordinates": [
                    -8.4254877,
                    41.5599143
                ]
            },
            "properties": {
                "name": "Escola de Dan\u00e7a Apolo"
            }
        },
        {
            "type": "Feature",
            "geometry": {
                "type": "Point",
                "coordinates": [
                    -8.419556,
                    41.5625174
                ]
            },
            "properties": {
                "name": "The Kids Club, escola de l\u00ednguas"
            }
        },
        {
            "type": "Feature",
            "geometry": {
                "type": "Point",
                "coordinates": [
                    -7.7813881,
                    41.8277621
                ]
            },
            "properties": {
                "name": "Escola do 3\u00ba Ciclo Doutor Bento da Cruz"
            }
        },
        {
            "type": "Feature",
            "geometry": {
                "type": "Point",
                "coordinates": [
                    -9.1633266,
                    38.8276238
                ]
            },
            "properties": {
                "name": "Escola Secund\u00e1ria de Jos\u00e9 Afonso"
            }
        },
        {
            "type": "Feature",
            "geometry": {
                "type": "Point",
                "coordinates": [
                    -7.4813943,
                    41.7544191
                ]
            },
            "properties": {
                "name": "Escola Profissional de Chaves"
            }
        },
        {
            "type": "Feature",
            "geometry": {
                "type": "Point",
                "coordinates": [
                    -7.468171,
                    41.76782
                ]
            },
            "properties": {
                "name": "IEFP,I.P - Centro de Forma\u00e7\u00e3o Profissional de Chaves"
            }
        },
        {
            "type": "Feature",
            "geometry": {
                "type": "Point",
                "coordinates": [
                    -8.8474969,
                    38.5205122
                ]
            },
            "properties": {
                "name": "Escola Profissional de Set\u00fabal"
            }
        },
        {
            "type": "Feature",
            "geometry": {
                "type": "Point",
                "coordinates": [
                    -8.8481796,
                    38.5200696
                ]
            },
            "properties": {
                "name": "Academia de Dan\u00e7a Contempor\u00e2nea de Set\u00fabal"
            }
        },
        {
            "type": "Feature",
            "geometry": {
                "type": "Point",
                "coordinates": [
                    -8.4764731,
                    42.075181
                ]
            },
            "properties": {
                "name": "Escola Prim\u00e1ria"
            }
        },
        {
            "type": "Feature",
            "geometry": {
                "type": "Point",
                "coordinates": [
                    -8.4137774,
                    41.8688072
                ]
            }
        },
        {
            "type": "Feature",
            "geometry": {
                "type": "Point",
                "coordinates": [
                    -8.0443687,
                    41.0838551
                ]
            },
            "properties": {
                "name": "Escola B\u00e1sica do 1\u00ba Ciclo de Oliveira do Douro"
            }
        },
        {
            "type": "Feature",
            "geometry": {
                "type": "Point",
                "coordinates": [
                    -8.0015426,
                    41.3905859
                ]
            },
            "properties": {
                "name": "Escola B\u00e1sica e Secund\u00e1ria de Celorico de Basto"
            }
        },
        {
            "type": "Feature",
            "geometry": {
                "type": "Point",
                "coordinates": [
                    -8.4140936,
                    40.8507545
                ]
            },
            "properties": {
                "name": "Escola Prim\u00e1ria de Lordelo"
            }
        },
        {
            "type": "Feature",
            "geometry": {
                "type": "Point",
                "coordinates": [
                    -8.9819887,
                    39.4264308
                ]
            },
            "properties": {
                "name": "Externato Cooperativo da Benedita"
            }
        },
        {
            "type": "Feature",
            "geometry": {
                "type": "Point",
                "coordinates": [
                    -8.6952229,
                    41.1845424
                ]
            },
            "properties": {
                "name": "Escola de Dan\u00e7a Matosinhos"
            }
        },
        {
            "type": "Feature",
            "geometry": {
                "type": "Point",
                "coordinates": [
                    -8.4125412,
                    40.8594984
                ]
            },
            "properties": {
                "name": "Centro Escolar de Codal"
            }
        },
        {
            "type": "Feature",
            "geometry": {
                "type": "Point",
                "coordinates": [
                    -8.404984,
                    40.8623606
                ]
            },
            "properties": {
                "name": "Escola Prim\u00e1ria de Codal"
            }
        },
        {
            "type": "Feature",
            "geometry": {
                "type": "Point",
                "coordinates": [
                    -8.8392207,
                    38.5215577
                ]
            },
            "properties": {
                "name": "IPS"
            }
        },
        {
            "type": "Feature",
            "geometry": {
                "type": "Point",
                "coordinates": [
                    -16.8482365,
                    32.7777138
                ]
            },
            "properties": {
                "name": "Escola B\u00e1sica do 1\u00ba Ciclo S\u00e3o Roque do Faial"
            }
        },
        {
            "type": "Feature",
            "geometry": {
                "type": "Point",
                "coordinates": [
                    -16.9079168,
                    32.8261028
                ]
            },
            "properties": {
                "name": "Escola B\u00e1sica dos 2\u00ba e 3\u00ba ciclos de S\u00e3o Jorge - Cardeal D. Teod\u00f3sio de Gouveia"
            }
        },
        {
            "type": "Feature",
            "geometry": {
                "type": "Point",
                "coordinates": [
                    -8.6364975,
                    40.6225428
                ]
            },
            "properties": {
                "name": "Escola EB 1 de S\u00e3o Bernardo"
            }
        },
        {
            "type": "Feature",
            "geometry": {
                "type": "Point",
                "coordinates": [
                    -8.6130251,
                    39.4995363
                ]
            },
            "properties": {
                "name": "Escola EB1 de Almonda"
            }
        },
        {
            "type": "Feature",
            "geometry": {
                "type": "Point",
                "coordinates": [
                    -8.608519,
                    39.5065149
                ]
            },
            "properties": {
                "name": "Escola EB1 de Casais Martanes"
            }
        },
        {
            "type": "Feature",
            "geometry": {
                "type": "Point",
                "coordinates": [
                    -8.7140173,
                    41.6127781
                ]
            },
            "properties": {
                "name": "Agrupamento Vertical de Escolas de Fragoso"
            }
        },
        {
            "type": "Feature",
            "geometry": {
                "type": "Point",
                "coordinates": [
                    -7.8939397,
                    40.655994
                ]
            }
        },
        {
            "type": "Feature",
            "geometry": {
                "type": "Point",
                "coordinates": [
                    -16.9665051,
                    32.7224909
                ]
            }
        },
        {
            "type": "Feature",
            "geometry": {
                "type": "Point",
                "coordinates": [
                    -8.2511673,
                    41.0837226
                ]
            },
            "properties": {
                "name": "Agrupamento de Escolas de Alpendorada"
            }
        },
        {
            "type": "Feature",
            "geometry": {
                "type": "Point",
                "coordinates": [
                    -8.2430188,
                    41.0831323
                ]
            },
            "properties": {
                "name": "Agrupamento de Escolas de Alpendorada"
            }
        },
        {
            "type": "Feature",
            "geometry": {
                "type": "Point",
                "coordinates": [
                    -16.8845055,
                    32.8095386
                ]
            },
            "properties": {
                "name": "Escola de condu\u00e7\u00e3o"
            }
        },
        {
            "type": "Feature",
            "geometry": {
                "type": "Point",
                "coordinates": [
                    -16.8799157,
                    32.8063734
                ]
            },
            "properties": {
                "name": "Escola da Sagrada Fam\u00edlia"
            }
        },
        {
            "type": "Feature",
            "geometry": {
                "type": "Point",
                "coordinates": [
                    -8.4726106,
                    40.8368858
                ]
            },
            "properties": {
                "name": "Escola Supeiror de Enfermagem da Cruz Vermelha"
            }
        },
        {
            "type": "Feature",
            "geometry": {
                "type": "Point",
                "coordinates": [
                    -7.4192968,
                    37.1911397
                ]
            },
            "properties": {
                "name": "Escola B\u00e1sica 2, 3 D. Jos\u00e9 I"
            }
        },
        {
            "type": "Feature",
            "geometry": {
                "type": "Point",
                "coordinates": [
                    -8.4361022,
                    41.5041174
                ]
            },
            "properties": {
                "name": "Escola Prim\u00e1ria de Figueiredo"
            }
        },
        {
            "type": "Feature",
            "geometry": {
                "type": "Point",
                "coordinates": [
                    -9.1894839,
                    38.4301945
                ]
            }
        },
        {
            "type": "Feature",
            "geometry": {
                "type": "Point",
                "coordinates": [
                    -8.6098153,
                    41.1134462
                ]
            },
            "properties": {
                "name": "Escola Prim\u00e1ria do Cedro"
            }
        },
        {
            "type": "Feature",
            "geometry": {
                "type": "Point",
                "coordinates": [
                    -7.9049551,
                    40.6591822
                ]
            }
        },
        {
            "type": "Feature",
            "geometry": {
                "type": "Point",
                "coordinates": [
                    -9.3614156,
                    38.7064178
                ]
            },
            "properties": {
                "name": "Escola Basica do 1.\u00ba Ciclo n\u00ba 2 de Murtal"
            }
        },
        {
            "type": "Feature",
            "geometry": {
                "type": "Point",
                "coordinates": [
                    -9.1669701,
                    38.8259725
                ]
            },
            "properties": {
                "name": "Escola B\u00e1sica 2/3 Lu\u00eds de Sttau Monteiro"
            }
        },
        {
            "type": "Feature",
            "geometry": {
                "type": "Point",
                "coordinates": [
                    -9.1654037,
                    38.8240104
                ]
            },
            "properties": {
                "name": "Escola Prim\u00e1ria da Mealhada"
            }
        },
        {
            "type": "Feature",
            "geometry": {
                "type": "Point",
                "coordinates": [
                    -9.1694108,
                    38.8296598
                ]
            },
            "properties": {
                "name": "Escola Prim\u00e1ria"
            }
        },
        {
            "type": "Feature",
            "geometry": {
                "type": "Point",
                "coordinates": [
                    -9.1777364,
                    38.8324743
                ]
            },
            "properties": {
                "name": "Associa\u00e7\u00e3o Luis Pereira da Mota"
            }
        },
        {
            "type": "Feature",
            "geometry": {
                "type": "Point",
                "coordinates": [
                    -7.9084176,
                    40.6634908
                ]
            }
        },
        {
            "type": "Feature",
            "geometry": {
                "type": "Point",
                "coordinates": [
                    -8.3438219,
                    41.1658356
                ]
            },
            "properties": {
                "name": "Casa do Gaiato"
            }
        },
        {
            "type": "Feature",
            "geometry": {
                "type": "Point",
                "coordinates": [
                    -9.2457244,
                    38.7220855
                ]
            },
            "properties": {
                "name": "Escola Secund\u00e1ria Camilo Castelo Branco"
            }
        },
        {
            "type": "Feature",
            "geometry": {
                "type": "Point",
                "coordinates": [
                    -9.2782384,
                    38.7547693
                ]
            },
            "properties": {
                "name": "As Quatro Esta\u00e7\u00f5es"
            }
        },
        {
            "type": "Feature",
            "geometry": {
                "type": "Point",
                "coordinates": [
                    -8.0234733,
                    40.586826
                ]
            },
            "properties": {
                "name": "Escola Prim\u00e1ria S\u00e3o Miguel do Outeiro"
            }
        },
        {
            "type": "Feature",
            "geometry": {
                "type": "Point",
                "coordinates": [
                    -8.7801353,
                    37.7263501
                ]
            }
        },
        {
            "type": "Feature",
            "geometry": {
                "type": "Point",
                "coordinates": [
                    -8.6288321,
                    40.6480717
                ]
            },
            "properties": {
                "name": "Casa da cruz"
            }
        },
        {
            "type": "Feature",
            "geometry": {
                "type": "Point",
                "coordinates": [
                    -8.5466435,
                    39.4709451
                ]
            }
        },
        {
            "type": "Feature",
            "geometry": {
                "type": "Point",
                "coordinates": [
                    -8.2306972,
                    39.3774472
                ]
            }
        },
        {
            "type": "Feature",
            "geometry": {
                "type": "Point",
                "coordinates": [
                    -8.7084302,
                    41.4974108
                ]
            }
        },
        {
            "type": "Feature",
            "geometry": {
                "type": "Point",
                "coordinates": [
                    -8.7054372,
                    37.5107551
                ]
            }
        },
        {
            "type": "Feature",
            "geometry": {
                "type": "Point",
                "coordinates": [
                    -9.2278466,
                    38.6998369
                ]
            },
            "properties": {
                "name": "Escola de Condu\u00e7\u00e3o"
            }
        },
        {
            "type": "Feature",
            "geometry": {
                "type": "Point",
                "coordinates": [
                    -9.2270795,
                    38.7080546
                ]
            },
            "properties": {
                "name": "Brit\u00e2nico"
            }
        },
        {
            "type": "Feature",
            "geometry": {
                "type": "Point",
                "coordinates": [
                    -8.815578,
                    39.6002997
                ]
            },
            "properties": {
                "name": "Escola 1\u00ba Ciclo"
            }
        },
        {
            "type": "Feature",
            "geometry": {
                "type": "Point",
                "coordinates": [
                    -8.5317626,
                    39.46798
                ]
            },
            "properties": {
                "name": "Escola Profissional de Torres Novas"
            }
        },
        {
            "type": "Feature",
            "geometry": {
                "type": "Point",
                "coordinates": [
                    -9.2267992,
                    38.7085516
                ]
            },
            "properties": {
                "name": "Kids Paradise - Centro de Explica\u00e7\u00f5es"
            }
        },
        {
            "type": "Feature",
            "geometry": {
                "type": "Point",
                "coordinates": [
                    -9.3923622,
                    38.7997799
                ]
            },
            "properties": {
                "name": "Escola EB1 / JI de Sintra"
            }
        },
        {
            "type": "Feature",
            "geometry": {
                "type": "Point",
                "coordinates": [
                    -8.5148634,
                    38.3740479
                ]
            }
        },
        {
            "type": "Feature",
            "geometry": {
                "type": "Point",
                "coordinates": [
                    -8.7384858,
                    41.6158027
                ]
            },
            "properties": {
                "name": "Escola B\u00e1sica Integrada de Forj\u00e3es"
            }
        },
        {
            "type": "Feature",
            "geometry": {
                "type": "Point",
                "coordinates": [
                    -9.2739488,
                    38.776138
                ]
            }
        },
        {
            "type": "Feature",
            "geometry": {
                "type": "Point",
                "coordinates": [
                    -9.2873823,
                    38.7717283
                ]
            },
            "properties": {
                "name": "Escola B\u00e1sica Dr. Ant\u00f3nio Torrado"
            }
        },
        {
            "type": "Feature",
            "geometry": {
                "type": "Point",
                "coordinates": [
                    -8.8932495,
                    38.5346571
                ]
            },
            "properties": {
                "name": "Conservatorio Regional de Setubal"
            }
        },
        {
            "type": "Feature",
            "geometry": {
                "type": "Point",
                "coordinates": [
                    -8.893824,
                    38.541106
                ]
            },
            "properties": {
                "name": "Escola Prim\u00e1ria das Amoreiras"
            }
        },
        {
            "type": "Feature",
            "geometry": {
                "type": "Point",
                "coordinates": [
                    -8.4988421,
                    40.9155862
                ]
            },
            "properties": {
                "name": "EB1 do Outeiro"
            }
        },
        {
            "type": "Feature",
            "geometry": {
                "type": "Point",
                "coordinates": [
                    -9.1744843,
                    38.8105459
                ]
            },
            "properties": {
                "name": "Escola Secund\u00e1ria Jos\u00e9 Cardoso Pires"
            }
        },
        {
            "type": "Feature",
            "geometry": {
                "type": "Point",
                "coordinates": [
                    -9.0656093,
                    39.0995094
                ]
            },
            "properties": {
                "name": "Escola Prim\u00e1ria"
            }
        },
        {
            "type": "Feature",
            "geometry": {
                "type": "Point",
                "coordinates": [
                    -9.1231877,
                    38.7923404
                ]
            }
        },
        {
            "type": "Feature",
            "geometry": {
                "type": "Point",
                "coordinates": [
                    -7.9234216,
                    39.7519018
                ]
            },
            "properties": {
                "name": "Escola E,B 2,3/S Pedro da Fonseca"
            }
        },
        {
            "type": "Feature",
            "geometry": {
                "type": "Point",
                "coordinates": [
                    -7.8456176,
                    37.0258412
                ]
            }
        },
        {
            "type": "Feature",
            "geometry": {
                "type": "Point",
                "coordinates": [
                    -7.9288788,
                    37.0132526
                ]
            },
            "properties": {
                "name": "Escola Doutor Joaquim Magalh\u00e3es"
            }
        },
        {
            "type": "Feature",
            "geometry": {
                "type": "Point",
                "coordinates": [
                    -9.308999,
                    38.7663528
                ]
            },
            "properties": {
                "name": "Escola Prim\u00e1ria n\u00ba1"
            }
        },
        {
            "type": "Feature",
            "geometry": {
                "type": "Point",
                "coordinates": [
                    -9.3776957,
                    38.8439181
                ]
            }
        },
        {
            "type": "Feature",
            "geometry": {
                "type": "Point",
                "coordinates": [
                    -7.9210651,
                    39.7506329
                ]
            },
            "properties": {
                "name": "Escola B\u00e1sica"
            }
        },
        {
            "type": "Feature",
            "geometry": {
                "type": "Point",
                "coordinates": [
                    -9.3806166,
                    39.3647123
                ]
            },
            "properties": {
                "name": "Escola Prim\u00e1ria do Alem\u00e3o"
            }
        },
        {
            "type": "Feature",
            "geometry": {
                "type": "Point",
                "coordinates": [
                    -9.3761052,
                    39.3675034
                ]
            },
            "properties": {
                "name": "Escola Prim\u00e1ria do Filtro"
            }
        },
        {
            "type": "Feature",
            "geometry": {
                "type": "Point",
                "coordinates": [
                    -9.2919206,
                    38.7682423
                ]
            }
        },
        {
            "type": "Feature",
            "geometry": {
                "type": "Point",
                "coordinates": [
                    -9.2924678,
                    38.7711784
                ]
            }
        },
        {
            "type": "Feature",
            "geometry": {
                "type": "Point",
                "coordinates": [
                    -8.3952714,
                    37.9346829
                ]
            }
        },
        {
            "type": "Feature",
            "geometry": {
                "type": "Point",
                "coordinates": [
                    -8.544422,
                    39.4746638
                ]
            },
            "properties": {
                "name": "Escola Prim\u00e1ria de Santa Maria"
            }
        },
        {
            "type": "Feature",
            "geometry": {
                "type": "Point",
                "coordinates": [
                    -8.5427659,
                    39.4855034
                ]
            },
            "properties": {
                "name": "Escola de Condu\u00e7\u00e3o Nova Torres"
            }
        },
        {
            "type": "Feature",
            "geometry": {
                "type": "Point",
                "coordinates": [
                    -8.5752586,
                    41.7921603
                ]
            },
            "properties": {
                "name": "Jardim de Inf\u00e2ncia de Brandara"
            }
        },
        {
            "type": "Feature",
            "geometry": {
                "type": "Point",
                "coordinates": [
                    -9.2338128,
                    38.9260724
                ]
            },
            "properties": {
                "name": "Agrupamento de Escolas da Venda do Pinheiro\u200e"
            }
        },
        {
            "type": "Feature",
            "geometry": {
                "type": "Point",
                "coordinates": [
                    -9.2311252,
                    38.928906
                ]
            },
            "properties": {
                "name": "Col\u00e9gio de Santo Andr\u00e9"
            }
        },
        {
            "type": "Feature",
            "geometry": {
                "type": "Point",
                "coordinates": [
                    -8.615232,
                    41.1774503
                ]
            },
            "properties": {
                "name": "Escola Preparat\u00f3ria e Secund\u00e1ria Pero Vaz de Caminha"
            }
        },
        {
            "type": "Feature",
            "geometry": {
                "type": "Point",
                "coordinates": [
                    -7.0707746,
                    40.7735626
                ]
            },
            "properties": {
                "name": "Jardim de Inf\u00e2ncia de Pinhel"
            }
        },
        {
            "type": "Feature",
            "geometry": {
                "type": "Point",
                "coordinates": [
                    -7.0627974,
                    40.7736482
                ]
            },
            "properties": {
                "name": "Universidade S\u00e9nior de Pinhel"
            }
        },
        {
            "type": "Feature",
            "geometry": {
                "type": "Point",
                "coordinates": [
                    -7.0654746,
                    40.7721692
                ]
            },
            "properties": {
                "name": "Jardim de Inf\u00e2ncia da Santa Casa da Miseric\u00f3rdia de Pinhel"
            }
        },
        {
            "type": "Feature",
            "geometry": {
                "type": "Point",
                "coordinates": [
                    -8.7884234,
                    41.5529409
                ]
            }
        },
        {
            "type": "Feature",
            "geometry": {
                "type": "Point",
                "coordinates": [
                    -8.8419587,
                    39.1573225
                ]
            }
        },
        {
            "type": "Feature",
            "geometry": {
                "type": "Point",
                "coordinates": [
                    -9.156509,
                    38.7609501
                ]
            }
        },
        {
            "type": "Feature",
            "geometry": {
                "type": "Point",
                "coordinates": [
                    -9.1754454,
                    38.8060055
                ]
            }
        },
        {
            "type": "Feature",
            "geometry": {
                "type": "Point",
                "coordinates": [
                    -8.8618253,
                    41.8148981
                ]
            }
        },
        {
            "type": "Feature",
            "geometry": {
                "type": "Point",
                "coordinates": [
                    -8.4289777,
                    40.2698604
                ]
            },
            "properties": {
                "name": "Escola prim\u00e1ria de Vilela"
            }
        },
        {
            "type": "Feature",
            "geometry": {
                "type": "Point",
                "coordinates": [
                    -8.0063133,
                    39.2509353
                ]
            },
            "properties": {
                "name": "CRIPS"
            }
        },
        {
            "type": "Feature",
            "geometry": {
                "type": "Point",
                "coordinates": [
                    -8.0125056,
                    39.2503177
                ]
            },
            "properties": {
                "name": "Universidade Senior"
            }
        },
        {
            "type": "Feature",
            "geometry": {
                "type": "Point",
                "coordinates": [
                    -7.2568961,
                    40.8514567
                ]
            }
        },
        {
            "type": "Feature",
            "geometry": {
                "type": "Point",
                "coordinates": [
                    -8.0104167,
                    39.2553558
                ]
            },
            "properties": {
                "name": "Joao de Deus"
            }
        },
        {
            "type": "Feature",
            "geometry": {
                "type": "Point",
                "coordinates": [
                    -9.3760174,
                    39.0070118
                ]
            }
        },
        {
            "type": "Feature",
            "geometry": {
                "type": "Point",
                "coordinates": [
                    -7.5021355,
                    39.8201289
                ]
            },
            "properties": {
                "name": "Afonso de Paiva"
            }
        },
        {
            "type": "Feature",
            "geometry": {
                "type": "Point",
                "coordinates": [
                    -8.6675503,
                    37.7989694
                ]
            },
            "properties": {
                "name": "EB 2/3"
            }
        },
        {
            "type": "Feature",
            "geometry": {
                "type": "Point",
                "coordinates": [
                    -25.522464,
                    37.8185234
                ]
            },
            "properties": {
                "name": "EB1/JI dos Foros"
            }
        },
        {
            "type": "Feature",
            "geometry": {
                "type": "Point",
                "coordinates": [
                    -7.064326,
                    39.0188323
                ]
            },
            "properties": {
                "name": "Escola Secund\u00e1ria"
            }
        },
        {
            "type": "Feature",
            "geometry": {
                "type": "Point",
                "coordinates": [
                    -9.3842809,
                    39.3605828
                ]
            },
            "properties": {
                "name": "Escola EB2,3 D. Luis de Ata\u00edde"
            }
        },
        {
            "type": "Feature",
            "geometry": {
                "type": "Point",
                "coordinates": [
                    -8.6523759,
                    40.6300274
                ]
            },
            "properties": {
                "name": "Centro de Explica\u00e7\u00f5es AS-Forma\u00e7\u00e3o"
            }
        },
        {
            "type": "Feature",
            "geometry": {
                "type": "Point",
                "coordinates": [
                    -8.6505316,
                    40.6309352
                ]
            },
            "properties": {
                "name": "Centro de Explica\u00e7\u00f5es ProEducare"
            }
        },
        {
            "type": "Feature",
            "geometry": {
                "type": "Point",
                "coordinates": [
                    -8.6518033,
                    40.6366778
                ]
            },
            "properties": {
                "name": "Feedbackinstitute"
            }
        },
        {
            "type": "Feature",
            "geometry": {
                "type": "Point",
                "coordinates": [
                    -8.6365921,
                    40.6232343
                ]
            },
            "properties": {
                "name": "Escola 2\u00ba e 3\u00ba Ciclo de S\u00e3o Bernardo"
            }
        },
        {
            "type": "Feature",
            "geometry": {
                "type": "Point",
                "coordinates": [
                    -8.649478,
                    40.6353637
                ]
            },
            "properties": {
                "name": "Centro de Expli\u00e7\u00f5es"
            }
        },
        {
            "type": "Feature",
            "geometry": {
                "type": "Point",
                "coordinates": [
                    -8.6473904,
                    40.6359493
                ]
            },
            "properties": {
                "name": "Centro de Expli\u00e7\u00f5es"
            }
        },
        {
            "type": "Feature",
            "geometry": {
                "type": "Point",
                "coordinates": [
                    -8.6484235,
                    40.6362637
                ]
            },
            "properties": {
                "name": "Centro de Explica\u00e7\u00f5es"
            }
        },
        {
            "type": "Feature",
            "geometry": {
                "type": "Point",
                "coordinates": [
                    -8.6473744,
                    40.6393551
                ]
            },
            "properties": {
                "name": "Externato"
            }
        },
        {
            "type": "Feature",
            "geometry": {
                "type": "Point",
                "coordinates": [
                    -8.5931641,
                    40.2620804
                ]
            },
            "properties": {
                "name": "Portela"
            }
        },
        {
            "type": "Feature",
            "geometry": {
                "type": "Point",
                "coordinates": [
                    -9.2770466,
                    38.7262616
                ]
            },
            "properties": {
                "name": "Oeiras International School"
            }
        },
        {
            "type": "Feature",
            "geometry": {
                "type": "Point",
                "coordinates": [
                    -9.1610062,
                    38.8394472
                ]
            }
        },
        {
            "type": "Feature",
            "geometry": {
                "type": "Point",
                "coordinates": [
                    -8.5389334,
                    41.0539569
                ]
            },
            "properties": {
                "name": "Escola prim\u00e1ria de Tabosa"
            }
        },
        {
            "type": "Feature",
            "geometry": {
                "type": "Point",
                "coordinates": [
                    -7.8963436,
                    38.5689643
                ]
            },