{
    "type": "FeatureCollection",
    "features": [
        {
            "type": "Feature",
            "geometry": {
                "type": "Point",
                "coordinates": [
                    9.0730601,
                    47.0904668
                ]
            },
            "properties": {
                "name": "Sekundarschule Mollis"
            }
        },
        {
            "type": "Feature",
            "geometry": {
                "type": "Point",
                "coordinates": [
                    8.9765702,
                    47.2267081
                ]
            },
            "properties": {
                "name": "Kindergarten Gerbi"
            }
        },
        {
            "type": "Feature",
            "geometry": {
                "type": "Point",
                "coordinates": [
                    8.9839661,
                    47.2250751
                ]
            },
            "properties": {
                "name": "Schulhaus/Kindergarten Letzi"
            }
        },
        {
            "type": "Feature",
            "geometry": {
                "type": "Point",
                "coordinates": [
                    8.9842253,
                    47.2253282
                ]
            },
            "properties": {
                "name": "Jugendhaus Schl\u00f6ssli"
            }
        },
        {
            "type": "Feature",
            "geometry": {
                "type": "Point",
                "coordinates": [
                    8.9847777,
                    47.2262426
                ]
            },
            "properties": {
                "name": "Schulhaus B\u00fcel"
            }
        },
        {
            "type": "Feature",
            "geometry": {
                "type": "Point",
                "coordinates": [
                    8.9668886,
                    47.2296338
                ]
            },
            "properties": {
                "name": "Primarschulhaus Ausserhirschland"
            }
        },
        {
            "type": "Feature",
            "geometry": {
                "type": "Point",
                "coordinates": [
                    9.032954,
                    47.5258688
                ]
            },
            "properties": {
                "name": "Primarschule Affeltrangen"
            }
        },
        {
            "type": "Feature",
            "geometry": {
                "type": "Point",
                "coordinates": [
                    9.0318938,
                    47.5259712
                ]
            },
            "properties": {
                "name": "Kindergarten"
            }
        },
        {
            "type": "Feature",
            "geometry": {
                "type": "Point",
                "coordinates": [
                    8.533236,
                    47.3326274
                ]
            },
            "properties": {
                "name": "Tagesschule Neub\u00fchl"
            }
        },
        {
            "type": "Feature",
            "geometry": {
                "type": "Point",
                "coordinates": [
                    8.5326691,
                    47.3325213
                ]
            },
            "properties": {
                "name": "Primarschule Neub\u00fchl"
            }
        },
        {
            "type": "Feature",
            "geometry": {
                "type": "Point",
                "coordinates": [
                    8.5396905,
                    47.6068938
                ]
            },
            "properties": {
                "name": "Schulhaus Tannew\u00e4g"
            }
        },
        {
            "type": "Feature",
            "geometry": {
                "type": "Point",
                "coordinates": [
                    8.772047,
                    47.1961016
                ]
            },
            "properties": {
                "name": "Oberstufenschulhaus Weid"
            }
        },
        {
            "type": "Feature",
            "geometry": {
                "type": "Point",
                "coordinates": [
                    7.7212117,
                    47.219981
                ]
            },
            "properties": {
                "name": "Graben"
            }
        },
        {
            "type": "Feature",
            "geometry": {
                "type": "Point",
                "coordinates": [
                    9.6057374,
                    46.8196073
                ]
            }
        },
        {
            "type": "Feature",
            "geometry": {
                "type": "Point",
                "coordinates": [
                    9.0310079,
                    47.5143779
                ]
            },
            "properties": {
                "name": "Oberstufe Tobel"
            }
        },
        {
            "type": "Feature",
            "geometry": {
                "type": "Point",
                "coordinates": [
                    9.0319434,
                    47.514134
                ]
            },
            "properties": {
                "name": "Primarschule Tobel"
            }
        },
        {
            "type": "Feature",
            "geometry": {
                "type": "Point",
                "coordinates": [
                    8.9519332,
                    47.2271199
                ]
            }
        },
        {
            "type": "Feature",
            "geometry": {
                "type": "Point",
                "coordinates": [
                    9.0836051,
                    47.6677473
                ]
            }
        },
        {
            "type": "Feature",
            "geometry": {
                "type": "Point",
                "coordinates": [
                    7.5673548,
                    47.5325725
                ]
            },
            "properties": {
                "name": "Spiegelfeld"
            }
        },
        {
            "type": "Feature",
            "geometry": {
                "type": "Point",
                "coordinates": [
                    7.5739703,
                    47.5395199
                ]
            },
            "properties": {
                "name": "Musikschule Binningen-Bottmingen"
            }
        },
        {
            "type": "Feature",
            "geometry": {
                "type": "Point",
                "coordinates": [
                    9.0419595,
                    47.4637492
                ]
            },
            "properties": {
                "name": "Primarschulhaus Allee"
            }
        },
        {
            "type": "Feature",
            "geometry": {
                "type": "Point",
                "coordinates": [
                    7.8513771,
                    47.0780098
                ]
            },
            "properties": {
                "name": "Schulhaus Eriswil"
            }
        },
        {
            "type": "Feature",
            "geometry": {
                "type": "Point",
                "coordinates": [
                    9.1061455,
                    47.561581
                ]
            },
            "properties": {
                "name": "Paul-Reinhart-Schulhaus"
            }
        },
        {
            "type": "Feature",
            "geometry": {
                "type": "Point",
                "coordinates": [
                    7.5929164,
                    47.5679574
                ]
            },
            "properties": {
                "name": "Bl\u00e4si"
            }
        },
        {
            "type": "Feature",
            "geometry": {
                "type": "Point",
                "coordinates": [
                    8.2046118,
                    47.3267479
                ]
            },
            "properties": {
                "name": "Sekundarschule"
            }
        },
        {
            "type": "Feature",
            "geometry": {
                "type": "Point",
                "coordinates": [
                    8.2044482,
                    47.3273449
                ]
            },
            "properties": {
                "name": "Bezirksschule"
            }
        },
        {
            "type": "Feature",
            "geometry": {
                "type": "Point",
                "coordinates": [
                    9.1125029,
                    47.5663832
                ]
            },
            "properties": {
                "name": "Thomas Bornhauser Schulhaus"
            }
        },
        {
            "type": "Feature",
            "geometry": {
                "type": "Point",
                "coordinates": [
                    9.1939674,
                    47.641114
                ]
            },
            "properties": {
                "name": "Schule Seetal"
            }
        },
        {
            "type": "Feature",
            "geometry": {
                "type": "Point",
                "coordinates": [
                    8.0110427,
                    47.4054271
                ]
            }
        },
        {
            "type": "Feature",
            "geometry": {
                "type": "Point",
                "coordinates": [
                    8.0102101,
                    47.4056246
                ]
            }
        },
        {
            "type": "Feature",
            "geometry": {
                "type": "Point",
                "coordinates": [
                    7.6314121,
                    46.7828422
                ]
            },
            "properties": {
                "name": "Kirchb\u00fchl"
            }
        },
        {
            "type": "Feature",
            "geometry": {
                "type": "Point",
                "coordinates": [
                    8.5345687,
                    47.4113743
                ]
            },
            "properties": {
                "name": "Haus der Farbe"
            }
        },
        {
            "type": "Feature",
            "geometry": {
                "type": "Point",
                "coordinates": [
                    7.6651223,
                    47.4757376
                ]
            },
            "properties": {
                "name": "Primary"
            }
        },
        {
            "type": "Feature",
            "geometry": {
                "type": "Point",
                "coordinates": [
                    8.2839484,
                    47.4539257
                ]
            },
            "properties": {
                "name": "Schulanlage H\u00f6chi"
            }
        },
        {
            "type": "Feature",
            "geometry": {
                "type": "Point",
                "coordinates": [
                    8.5940647,
                    47.2614737
                ]
            },
            "properties": {
                "name": "Bildungszentrum Z\u00fcrichsee, Horgen"
            }
        },
        {
            "type": "Feature",
            "geometry": {
                "type": "Point",
                "coordinates": [
                    8.7215428,
                    47.3547025
                ]
            },
            "properties": {
                "name": "Schulhaus Hasenb\u00fchl"
            }
        },
        {
            "type": "Feature",
            "geometry": {
                "type": "Point",
                "coordinates": [
                    8.6927999,
                    47.3705522
                ]
            },
            "properties": {
                "name": "Schulhaus T\u00fcrmli"
            }
        },
        {
            "type": "Feature",
            "geometry": {
                "type": "Point",
                "coordinates": [
                    8.7219416,
                    47.3470273
                ]
            },
            "properties": {
                "name": "Kinderkrippe"
            }
        },
        {
            "type": "Feature",
            "geometry": {
                "type": "Point",
                "coordinates": [
                    9.0275424,
                    47.2125535
                ]
            },
            "properties": {
                "name": "Schulhaus Altbreiten"
            }
        },
        {
            "type": "Feature",
            "geometry": {
                "type": "Point",
                "coordinates": [
                    9.02889,
                    47.2138828
                ]
            },
            "properties": {
                "name": "Schulhaus Haeltli"
            }
        },
        {
            "type": "Feature",
            "geometry": {
                "type": "Point",
                "coordinates": [
                    6.6313757,
                    46.5242821
                ]
            },
            "properties": {
                "name": "\u00c9cole catholique du Valentin"
            }
        },
        {
            "type": "Feature",
            "geometry": {
                "type": "Point",
                "coordinates": [
                    9.0909296,
                    47.5519929
                ]
            },
            "properties": {
                "name": "Hohenalber"
            }
        },
        {
            "type": "Feature",
            "geometry": {
                "type": "Point",
                "coordinates": [
                    9.2794964,
                    47.3788855
                ]
            },
            "properties": {
                "name": "Schulhaus Wilen"
            }
        },
        {
            "type": "Feature",
            "geometry": {
                "type": "Point",
                "coordinates": [
                    8.7601272,
                    47.2038017
                ]
            },
            "properties": {
                "name": "Schulanlage Schwerzi"
            }
        },
        {
            "type": "Feature",
            "geometry": {
                "type": "Point",
                "coordinates": [
                    7.607543,
                    47.5647749
                ]
            },
            "properties": {
                "name": "Sandgrube"
            }
        },
        {
            "type": "Feature",
            "geometry": {
                "type": "Point",
                "coordinates": [
                    7.6084402,
                    47.5633774
                ]
            },
            "properties": {
                "name": "Vogelsangschulhaus"
            }
        },
        {
            "type": "Feature",
            "geometry": {
                "type": "Point",
                "coordinates": [
                    7.5988424,
                    47.5685913
                ]
            },
            "properties": {
                "name": "Swiss International School"
            }
        },
        {
            "type": "Feature",
            "geometry": {
                "type": "Point",
                "coordinates": [
                    6.5361516,
                    46.6044289
                ]
            },
            "properties": {
                "name": "La Lechire"
            }
        },
        {
            "type": "Feature",
            "geometry": {
                "type": "Point",
                "coordinates": [
                    8.6559139,
                    47.7052453
                ]
            },
            "properties": {
                "name": "Alpenblick"
            }
        },
        {
            "type": "Feature",
            "geometry": {
                "type": "Point",
                "coordinates": [
                    8.6910088,
                    47.2085337
                ]
            },
            "properties": {
                "name": "Schulhaus Feld II"
            }
        },
        {
            "type": "Feature",
            "geometry": {
                "type": "Point",
                "coordinates": [
                    8.6903924,
                    47.2082587
                ]
            },
            "properties": {
                "name": "Schulhaus Feld I"
            }
        },
        {
            "type": "Feature",
            "geometry": {
                "type": "Point",
                "coordinates": [
                    8.697574,
                    47.2081424
                ]
            },
            "properties": {
                "name": "Schulhaus Boden"
            }
        },
        {
            "type": "Feature",
            "geometry": {
                "type": "Point",
                "coordinates": [
                    8.7018469,
                    47.2075538
                ]
            },
            "properties": {
                "name": "Schulhaus T\u00f6ss"
            }
        },
        {
            "type": "Feature",
            "geometry": {
                "type": "Point",
                "coordinates": [
                    7.5485374,
                    47.072378
                ]
            },
            "properties": {
                "name": "Schulhaus Kernenried"
            }
        },
        {
            "type": "Feature",
            "geometry": {
                "type": "Point",
                "coordinates": [
                    6.4455124,
                    46.5400759
                ]
            },
            "properties": {
                "name": "Chaniaz"
            }
        },
        {
            "type": "Feature",
            "geometry": {
                "type": "Point",
                "coordinates": [
                    7.538922,
                    47.4086087
                ]
            },
            "properties": {
                "name": "Grien"
            }
        },
        {
            "type": "Feature",
            "geometry": {
                "type": "Point",
                "coordinates": [
                    7.5580009,
                    46.909746
                ]
            },
            "properties": {
                "name": "Humanus-Haus"
            }
        },
        {
            "type": "Feature",
            "geometry": {
                "type": "Point",
                "coordinates": [
                    7.1574009,
                    46.3504767
                ]
            }
        },
        {
            "type": "Feature",
            "geometry": {
                "type": "Point",
                "coordinates": [
                    8.6671281,
                    47.0161064
                ]
            },
            "properties": {
                "name": "Schulhaus Mythen"
            }
        },
        {
            "type": "Feature",
            "geometry": {
                "type": "Point",
                "coordinates": [
                    10.4009547,
                    46.9598863
                ]
            },
            "properties": {
                "name": "Schule Samnaun"
            }
        },
        {
            "type": "Feature",
            "geometry": {
                "type": "Point",
                "coordinates": [
                    6.5433426,
                    46.5284519
                ]
            }
        },
        {
            "type": "Feature",
            "geometry": {
                "type": "Point",
                "coordinates": [
                    7.2779975,
                    47.0483203
                ]
            },
            "properties": {
                "name": "Real-& Sekundarschule B\u00fcrenstrasse"
            }
        },
        {
            "type": "Feature",
            "geometry": {
                "type": "Point",
                "coordinates": [
                    7.2732788,
                    47.0464489
                ]
            },
            "properties": {
                "name": "Verkehrskindergarten"
            }
        },
        {
            "type": "Feature",
            "geometry": {
                "type": "Point",
                "coordinates": [
                    7.143269,
                    46.7975886
                ]
            },
            "properties": {
                "name": "\u00c9cole Vignettaz"
            }
        },
        {
            "type": "Feature",
            "geometry": {
                "type": "Point",
                "coordinates": [
                    9.1075841,
                    47.5713717
                ]
            },
            "properties": {
                "name": "Schw\u00e4rze"
            }
        },
        {
            "type": "Feature",
            "geometry": {
                "type": "Point",
                "coordinates": [
                    8.3110913,
                    46.9854493
                ]
            },
            "properties": {
                "name": "Villa Kunterbunt"
            }
        },
        {
            "type": "Feature",
            "geometry": {
                "type": "Point",
                "coordinates": [
                    6.4706094,
                    46.5243198
                ]
            }
        },
        {
            "type": "Feature",
            "geometry": {
                "type": "Point",
                "coordinates": [
                    8.4677825,
                    47.5354064
                ]
            },
            "properties": {
                "name": "Oberstufenschule Stadel"
            }
        },
        {
            "type": "Feature",
            "geometry": {
                "type": "Point",
                "coordinates": [
                    8.4675914,
                    47.5345503
                ]
            },
            "properties": {
                "name": "Primarschule Stadel"
            }
        },
        {
            "type": "Feature",
            "geometry": {
                "type": "Point",
                "coordinates": [
                    8.9571485,
                    47.4569987
                ]
            }
        },
        {
            "type": "Feature",
            "geometry": {
                "type": "Point",
                "coordinates": [
                    7.8379885,
                    47.4132138
                ]
            },
            "properties": {
                "name": "Primarschule"
            }
        },
        {
            "type": "Feature",
            "geometry": {
                "type": "Point",
                "coordinates": [
                    7.6168679,
                    47.4997398
                ]
            },
            "properties": {
                "name": "Gehrenmatt Schulhaus"
            }
        },
        {
            "type": "Feature",
            "geometry": {
                "type": "Point",
                "coordinates": [
                    7.8423714,
                    47.4262581
                ]
            },
            "properties": {
                "name": "Primarschule"
            }
        },
        {
            "type": "Feature",
            "geometry": {
                "type": "Point",
                "coordinates": [
                    9.0343783,
                    47.47694
                ]
            },
            "properties": {
                "name": "Oberstufe"
            }
        },
        {
            "type": "Feature",
            "geometry": {
                "type": "Point",
                "coordinates": [
                    8.0553698,
                    46.6313343
                ]
            },
            "properties": {
                "name": "Schulhaus M\u00fchlebach"
            }
        },
        {
            "type": "Feature",
            "geometry": {
                "type": "Point",
                "coordinates": [
                    7.8451485,
                    47.3366579
                ]
            }
        },
        {
            "type": "Feature",
            "geometry": {
                "type": "Point",
                "coordinates": [
                    7.9099393,
                    47.3479823
                ]
            },
            "properties": {
                "name": "Berufsbildungszentrum Olten"
            }
        },
        {
            "type": "Feature",
            "geometry": {
                "type": "Point",
                "coordinates": [
                    9.1225028,
                    47.5632317
                ]
            },
            "properties": {
                "name": "Martin-Haffter-Schulhaus"
            }
        },
        {
            "type": "Feature",
            "geometry": {
                "type": "Point",
                "coordinates": [
                    8.2765963,
                    47.4953435
                ]
            },
            "properties": {
                "name": "Schule Kirchdorf"
            }
        },
        {
            "type": "Feature",
            "geometry": {
                "type": "Point",
                "coordinates": [
                    9.2688726,
                    47.3816505
                ]
            },
            "properties": {
                "name": "Schulhaus M\u00fcli"
            }
        },
        {
            "type": "Feature",
            "geometry": {
                "type": "Point",
                "coordinates": [
                    8.995257,
                    46.9416063
                ]
            }
        },
        {
            "type": "Feature",
            "geometry": {
                "type": "Point",
                "coordinates": [
                    8.5192162,
                    47.7146493
                ]
            }
        },
        {
            "type": "Feature",
            "geometry": {
                "type": "Point",
                "coordinates": [
                    8.3306126,
                    47.0565585
                ]
            },
            "properties": {
                "name": "P\u00e4dagogische Hochschule Luzern"
            }
        },
        {
            "type": "Feature",
            "geometry": {
                "type": "Point",
                "coordinates": [
                    8.4461083,
                    47.4566698
                ]
            },
            "properties": {
                "name": "Schulhaus Petermoos"
            }
        },
        {
            "type": "Feature",
            "geometry": {
                "type": "Point",
                "coordinates": [
                    8.444014,
                    47.4564377
                ]
            },
            "properties": {
                "name": "Schulhaus Zwingert"
            }
        },
        {
            "type": "Feature",
            "geometry": {
                "type": "Point",
                "coordinates": [
                    7.3453333,
                    47.0391259
                ]
            }
        },
        {
            "type": "Feature",
            "geometry": {
                "type": "Point",
                "coordinates": [
                    8.6281061,
                    47.4432794
                ]
            },
            "properties": {
                "name": "Kindergarten"
            }
        },
        {
            "type": "Feature",
            "geometry": {
                "type": "Point",
                "coordinates": [
                    7.5780533,
                    46.9170907
                ]
            },
            "properties": {
                "name": "Primarschule Richigen"
            }
        },
        {
            "type": "Feature",
            "geometry": {
                "type": "Point",
                "coordinates": [
                    7.2135151,
                    47.0984117
                ]
            },
            "properties": {
                "name": "Schulhaus Sutz"
            }
        },
        {
            "type": "Feature",
            "geometry": {
                "type": "Point",
                "coordinates": [
                    9.0236816,
                    47.2324824
                ]
            }
        },
        {
            "type": "Feature",
            "geometry": {
                "type": "Point",
                "coordinates": [
                    9.4926094,
                    47.2112057
                ]
            }
        },
        {
            "type": "Feature",
            "geometry": {
                "type": "Point",
                "coordinates": [
                    6.3391624,
                    46.5359561
                ]
            },
            "properties": {
                "name": "Coll\u00e8ge de Bi\u00e8re"
            }
        },
        {
            "type": "Feature",
            "geometry": {
                "type": "Point",
                "coordinates": [
                    7.6007852,
                    47.4740067
                ]
            },
            "properties": {
                "name": "Sch\u00fctzenmattschule"
            }
        },
        {
            "type": "Feature",
            "geometry": {
                "type": "Point",
                "coordinates": [
                    6.5666888,
                    46.6854519
                ]
            },
            "properties": {
                "name": "\u00c9cole primaire de Bavois"
            }
        },
        {
            "type": "Feature",
            "geometry": {
                "type": "Point",
                "coordinates": [
                    8.1896747,
                    47.4920439
                ]
            },
            "properties": {
                "name": "Primarschule"
            }
        },
        {
            "type": "Feature",
            "geometry": {
                "type": "Point",
                "coordinates": [
                    8.2085618,
                    47.4841101
                ]
            },
            "properties": {
                "name": "BWZ Brugg Berufs- u. Weiterbildungszentrum"
            }
        },
        {
            "type": "Feature",
            "geometry": {
                "type": "Point",
                "coordinates": [
                    8.315137,
                    47.4220787
                ]
            },
            "properties": {
                "name": "Schulhaus Hinterb\u00e4chli"
            }
        },
        {
            "type": "Feature",
            "geometry": {
                "type": "Point",
                "coordinates": [
                    8.1916547,
                    47.5156385
                ]
            },
            "properties": {
                "name": "Primarschule Remigen"
            }
        },
        {
            "type": "Feature",
            "geometry": {
                "type": "Point",
                "coordinates": [
                    8.8657108,
                    47.298295
                ]
            },
            "properties": {
                "name": "Schule Wernetshausen"
            }
        },
        {
            "type": "Feature",
            "geometry": {
                "type": "Point",
                "coordinates": [
                    8.8507768,
                    47.299274
                ]
            },
            "properties": {
                "name": "Schulanlage Breite"
            }
        },
        {
            "type": "Feature",
            "geometry": {
                "type": "Point",
                "coordinates": [
                    8.2847952,
                    47.0771368
                ]
            },
            "properties": {
                "name": "Berufsbildungszentrum"
            }
        },
        {
            "type": "Feature",
            "geometry": {
                "type": "Point",
                "coordinates": [
                    9.1560622,
                    47.5479149
                ]
            },
            "properties": {
                "name": "Schule B\u00fcrglen"
            }
        },
        {
            "type": "Feature",
            "geometry": {
                "type": "Point",
                "coordinates": [
                    7.4447218,
                    46.4557141
                ]
            }
        },
        {
            "type": "Feature",
            "geometry": {
                "type": "Point",
                "coordinates": [
                    7.6190864,
                    47.4927762
                ]
            },
            "properties": {
                "name": "Domplatz Schulhaus"
            }
        },
        {
            "type": "Feature",
            "geometry": {
                "type": "Point",
                "coordinates": [
                    8.3410086,
                    47.4929011
                ]
            },
            "properties": {
                "name": "Schulhaus Br\u00fcel"
            }
        },
        {
            "type": "Feature",
            "geometry": {
                "type": "Point",
                "coordinates": [
                    8.3409481,
                    47.4933253
                ]
            },
            "properties": {
                "name": "Schulhaus Dorf"
            }
        },
        {
            "type": "Feature",
            "geometry": {
                "type": "Point",
                "coordinates": [
                    8.3429071,
                    47.4925834
                ]
            },
            "properties": {
                "name": "Schulhaus L\u00e4gernbreite"
            }
        },
        {
            "type": "Feature",
            "geometry": {
                "type": "Point",
                "coordinates": [
                    8.3511777,
                    47.5009296
                ]
            },
            "properties": {
                "name": "Schulhaus If\u00e4ngli"
            }
        },
        {
            "type": "Feature",
            "geometry": {
                "type": "Point",
                "coordinates": [
                    8.4904132,
                    47.4816763
                ]
            },
            "properties": {
                "name": "Kindergarten Huebwiesen"
            }
        },
        {
            "type": "Feature",
            "geometry": {
                "type": "Point",
                "coordinates": [
                    8.4877497,
                    47.4812197
                ]
            },
            "properties": {
                "name": "Kindergarten Spitz"
            }
        },
        {
            "type": "Feature",
            "geometry": {
                "type": "Point",
                "coordinates": [
                    6.7563948,
                    46.7052241
                ]
            },
            "properties": {
                "name": "Coll\u00e8ge de Thierrens"
            }
        },
        {
            "type": "Feature",
            "geometry": {
                "type": "Point",
                "coordinates": [
                    8.5237698,
                    47.1708027
                ]
            },
            "properties": {
                "name": "Loreto"
            }
        },
        {
            "type": "Feature",
            "geometry": {
                "type": "Point",
                "coordinates": [
                    6.5392709,
                    46.5791821
                ]
            },
            "properties": {
                "name": "\u00c9cole Primaire de Vufflens-la-Ville"
            }
        },
        {
            "type": "Feature",
            "geometry": {
                "type": "Point",
                "coordinates": [
                    6.553094,
                    46.5771542
                ]
            },
            "properties": {
                "name": "\u00c9cole primaire de Mex"
            }
        },
        {
            "type": "Feature",
            "geometry": {
                "type": "Point",
                "coordinates": [
                    9.143295,
                    47.4467211
                ]
            },
            "properties": {
                "name": "Marktplatz"
            }
        },
        {
            "type": "Feature",
            "geometry": {
                "type": "Point",
                "coordinates": [
                    9.1362154,
                    47.4448158
                ]
            },
            "properties": {
                "name": "Herrenhof"
            }
        },
        {
            "type": "Feature",
            "geometry": {
                "type": "Point",
                "coordinates": [
                    7.6536624,
                    47.5891483
                ]
            },
            "properties": {
                "name": "Geh\u00f6rlosen- und Sprachheilschule Riehen"
            }
        },
        {
            "type": "Feature",
            "geometry": {
                "type": "Point",
                "coordinates": [
                    7.3959606,
                    47.0236962
                ]
            },
            "properties": {
                "name": "Primarschule"
            }
        },
        {
            "type": "Feature",
            "geometry": {
                "type": "Point",
                "coordinates": [
                    9.5941411,
                    46.6695104
                ]
            }
        },
        {
            "type": "Feature",
            "geometry": {
                "type": "Point",
                "coordinates": [
                    9.5786575,
                    46.6600682
                ]
            }
        },
        {
            "type": "Feature",
            "geometry": {
                "type": "Point",
                "coordinates": [
                    9.5630327,
                    46.6834576
                ]
            }
        },
        {
            "type": "Feature",
            "geometry": {
                "type": "Point",
                "coordinates": [
                    9.350491,
                    47.4173125
                ]
            },
            "properties": {
                "name": "Primarschule Sch\u00f6nenwegen"
            }
        },
        {
            "type": "Feature",
            "geometry": {
                "type": "Point",
                "coordinates": [
                    9.3468947,
                    47.4171151
                ]
            },
            "properties": {
                "name": "Realschule Waldau"
            }
        },
        {
            "type": "Feature",
            "geometry": {
                "type": "Point",
                "coordinates": [
                    8.8239336,
                    47.2867582
                ]
            },
            "properties": {
                "name": "Unterholz"
            }
        },
        {
            "type": "Feature",
            "geometry": {
                "type": "Point",
                "coordinates": [
                    8.4655753,
                    47.4342772
                ]
            },
            "properties": {
                "name": "Ruggenacher 1"
            }
        },
        {
            "type": "Feature",
            "geometry": {
                "type": "Point",
                "coordinates": [
                    8.4646569,
                    47.4346604
                ]
            },
            "properties": {
                "name": "Ruggenacher 2"
            }
        },
        {
            "type": "Feature",
            "geometry": {
                "type": "Point",
                "coordinates": [
                    8.464336,
                    47.4355206
                ]
            },
            "properties": {
                "name": "Ruggenacher 3"
            }
        },
        {
            "type": "Feature",
            "geometry": {
                "type": "Point",
                "coordinates": [
                    8.4725688,
                    47.4284331
                ]
            },
            "properties": {
                "name": "Chr\u00fcz\u00e4cher"
            }
        },
        {
            "type": "Feature",
            "geometry": {
                "type": "Point",
                "coordinates": [
                    9.0621411,
                    46.767551
                ]
            }
        },
        {
            "type": "Feature",
            "geometry": {
                "type": "Point",
                "coordinates": [
                    6.8336712,
                    47.1010606
                ]
            },
            "properties": {
                "name": "Coll\u00e8ge de la Promenade"
            }
        },
        {
            "type": "Feature",
            "geometry": {
                "type": "Point",
                "coordinates": [
                    6.8018223,
                    47.0403586
                ]
            },
            "properties": {
                "name": "\u00c9cole primaire"
            }
        },
        {
            "type": "Feature",
            "geometry": {
                "type": "Point",
                "coordinates": [
                    7.8083684,
                    47.4657056
                ]
            },
            "properties": {
                "name": "Primarschule Dorf"
            }
        },
        {
            "type": "Feature",
            "geometry": {
                "type": "Point",
                "coordinates": [
                    7.0587299,
                    46.6189076
                ]
            },
            "properties": {
                "name": "\u00c9cole de Musique de la Gruyere"
            }
        },
        {
            "type": "Feature",
            "geometry": {
                "type": "Point",
                "coordinates": [
                    6.6327948,
                    46.7912
                ]
            },
            "properties": {
                "name": "\u00c9cole Aquarelle"
            }
        },
        {
            "type": "Feature",
            "geometry": {
                "type": "Point",
                "coordinates": [
                    8.7178231,
                    47.3454022
                ]
            },
            "properties": {
                "name": "Schloss-Schule Uster"
            }
        },
        {
            "type": "Feature",
            "geometry": {
                "type": "Point",
                "coordinates": [
                    8.7224208,
                    47.3546819
                ]
            },
            "properties": {
                "name": "Heilp\u00e4dagogische Schule (HPS)"
            }
        },
        {
            "type": "Feature",
            "geometry": {
                "type": "Point",
                "coordinates": [
                    7.6154729,
                    47.3937064
                ]
            },
            "properties": {
                "name": "Kindergarten"
            }
        },
        {
            "type": "Feature",
            "geometry": {
                "type": "Point",
                "coordinates": [
                    9.2432667,
                    47.5958717
                ]
            },
            "properties": {
                "name": "Loowisen"
            }
        },
        {
            "type": "Feature",
            "geometry": {
                "type": "Point",
                "coordinates": [
                    6.8865766,
                    46.9834876
                ]
            }
        },
        {
            "type": "Feature",
            "geometry": {
                "type": "Point",
                "coordinates": [
                    8.4716164,
                    47.3209598
                ]
            },
            "properties": {
                "name": "Primarschule Bonstetten"
            }
        },
        {
            "type": "Feature",
            "geometry": {
                "type": "Point",
                "coordinates": [
                    9.3265351,
                    47.4235724
                ]
            },
            "properties": {
                "name": "Grund"
            }
        },
        {
            "type": "Feature",
            "geometry": {
                "type": "Point",
                "coordinates": [
                    6.8022472,
                    47.0911164
                ]
            },
            "properties": {
                "name": "Coll\u00e8ge des Endroits"
            }
        },
        {
            "type": "Feature",
            "geometry": {
                "type": "Point",
                "coordinates": [
                    7.3187493,
                    47.0481377
                ]
            }
        },
        {
            "type": "Feature",
            "geometry": {
                "type": "Point",
                "coordinates": [
                    8.959905,
                    46.0213648
                ]
            },
            "properties": {
                "name": "Scuola Gerra"
            }
        },
        {
            "type": "Feature",
            "geometry": {
                "type": "Point",
                "coordinates": [
                    7.6753917,
                    46.683501
                ]
            },
            "properties": {
                "name": "Schulanlage R\u00e4umli"
            }
        },
        {
            "type": "Feature",
            "geometry": {
                "type": "Point",
                "coordinates": [
                    7.1099928,
                    46.6704422
                ]
            },
            "properties": {
                "name": "\u00c9cole Primaire"
            }
        },
        {
            "type": "Feature",
            "geometry": {
                "type": "Point",
                "coordinates": [
                    7.1466277,
                    47.0222009
                ]
            },
            "properties": {
                "name": "Primarschule Br\u00fcttelen"
            }
        },
        {
            "type": "Feature",
            "geometry": {
                "type": "Point",
                "coordinates": [
                    6.210094,
                    46.4602552
                ]
            },
            "properties": {
                "name": "Centre scolaire Pr\u00e9-Morlot"
            }
        },
        {
            "type": "Feature",
            "geometry": {
                "type": "Point",
                "coordinates": [
                    8.1871641,
                    47.2390642
                ]
            }
        },
        {
            "type": "Feature",
            "geometry": {
                "type": "Point",
                "coordinates": [
                    7.1985371,
                    46.9769675
                ]
            }
        },
        {
            "type": "Feature",
            "geometry": {
                "type": "Point",
                "coordinates": [
                    8.3540626,
                    47.1230303
                ]
            },
            "properties": {
                "name": "Primarschule Inwil R\u00e4geboge 1 und 2"
            }
        },
        {
            "type": "Feature",
            "geometry": {
                "type": "Point",
                "coordinates": [
                    7.9923551,
                    47.1164814
                ]
            },
            "properties": {
                "name": "Volksschulen Willisau, Oberstufe"
            }
        },
        {
            "type": "Feature",
            "geometry": {
                "type": "Point",
                "coordinates": [
                    7.9914937,
                    47.1191921
                ]
            },
            "properties": {
                "name": "Volksschulen Willisau, Unterstufe"
            }
        },
        {
            "type": "Feature",
            "geometry": {
                "type": "Point",
                "coordinates": [
                    7.9887073,
                    47.1175215
                ]
            },
            "properties": {
                "name": "Berufsschulzentrum Willisau"
            }
        },
        {
            "type": "Feature",
            "geometry": {
                "type": "Point",
                "coordinates": [
                    7.5173671,
                    47.09533
                ]
            },
            "properties": {
                "name": "Unterstufe"
            }
        },
        {
            "type": "Feature",
            "geometry": {
                "type": "Point",
                "coordinates": [
                    7.2183696,
                    46.0961167
                ]
            },
            "properties": {
                "name": "\u00c9cole du Village"
            }
        },
        {
            "type": "Feature",
            "geometry": {
                "type": "Point",
                "coordinates": [
                    7.2220414,
                    46.0960307
                ]
            },
            "properties": {
                "name": "\u00c9cole de la Comba"
            }
        },
        {
            "type": "Feature",
            "geometry": {
                "type": "Point",
                "coordinates": [
                    7.6104095,
                    46.9116845
                ]
            }
        },
        {
            "type": "Feature",
            "geometry": {
                "type": "Point",
                "coordinates": [
                    7.6697618,
                    47.1070523
                ]
            }
        },
        {
            "type": "Feature",
            "geometry": {
                "type": "Point",
                "coordinates": [
                    9.687985,
                    46.9710776
                ]
            },
            "properties": {
                "name": "Evangelische Mittelschule Schiers"
            }
        },
        {
            "type": "Feature",
            "geometry": {
                "type": "Point",
                "coordinates": [
                    7.7091681,
                    46.7169112
                ]
            }
        },
        {
            "type": "Feature",
            "geometry": {
                "type": "Point",
                "coordinates": [
                    7.4243836,
                    47.0870283
                ]
            }
        },
        {
            "type": "Feature",
            "geometry": {
                "type": "Point",
                "coordinates": [
                    8.914511,
                    47.4768885
                ]
            },
            "properties": {
                "name": "Primarschule Guntershausen"
            }
        },
        {
            "type": "Feature",
            "geometry": {
                "type": "Point",
                "coordinates": [
                    8.3573852,
                    47.3478094
                ]
            },
            "properties": {
                "name": "Schulhaus Zufikon"
            }
        },
        {
            "type": "Feature",
            "geometry": {
                "type": "Point",
                "coordinates": [
                    7.8148836,
                    47.5272334
                ]
            },
            "properties": {
                "name": "Musikschule"
            }
        },
        {
            "type": "Feature",
            "geometry": {
                "type": "Point",
                "coordinates": [
                    9.4983678,
                    47.0067487
                ]
            },
            "properties": {
                "name": "Kleinfeld"
            }
        },
        {
            "type": "Feature",
            "geometry": {
                "type": "Point",
                "coordinates": [
                    9.5005351,
                    47.0046312
                ]
            },
            "properties": {
                "name": "Schulhaus Sarganserstrasse"
            }
        },
        {
            "type": "Feature",
            "geometry": {
                "type": "Point",
                "coordinates": [
                    6.8630886,
                    46.5458771
                ]
            }
        },
        {
            "type": "Feature",
            "geometry": {
                "type": "Point",
                "coordinates": [
                    7.695663,
                    46.7965413
                ]
            },
            "properties": {
                "name": "Sekundarschule Unterlangenegg"
            }
        },
        {
            "type": "Feature",
            "geometry": {
                "type": "Point",
                "coordinates": [
                    7.6965378,
                    46.7962612
                ]
            },
            "properties": {
                "name": "Primar-/Realschule Unterlangenegg"
            }
        },
        {
            "type": "Feature",
            "geometry": {
                "type": "Point",
                "coordinates": [
                    7.8924564,
                    47.382469
                ]
            },
            "properties": {
                "name": "Fachschule VHP"
            }
        },
        {
            "type": "Feature",
            "geometry": {
                "type": "Point",
                "coordinates": [
                    8.3667602,
                    47.0727515
                ]
            },
            "properties": {
                "name": "Obmatt"
            }
        },
        {
            "type": "Feature",
            "geometry": {
                "type": "Point",
                "coordinates": [
                    8.3667103,
                    47.0716159
                ]
            },
            "properties": {
                "name": "Obmatt"
            }
        },
        {
            "type": "Feature",
            "geometry": {
                "type": "Point",
                "coordinates": [
                    8.6907948,
                    47.208773
                ]
            },
            "properties": {
                "name": "Kindergarten Feld 2"
            }
        },
        {
            "type": "Feature",
            "geometry": {
                "type": "Point",
                "coordinates": [
                    8.9773235,
                    46.0318876
                ]
            },
            "properties": {
                "name": "Scuole elementari Davesco"
            }
        },
        {
            "type": "Feature",
            "geometry": {
                "type": "Point",
                "coordinates": [
                    7.6398974,
                    47.57316
                ]
            },
            "properties": {
                "name": "Primarschule Wasserstelzen"
            }
        },
        {
            "type": "Feature",
            "geometry": {
                "type": "Point",
                "coordinates": [
                    6.5612655,
                    46.5127383
                ]
            }
        },
        {
            "type": "Feature",
            "geometry": {
                "type": "Point",
                "coordinates": [
                    9.2086439,
                    47.4646131
                ]
            },
            "properties": {
                "name": "Primarschule"
            }
        },
        {
            "type": "Feature",
            "geometry": {
                "type": "Point",
                "coordinates": [
                    6.4965778,
                    46.5110101
                ]
            },
            "properties": {
                "name": "Square Central"
            }
        },
        {
            "type": "Feature",
            "geometry": {
                "type": "Point",
                "coordinates": [
                    8.851332,
                    46.7041691
                ]
            }
        },
        {
            "type": "Feature",
            "geometry": {
                "type": "Point",
                "coordinates": [
                    9.6269636,
                    47.414854
                ]
            },
            "properties": {
                "name": "Schule Blattacker"
            }
        },
        {
            "type": "Feature",
            "geometry": {
                "type": "Point",
                "coordinates": [
                    9.4807418,
                    46.969429
                ]
            },
            "properties": {
                "name": "Primarschulhaus Valens"
            }
        },
        {
            "type": "Feature",
            "geometry": {
                "type": "Point",
                "coordinates": [
                    8.017862,
                    46.316674
                ]
            },
            "properties": {
                "name": "Primarschule Ried-Brig"
            }
        },
        {
            "type": "Feature",
            "geometry": {
                "type": "Point",
                "coordinates": [
                    8.0173968,
                    46.315664
                ]
            },
            "properties": {
                "name": "Schulhaus Schl\u00fcocht"
            }
        },
        {
            "type": "Feature",
            "geometry": {
                "type": "Point",
                "coordinates": [
                    8.6769729,
                    47.1932478
                ]
            },
            "properties": {
                "name": "Schulhaus Samstagern"
            }
        },
        {
            "type": "Feature",
            "geometry": {
                "type": "Point",
                "coordinates": [
                    6.6075571,
                    46.6605439
                ]
            },
            "properties": {
                "name": "\u00c9cole"
            }
        },
        {
            "type": "Feature",
            "geometry": {
                "type": "Point",
                "coordinates": [
                    7.4454367,
                    46.9567601
                ]
            },
            "properties": {
                "name": "denk:mal"
            }
        },
        {
            "type": "Feature",
            "geometry": {
                "type": "Point",
                "coordinates": [
                    8.8891112,
                    47.2039887
                ]
            },
            "properties": {
                "name": "Kantonsschule Nuolen"
            }
        },
        {
            "type": "Feature",
            "geometry": {
                "type": "Point",
                "coordinates": [
                    6.7317778,
                    46.5399441
                ]
            },
            "properties": {
                "name": "Coll\u00e8ge de Savigny"
            }
        },
        {
            "type": "Feature",
            "geometry": {
                "type": "Point",
                "coordinates": [
                    6.7321694,
                    46.5372771
                ]
            },
            "properties": {
                "name": "Coll\u00e8ge de Savigny"
            }
        },
        {
            "type": "Feature",
            "geometry": {
                "type": "Point",
                "coordinates": [
                    6.7451456,
                    47.0626919
                ]
            },
            "properties": {
                "name": "Coll\u00e8ge des Monts"
            }
        },
        {
            "type": "Feature",
            "geometry": {
                "type": "Point",
                "coordinates": [
                    8.8045898,
                    47.327158
                ]
            },
            "properties": {
                "name": "Goldb\u00fchl"
            }
        },
        {
            "type": "Feature",
            "geometry": {
                "type": "Point",
                "coordinates": [
                    9.8158318,
                    46.7900499
                ]
            },
            "properties": {
                "name": "Sportgymnasium Davos"
            }
        },
        {
            "type": "Feature",
            "geometry": {
                "type": "Point",
                "coordinates": [
                    7.017937,
                    46.220473
                ]
            }
        },
        {
            "type": "Feature",
            "geometry": {
                "type": "Point",
                "coordinates": [
                    8.5212279,
                    47.3103775
                ]
            },
            "properties": {
                "name": "Schulhaus Sonnenberg"
            }
        },
        {
            "type": "Feature",
            "geometry": {
                "type": "Point",
                "coordinates": [
                    8.5197087,
                    47.3105405
                ]
            },
            "properties": {
                "name": "Schulhaus Hofern"
            }
        },
        {
            "type": "Feature",
            "geometry": {
                "type": "Point",
                "coordinates": [
                    8.5291759,
                    47.3132989
                ]
            },
            "properties": {
                "name": "Schulhaus Kronenwiese"
            }
        },
        {
            "type": "Feature",
            "geometry": {
                "type": "Point",
                "coordinates": [
                    8.5331582,
                    47.3080849
                ]
            },
            "properties": {
                "name": "Schulhaus Kopfholz"
            }
        },
        {
            "type": "Feature",
            "geometry": {
                "type": "Point",
                "coordinates": [
                    8.5832417,
                    47.5306423
                ]
            },
            "properties": {
                "name": "Oberstufenschule Freienstein"
            }
        },
        {
            "type": "Feature",
            "geometry": {
                "type": "Point",
                "coordinates": [
                    9.463638,
                    47.3307073
                ]
            },
            "properties": {
                "name": "Bildwiese"
            }
        },
        {
            "type": "Feature",
            "geometry": {
                "type": "Point",
                "coordinates": [
                    9.1580929,
                    47.6403017
                ]
            },
            "properties": {
                "name": "Schule Bernrain"
            }
        },
        {
            "type": "Feature",
            "geometry": {
                "type": "Point",
                "coordinates": [
                    7.3427844,
                    47.3637663
                ]
            },
            "properties": {
                "name": "\u00c9cole primaire du Ch\u00e2teau"
            }
        },
        {
            "type": "Feature",
            "geometry": {
                "type": "Point",
                "coordinates": [
                    7.999418,
                    46.3274019
                ]
            },
            "properties": {
                "name": "OS Naters / Bammatta"
            }
        },
        {
            "type": "Feature",
            "geometry": {
                "type": "Point",
                "coordinates": [
                    8.2894182,
                    47.1645147
                ]
            },
            "properties": {
                "name": "Schulhaus Zentral"
            }
        },
        {
            "type": "Feature",
            "geometry": {
                "type": "Point",
                "coordinates": [
                    8.2894773,
                    47.163334
                ]
            },
            "properties": {
                "name": "Schulhaus Arena"
            }
        },
        {
            "type": "Feature",
            "geometry": {
                "type": "Point",
                "coordinates": [
                    6.4500433,
                    46.6080264
                ]
            }
        },
        {
            "type": "Feature",
            "geometry": {
                "type": "Point",
                "coordinates": [
                    9.4211597,
                    47.4504879
                ]
            },
            "properties": {
                "name": "Rudolph Steiner Schule"
            }
        },
        {
            "type": "Feature",
            "geometry": {
                "type": "Point",
                "coordinates": [
                    9.5768911,
                    47.4598786
                ]
            },
            "properties": {
                "name": "Schulhaus Gitzb\u00fcchel"
            }
        },
        {
            "type": "Feature",
            "geometry": {
                "type": "Point",
                "coordinates": [
                    7.627961,
                    47.0488274
                ]
            },
            "properties": {
                "name": "Primarschule Schlossmatt"
            }
        },
        {
            "type": "Feature",
            "geometry": {
                "type": "Point",
                "coordinates": [
                    9.3351924,
                    47.4723583
                ]
            }
        },
        {
            "type": "Feature",
            "geometry": {
                "type": "Point",
                "coordinates": [
                    7.3788237,
                    47.0376745
                ]
            }
        },
        {
            "type": "Feature",
            "geometry": {
                "type": "Point",
                "coordinates": [
                    6.5671638,
                    46.5317212
                ]
            },
            "properties": {
                "name": "Coll\u00e8ge du Pontet"
            }
        },
        {
            "type": "Feature",
            "geometry": {
                "type": "Point",
                "coordinates": [
                    6.5658704,
                    46.5368793
                ]
            },
            "properties": {
                "name": "\u00c9cole du Croset"
            }
        },
        {
            "type": "Feature",
            "geometry": {
                "type": "Point",
                "coordinates": [
                    8.9653116,
                    46.0374244
                ]
            },
            "properties": {
                "name": "Asilo Canobbio"
            }
        },
        {
            "type": "Feature",
            "geometry": {
                "type": "Point",
                "coordinates": [
                    8.7512585,
                    47.1284305
                ]
            },
            "properties": {
                "name": "Altes Schulhaus"
            }
        },
        {
            "type": "Feature",
            "geometry": {
                "type": "Point",
                "coordinates": [
                    8.9709637,
                    46.0244537
                ]
            },
            "properties": {
                "name": "Asilo Pregassona"
            }
        },
        {
            "type": "Feature",
            "geometry": {
                "type": "Point",
                "coordinates": [
                    8.4189424,
                    47.3193073
                ]
            },
            "properties": {
                "name": "Primarschule Arni"
            }
        },
        {
            "type": "Feature",
            "geometry": {
                "type": "Point",
                "coordinates": [
                    8.7867195,
                    47.4097692
                ]
            },
            "properties": {
                "name": "Schule Madetswil"
            }
        },
        {
            "type": "Feature",
            "geometry": {
                "type": "Point",
                "coordinates": [
                    8.3801577,
                    47.5435598
                ]
            },
            "properties": {
                "name": "Schulhaus Sch\u00fcppel"
            }
        },
        {
            "type": "Feature",
            "geometry": {
                "type": "Point",
                "coordinates": [
                    9.035635,
                    47.4526971
                ]
            },
            "properties": {
                "name": "Schule Wilen"
            }
        },
        {
            "type": "Feature",
            "geometry": {
                "type": "Point",
                "coordinates": [
                    7.0257879,
                    46.7216959
                ]
            }
        },
        {
            "type": "Feature",
            "geometry": {
                "type": "Point",
                "coordinates": [
                    7.0016711,
                    46.7037509
                ]
            }
        },
        {
            "type": "Feature",
            "geometry": {
                "type": "Point",
                "coordinates": [
                    6.9791583,
                    46.6771053
                ]
            }
        },
        {
            "type": "Feature",
            "geometry": {
                "type": "Point",
                "coordinates": [
                    8.5749471,
                    47.2061803
                ]
            },
            "properties": {
                "name": "Chilematt"
            }
        },
        {
            "type": "Feature",
            "geometry": {
                "type": "Point",
                "coordinates": [
                    8.5191474,
                    47.1631464
                ]
            },
            "properties": {
                "name": "Schulhaus Kirchmatt"
            }
        },
        {
            "type": "Feature",
            "geometry": {
                "type": "Point",
                "coordinates": [
                    8.5165697,
                    47.1657526
                ]
            },
            "properties": {
                "name": "Burgbach"
            }
        },
        {
            "type": "Feature",
            "geometry": {
                "type": "Point",
                "coordinates": [
                    8.5248669,
                    47.1686625
                ]
            },
            "properties": {
                "name": "H\u00e4nggeli"
            }
        },
        {
            "type": "Feature",
            "geometry": {
                "type": "Point",
                "coordinates": [
                    8.1751416,
                    46.8383658
                ]
            },
            "properties": {
                "name": "Primar- Orientierungsschule"
            }
        },
        {
            "type": "Feature",
            "geometry": {
                "type": "Point",
                "coordinates": [
                    7.7598649,
                    47.473204
                ]
            },
            "properties": {
                "name": "Schulhaus M\u00fchlenmatt"
            }
        },
        {
            "type": "Feature",
            "geometry": {
                "type": "Point",
                "coordinates": [
                    8.6846983,
                    47.3077434
                ]
            },
            "properties": {
                "name": "Schulhaus Guetli"
            }
        },
        {
            "type": "Feature",
            "geometry": {
                "type": "Point",
                "coordinates": [
                    7.8118693,
                    47.4386751
                ]
            }
        },
        {
            "type": "Feature",
            "geometry": {
                "type": "Point",
                "coordinates": [
                    8.9796721,
                    46.0445394
                ]
            },
            "properties": {
                "name": "Scuole elementari Cadro"
            }
        },
        {
            "type": "Feature",
            "geometry": {
                "type": "Point",
                "coordinates": [
                    8.7606137,
                    47.3229513
                ]
            },
            "properties": {
                "name": "Schulhaus Bertschikon"
            }
        },
        {
            "type": "Feature",
            "geometry": {
                "type": "Point",
                "coordinates": [
                    9.0064428,
                    47.1981612
                ]
            }
        },
        {
            "type": "Feature",
            "geometry": {
                "type": "Point",
                "coordinates": [
                    8.6857268,
                    47.4317078
                ]
            },
            "properties": {
                "name": "B\u00e4tzibuck"
            }
        },
        {
            "type": "Feature",
            "geometry": {
                "type": "Point",
                "coordinates": [
                    6.4115837,
                    46.6191643
                ]
            },
            "properties": {
                "name": "Ecole secondaire"
            }
        },
        {
            "type": "Feature",
            "geometry": {
                "type": "Point",
                "coordinates": [
                    7.7199283,
                    47.5340557
                ]
            },
            "properties": {
                "name": "Primarschule Augst"
            }
        },
        {
            "type": "Feature",
            "geometry": {
                "type": "Point",
                "coordinates": [
                    7.7228954,
                    47.5402522
                ]
            },
            "properties": {
                "name": "Primarschule Kaiseraugst, Schulhaus Dorf"
            }
        },
        {
            "type": "Feature",
            "geometry": {
                "type": "Point",
                "coordinates": [
                    6.9181644,
                    47.0003657
                ]
            },
            "properties": {
                "name": "Coll\u00e8ge primaire"
            }
        },
        {
            "type": "Feature",
            "geometry": {
                "type": "Point",
                "coordinates": [
                    6.8957705,
                    46.4666916
                ]
            },
            "properties": {
                "name": "Bahyse"
            }
        },
        {
            "type": "Feature",
            "geometry": {
                "type": "Point",
                "coordinates": [
                    6.8951498,
                    46.4683735
                ]
            },
            "properties": {
                "name": "Cojonnex"
            }
        },
        {
            "type": "Feature",
            "geometry": {
                "type": "Point",
                "coordinates": [
                    6.8935227,
                    46.4686769
                ]
            },
            "properties": {
                "name": "Enfantine"
            }
        },
        {
            "type": "Feature",
            "geometry": {
                "type": "Point",
                "coordinates": [
                    8.4621541,
                    47.3631266
                ]
            },
            "properties": {
                "name": "Schulhaus Mettlen"
            }
        },
        {
            "type": "Feature",
            "geometry": {
                "type": "Point",
                "coordinates": [
                    8.4632203,
                    47.2201541
                ]
            },
            "properties": {
                "name": "Knonau"
            }
        },
        {
            "type": "Feature",
            "geometry": {
                "type": "Point",
                "coordinates": [
                    6.960488,
                    46.8310428
                ]
            },
            "properties": {
                "name": "Coll\u00e8ge de Corcelles"
            }
        },
        {
            "type": "Feature",
            "geometry": {
                "type": "Point",
                "coordinates": [
                    8.6762195,
                    47.5965042
                ]
            }
        },
        {
            "type": "Feature",
            "geometry": {
                "type": "Point",
                "coordinates": [
                    8.5268996,
                    47.5757578
                ]
            },
            "properties": {
                "name": "Schulhaus St\u00e4dtli"
            }
        },
        {
            "type": "Feature",
            "geometry": {
                "type": "Point",
                "coordinates": [
                    8.5158173,
                    47.5260749
                ]
            },
            "properties": {
                "name": "Primarschule Hochfelden"
            }
        },
        {
            "type": "Feature",
            "geometry": {
                "type": "Point",
                "coordinates": [
                    8.4807934,
                    47.3734318
                ]
            },
            "properties": {
                "name": "Kinderreitschule"
            }
        },
        {
            "type": "Feature",
            "geometry": {
                "type": "Point",
                "coordinates": [
                    8.6499997,
                    47.6308845
                ]
            },
            "properties": {
                "name": "Sekundarschule Kreis Marthalen"
            }
        },
        {
            "type": "Feature",
            "geometry": {
                "type": "Point",
                "coordinates": [
                    7.6725215,
                    47.0250914
                ]
            },
            "properties": {
                "name": "Kindergarten und Primarschule R\u00fcegsau"
            }
        },
        {
            "type": "Feature",
            "geometry": {
                "type": "Point",
                "coordinates": [
                    6.9998165,
                    46.1850564
                ]
            }
        },
        {
            "type": "Feature",
            "geometry": {
                "type": "Point",
                "coordinates": [
                    8.4369645,
                    47.5563089
                ]
            },
            "properties": {
                "name": "Unter- & Mittel-Stufe Weiach"
            }
        },
        {
            "type": "Feature",
            "geometry": {
                "type": "Point",
                "coordinates": [
                    9.6392261,
                    47.4030003
                ]
            },
            "properties": {
                "name": "Schulhaus Schlatt"
            }
        },
        {
            "type": "Feature",
            "geometry": {
                "type": "Point",
                "coordinates": [
                    7.573707,
                    46.5053222
                ]
            },
            "properties": {
                "name": "Schulhaus Ausserschwand"
            }
        },
        {
            "type": "Feature",
            "geometry": {
                "type": "Point",
                "coordinates": [
                    8.5188879,
                    47.1622518
                ]
            },
            "properties": {
                "name": "P\u00e4dagogische Hochschule Zug"
            }
        },
        {
            "type": "Feature",
            "geometry": {
                "type": "Point",
                "coordinates": [
                    8.5204067,
                    47.1629816
                ]
            },
            "properties": {
                "name": "Schulhaus Maria Opferung"
            }
        },
        {
            "type": "Feature",
            "geometry": {
                "type": "Point",
                "coordinates": [
                    6.7866974,
                    46.8154687
                ]
            }
        },
        {
            "type": "Feature",
            "geometry": {
                "type": "Point",
                "coordinates": [
                    8.4416103,
                    47.1249382
                ]
            },
            "properties": {
                "name": "Primarschule Meierskappel"
            }
        },
        {
            "type": "Feature",
            "geometry": {
                "type": "Point",
                "coordinates": [
                    6.888004,
                    46.8756935
                ]
            },
            "properties": {
                "name": "Coll\u00e8ge de Forel"
            }
        },
        {
            "type": "Feature",
            "geometry": {
                "type": "Point",
                "coordinates": [
                    9.0086525,
                    47.6046382
                ]
            },
            "properties": {
                "name": "Primarschule"
            }
        },
        {
            "type": "Feature",
            "geometry": {
                "type": "Point",
                "coordinates": [
                    7.1227648,
                    46.9343765
                ]
            },
            "properties": {
                "name": "Campus HEPROlino"
            }
        },
        {
            "type": "Feature",
            "geometry": {
                "type": "Point",
                "coordinates": [
                    7.5446418,
                    47.4185425
                ]
            },
            "properties": {
                "name": "Primarschule Brislach"
            }
        },
        {
            "type": "Feature",
            "geometry": {
                "type": "Point",
                "coordinates": [
                    8.5547829,
                    47.3728111
                ]
            },
            "properties": {
                "name": "Rudolf Steiner Schule Z\u00fcrich"
            }
        },
        {
            "type": "Feature",
            "geometry": {
                "type": "Point",
                "coordinates": [
                    7.0211903,
                    46.1189655
                ]
            }
        },
        {
            "type": "Feature",
            "geometry": {
                "type": "Point",
                "coordinates": [
                    6.8945662,
                    46.4685686
                ]
            },
            "properties": {
                "name": "Maison Picson"
            }
        },
        {
            "type": "Feature",
            "geometry": {
                "type": "Point",
                "coordinates": [
                    8.4651812,
                    47.245886
                ]
            },
            "properties": {
                "name": "Gramatt"
            }
        },
        {
            "type": "Feature",
            "geometry": {
                "type": "Point",
                "coordinates": [
                    8.4630882,
                    47.2464196
                ]
            },
            "properties": {
                "name": "Schulanlage Wygarten"
            }
        },
        {
            "type": "Feature",
            "geometry": {
                "type": "Point",
                "coordinates": [
                    8.1153239,
                    47.3112859
                ]
            }
        },
        {
            "type": "Feature",
            "geometry": {
                "type": "Point",
                "coordinates": [
                    9.2823976,
                    47.465663
                ]
            },
            "properties": {
                "name": "Oberstufenzentrum B\u00fcnt"
            }
        },
        {
            "type": "Feature",
            "geometry": {
                "type": "Point",
                "coordinates": [
                    9.282904,
                    47.4671717
                ]
            }
        },
        {
            "type": "Feature",
            "geometry": {
                "type": "Point",
                "coordinates": [
                    9.2829854,
                    47.4675931
                ]
            },
            "properties": {
                "name": "Kindergarten"
            }
        },
        {
            "type": "Feature",
            "geometry": {
                "type": "Point",
                "coordinates": [
                    6.8768446,
                    46.4739883
                ]
            },
            "properties": {
                "name": "Haut \u00c9cole du Lac"
            }
        },
        {
            "type": "Feature",
            "geometry": {
                "type": "Point",
                "coordinates": [
                    9.2713694,
                    47.3914087
                ]
            },
            "properties": {
                "name": "Schulhaus Kreuzweg"
            }
        },
        {
            "type": "Feature",
            "geometry": {
                "type": "Point",
                "coordinates": [
                    8.4438538,
                    47.0865467
                ]
            },
            "properties": {
                "name": "Ebnet"
            }
        },
        {
            "type": "Feature",
            "geometry": {
                "type": "Point",
                "coordinates": [
                    9.3112376,
                    47.4222867
                ]
            },
            "properties": {
                "name": "Schulheim Langhalde"
            }
        },
        {
            "type": "Feature",
            "geometry": {
                "type": "Point",
                "coordinates": [
                    7.4491227,
                    47.0213561
                ]
            },
            "properties": {
                "name": "Dorfschulhaus"
            }
        },
        {
            "type": "Feature",
            "geometry": {
                "type": "Point",
                "coordinates": [
                    8.9302358,
                    45.9871644
                ]
            },
            "properties": {
                "name": "Scuola Elemtare Noranco"
            }
        },
        {
            "type": "Feature",
            "geometry": {
                "type": "Point",
                "coordinates": [
                    7.5934241,
                    47.4718763
                ]
            },
            "properties": {
                "name": "Neumattschulhaus"
            }
        },
        {
            "type": "Feature",
            "geometry": {
                "type": "Point",
                "coordinates": [
                    8.0638217,
                    46.9917328
                ]
            },
            "properties": {
                "name": "Primarschule Pfrundmatt"
            }
        },
        {
            "type": "Feature",
            "geometry": {
                "type": "Point",
                "coordinates": [
                    8.6116608,
                    47.0504827
                ]
            },
            "properties": {
                "name": "Halti"
            }
        },
        {
            "type": "Feature",
            "geometry": {
                "type": "Point",
                "coordinates": [
                    7.1593568,
                    47.008215
                ]
            },
            "properties": {
                "name": "Schule Treiten"
            }
        },
        {
            "type": "Feature",
            "geometry": {
                "type": "Point",
                "coordinates": [
                    8.4949886,
                    47.2444503
                ]
            },
            "properties": {
                "name": "Schule Rifferswil"
            }
        },
        {
            "type": "Feature",
            "geometry": {
                "type": "Point",
                "coordinates": [
                    6.1614069,
                    46.1980944
                ]
            },
            "properties": {
                "name": "\u00c9cole de Roches"
            }
        },
        {
            "type": "Feature",
            "geometry": {
                "type": "Point",
                "coordinates": [
                    6.8253179,
                    46.8178709
                ]
            }
        },
        {
            "type": "Feature",
            "geometry": {
                "type": "Point",
                "coordinates": [
                    9.6587367,
                    47.3849069
                ]
            },
            "properties": {
                "name": "Kirchenfeld"
            }
        },
        {
            "type": "Feature",
            "geometry": {
                "type": "Point",
                "coordinates": [
                    9.6589853,
                    47.385843
                ]
            },
            "properties": {
                "name": "Kirchenfeld"
            }
        },
        {
            "type": "Feature",
            "geometry": {
                "type": "Point",
                "coordinates": [
                    9.648322,
                    47.3844342
                ]
            },
            "properties": {
                "name": "Oberstufenzentrum Kleewies"
            }
        },
        {
            "type": "Feature",
            "geometry": {
                "type": "Point",
                "coordinates": [
                    7.6016251,
                    47.5103904
                ]
            },
            "properties": {
                "name": "International School Basel"
            }
        },
        {
            "type": "Feature",
            "geometry": {
                "type": "Point",
                "coordinates": [
                    8.6089026,
                    47.2550475
                ]
            },
            "properties": {
                "name": "Schulhaus Rotweg"
            }
        },
        {
            "type": "Feature",
            "geometry": {
                "type": "Point",
                "coordinates": [
                    8.5995455,
                    47.2592495
                ]
            },
            "properties": {
                "name": "Schulhaus Baumg\u00e4rtli"
            }
        },
        {
            "type": "Feature",
            "geometry": {
                "type": "Point",
                "coordinates": [
                    8.6068317,
                    47.244935
                ]
            },
            "properties": {
                "name": "Schulhaus Waldegg"
            }
        },
        {
            "type": "Feature",
            "geometry": {
                "type": "Point",
                "coordinates": [
                    7.5915558,
                    47.5498131
                ]
            },
            "properties": {
                "name": "Schulhaus De Wette"
            }
        },
        {
            "type": "Feature",
            "geometry": {
                "type": "Point",
                "coordinates": [
                    8.6947486,
                    47.2061509
                ]
            },
            "properties": {
                "name": "Kindergarten Im Leemann"
            }
        },
        {
            "type": "Feature",
            "geometry": {
                "type": "Point",
                "coordinates": [
                    8.8681306,
                    47.6096747
                ]
            },
            "properties": {
                "name": "Sekundarschule H\u00fcttwilen"
            }
        },
        {
            "type": "Feature",
            "geometry": {
                "type": "Point",
                "coordinates": [
                    8.9434477,
                    47.2487169
                ]
            },
            "properties": {
                "name": "Primarschule"
            }
        },
        {
            "type": "Feature",
            "geometry": {
                "type": "Point",
                "coordinates": [
                    8.6367283,
                    47.2255948
                ]
            },
            "properties": {
                "name": "Stocken"
            }
        },
        {
            "type": "Feature",
            "geometry": {
                "type": "Point",
                "coordinates": [
                    9.3191206,
                    46.5522442
                ]
            },
            "properties": {
                "name": "Schule Spl\u00fcgen"
            }
        },
        {
            "type": "Feature",
            "geometry": {
                "type": "Point",
                "coordinates": [
                    8.3044026,
                    47.4199685
                ]
            },
            "properties": {
                "name": "H\u00fcslerberg"
            }
        },
        {
            "type": "Feature",
            "geometry": {
                "type": "Point",
                "coordinates": [
                    8.7559977,
                    47.3898824
                ]
            },
            "properties": {
                "name": "Schulh\u00e4user Heiget"
            }
        },
        {
            "type": "Feature",
            "geometry": {
                "type": "Point",
                "coordinates": [
                    8.0749241,
                    47.1845329
                ]
            },
            "properties": {
                "name": "Schulhaus St. Erhard"
            }
        },
        {
            "type": "Feature",
            "geometry": {
                "type": "Point",
                "coordinates": [
                    8.0720512,
                    47.2014141
                ]
            },
            "properties": {
                "name": "Schulhaus Knutwil"
            }
        },
        {
            "type": "Feature",
            "geometry": {
                "type": "Point",
                "coordinates": [
                    7.7983754,
                    47.555344
                ]
            },
            "properties": {
                "name": "Musikschule Rheinfelden"
            }
        },
        {
            "type": "Feature",
            "geometry": {
                "type": "Point",
                "coordinates": [
                    6.8523441,
                    46.5227583
                ]
            },
            "properties": {
                "name": "Bossonnens"
            }
        },
        {
            "type": "Feature",
            "geometry": {
                "type": "Point",
                "coordinates": [
                    6.6342427,
                    46.6366026
                ]
            },
            "properties": {
                "name": "Coll\u00e8ge de Court-Champ"
            }
        },
        {
            "type": "Feature",
            "geometry": {
                "type": "Point",
                "coordinates": [
                    9.1535201,
                    46.9819994
                ]
            },
            "properties": {
                "name": "Schulhaus Engi"
            }
        },
        {
            "type": "Feature",
            "geometry": {
                "type": "Point",
                "coordinates": [
                    7.2009661,
                    47.0685028
                ]
            },
            "properties": {
                "name": "Primarschule T\u00e4uffelen"
            }
        },
        {
            "type": "Feature",
            "geometry": {
                "type": "Point",
                "coordinates": [
                    7.7162026,
                    47.4137929
                ]
            },
            "properties": {
                "name": "Dorfschule und Sporthalle"
            }
        },
        {
            "type": "Feature",
            "geometry": {
                "type": "Point",
                "coordinates": [
                    7.6095888,
                    47.2479388
                ]
            },
            "properties": {
                "name": "Kindergarten"
            }
        },
        {
            "type": "Feature",
            "geometry": {
                "type": "Point",
                "coordinates": [
                    7.6165632,
                    47.065415
                ]
            },
            "properties": {
                "name": "Primarschule Neumatt"
            }
        },
        {
            "type": "Feature",
            "geometry": {
                "type": "Point",
                "coordinates": [
                    7.4644135,
                    46.9618719
                ]
            },
            "properties": {
                "name": "bwd KBS Kaufm\u00e4nnische Berufsfachschule Bern"
            }
        },
        {
            "type": "Feature",
            "geometry": {
                "type": "Point",
                "coordinates": [
                    7.4647327,
                    46.9617553
                ]
            },
            "properties": {
                "name": "bwd WMB Wirtschaftsmittelschule / IMS Informatikmittelschule Bern"
            }
        },
        {
            "type": "Feature",
            "geometry": {
                "type": "Point",
                "coordinates": [
                    7.4617059,
                    46.9638785
                ]
            },
            "properties": {
                "name": "Schule Wankdorf"
            }
        },
        {
            "type": "Feature",
            "geometry": {
                "type": "Point",
                "coordinates": [
                    8.3651608,
                    47.3569207
                ]
            },
            "properties": {
                "name": "Kreisschule Berikon"
            }
        },
        {
            "type": "Feature",
            "geometry": {
                "type": "Point",
                "coordinates": [
                    8.3888251,
                    46.9257022
                ]
            }
        },
        {
            "type": "Feature",
            "geometry": {
                "type": "Point",
                "coordinates": [
                    8.3883827,
                    46.9258913
                ]
            }
        },
        {
            "type": "Feature",
            "geometry": {
                "type": "Point",
                "coordinates": [
                    9.465852,
                    47.47764
                ]
            }
        },
        {
            "type": "Feature",
            "geometry": {
                "type": "Point",
                "coordinates": [
                    7.3195012,
                    47.046354
                ]
            },
            "properties": {
                "name": "YWAM Wiler"
            }
        },
        {
            "type": "Feature",
            "geometry": {
                "type": "Point",
                "coordinates": [
                    9.6543122,
                    47.3851332
                ]
            },
            "properties": {
                "name": "Mitteldorf"
            }
        },