{
    "type": "FeatureCollection",
    "features": [
        {
            "type": "Feature",
            "geometry": {
                "type": "Point",
                "coordinates": [
                    18.011377,
                    53.1264847
                ]
            },
            "properties": {
                "name": "Szpital MSWiA"
            }
        },
        {
            "type": "Feature",
            "geometry": {
                "type": "Point",
                "coordinates": [
                    16.9189762,
                    52.389097
                ]
            },
            "properties": {
                "name": "Ortopedyczno-Rehabilitacyjny Szpital Kliniczny nr 4"
            }
        },
        {
            "type": "Feature",
            "geometry": {
                "type": "Point",
                "coordinates": [
                    18.5227867,
                    50.4529373
                ]
            }
        },
        {
            "type": "Feature",
            "geometry": {
                "type": "Point",
                "coordinates": [
                    17.0063058,
                    52.0894231
                ]
            },
            "properties": {
                "name": "Szpital Powiatowy"
            }
        },
        {
            "type": "Feature",
            "geometry": {
                "type": "Point",
                "coordinates": [
                    18.5672171,
                    54.433597
                ]
            },
            "properties": {
                "name": "Centrum Medyczne \"KARDIOTEL\""
            }
        },
        {
            "type": "Feature",
            "geometry": {
                "type": "Point",
                "coordinates": [
                    21.0024759,
                    52.2258398
                ]
            },
            "properties": {
                "name": "Szpital Kliniczny Dzieci\u0105tka Jezus"
            }
        },
        {
            "type": "Feature",
            "geometry": {
                "type": "Point",
                "coordinates": [
                    23.4846984,
                    53.4079976
                ]
            },
            "properties": {
                "name": "SP ZOZ"
            }
        },
        {
            "type": "Feature",
            "geometry": {
                "type": "Point",
                "coordinates": [
                    20.1534132,
                    51.963687
                ]
            },
            "properties": {
                "name": "Szpital Wojew\u00f3dzki"
            }
        },
        {
            "type": "Feature",
            "geometry": {
                "type": "Point",
                "coordinates": [
                    19.0111901,
                    50.7268638
                ]
            }
        },
        {
            "type": "Feature",
            "geometry": {
                "type": "Point",
                "coordinates": [
                    15.8119399,
                    53.524975
                ]
            }
        },
        {
            "type": "Feature",
            "geometry": {
                "type": "Point",
                "coordinates": [
                    20.9737838,
                    52.209659
                ]
            }
        },
        {
            "type": "Feature",
            "geometry": {
                "type": "Point",
                "coordinates": [
                    20.9977786,
                    52.2240597
                ]
            },
            "properties": {
                "name": "Pa\u0144stwowy Szpital Kliniczny Dzieci\u0105tka Jezus"
            }
        },
        {
            "type": "Feature",
            "geometry": {
                "type": "Point",
                "coordinates": [
                    21.1090336,
                    52.2995363
                ]
            },
            "properties": {
                "name": "Mazowieckie Centrum Psychiatrii Drewnica"
            }
        },
        {
            "type": "Feature",
            "geometry": {
                "type": "Point",
                "coordinates": [
                    21.2334315,
                    51.1654056
                ]
            }
        },
        {
            "type": "Feature",
            "geometry": {
                "type": "Point",
                "coordinates": [
                    22.0730879,
                    51.4997158
                ]
            },
            "properties": {
                "name": "SPZOZ"
            }
        },
        {
            "type": "Feature",
            "geometry": {
                "type": "Point",
                "coordinates": [
                    21.97989,
                    51.44685
                ]
            },
            "properties": {
                "name": "Medical"
            }
        },
        {
            "type": "Feature",
            "geometry": {
                "type": "Point",
                "coordinates": [
                    21.97457,
                    51.42162
                ]
            },
            "properties": {
                "name": "Szpital Miejski"
            }
        },
        {
            "type": "Feature",
            "geometry": {
                "type": "Point",
                "coordinates": [
                    22.3146063,
                    51.5236934
                ]
            },
            "properties": {
                "name": "ZOZ"
            }
        },
        {
            "type": "Feature",
            "geometry": {
                "type": "Point",
                "coordinates": [
                    22.4627088,
                    51.4695842
                ]
            },
            "properties": {
                "name": "NZOZ"
            }
        },
        {
            "type": "Feature",
            "geometry": {
                "type": "Point",
                "coordinates": [
                    21.9324003,
                    51.5486819
                ]
            },
            "properties": {
                "name": "centrum medyczne"
            }
        },
        {
            "type": "Feature",
            "geometry": {
                "type": "Point",
                "coordinates": [
                    22.1355878,
                    51.5566859
                ]
            },
            "properties": {
                "name": "SPZOZ"
            }
        },
        {
            "type": "Feature",
            "geometry": {
                "type": "Point",
                "coordinates": [
                    22.069691,
                    50.5634128
                ]
            }
        },
        {
            "type": "Feature",
            "geometry": {
                "type": "Point",
                "coordinates": [
                    21.1210541,
                    52.0766306
                ]
            },
            "properties": {
                "name": "Szpital Rehabilitacji Kardiologicznej"
            }
        },
        {
            "type": "Feature",
            "geometry": {
                "type": "Point",
                "coordinates": [
                    21.113219,
                    52.0790868
                ]
            },
            "properties": {
                "name": "Instytut Reumatologii"
            }
        },
        {
            "type": "Feature",
            "geometry": {
                "type": "Point",
                "coordinates": [
                    20.6032045,
                    50.8712436
                ]
            },
            "properties": {
                "name": "Przychodnia Sportowa"
            }
        },
        {
            "type": "Feature",
            "geometry": {
                "type": "Point",
                "coordinates": [
                    20.6236962,
                    50.8671237
                ]
            },
            "properties": {
                "name": "Szpital MSWiA"
            }
        },
        {
            "type": "Feature",
            "geometry": {
                "type": "Point",
                "coordinates": [
                    20.5985266,
                    50.8720267
                ]
            },
            "properties": {
                "name": "\u015awi\u0119tokrzyskie Centrum Onkologii"
            }
        },
        {
            "type": "Feature",
            "geometry": {
                "type": "Point",
                "coordinates": [
                    20.63546,
                    50.86232
                ]
            },
            "properties": {
                "name": "\u015awi\u0119tokrzyskie Centrum Matki i Noworodka"
            }
        },
        {
            "type": "Feature",
            "geometry": {
                "type": "Point",
                "coordinates": [
                    19.409076,
                    50.4766668
                ]
            },
            "properties": {
                "name": "Pogotowie Ratunkowe"
            }
        },
        {
            "type": "Feature",
            "geometry": {
                "type": "Point",
                "coordinates": [
                    19.4422233,
                    51.781649
                ]
            }
        },
        {
            "type": "Feature",
            "geometry": {
                "type": "Point",
                "coordinates": [
                    19.7491148,
                    53.5063767
                ]
            },
            "properties": {
                "name": "Niepubliczny Zak\u0142ad Opieki D\u0142ugoterminowej pw. \"Szpital \u015bw. Jerzego\""
            }
        },
        {
            "type": "Feature",
            "geometry": {
                "type": "Point",
                "coordinates": [
                    19.9451864,
                    50.0475227
                ]
            },
            "properties": {
                "name": "Szpital Zakonu Bonifratr\u00f3w \u015awi\u0119tego Jana Grandego"
            }
        },
        {
            "type": "Feature",
            "geometry": {
                "type": "Point",
                "coordinates": [
                    16.898479,
                    51.1415427
                ]
            },
            "properties": {
                "name": "O\u015brodek Chirurgii Ma\u0142oinwazyjnej i Endoskopowej"
            }
        },
        {
            "type": "Feature",
            "geometry": {
                "type": "Point",
                "coordinates": [
                    20.61835,
                    52.87587
                ]
            },
            "properties": {
                "name": "Poliklinika MSWiA"
            }
        },
        {
            "type": "Feature",
            "geometry": {
                "type": "Point",
                "coordinates": [
                    19.58645,
                    53.42424
                ]
            },
            "properties": {
                "name": "Szpital Powiatowy"
            }
        },
        {
            "type": "Feature",
            "geometry": {
                "type": "Point",
                "coordinates": [
                    20.43298,
                    53.35986
                ]
            },
            "properties": {
                "name": "Szpital Zespo\u0142u Opieki Zdrowotnej"
            }
        },
        {
            "type": "Feature",
            "geometry": {
                "type": "Point",
                "coordinates": [
                    19.39497,
                    53.26178
                ]
            },
            "properties": {
                "name": "Szpital Powiatowy"
            }
        },
        {
            "type": "Feature",
            "geometry": {
                "type": "Point",
                "coordinates": [
                    21.95201,
                    51.3205
                ]
            },
            "properties": {
                "name": "Przychodnia"
            }
        },
        {
            "type": "Feature",
            "geometry": {
                "type": "Point",
                "coordinates": [
                    21.8913027,
                    51.325067
                ]
            },
            "properties": {
                "name": "Gminny O\u015brodek Zdrowia"
            }
        },
        {
            "type": "Feature",
            "geometry": {
                "type": "Point",
                "coordinates": [
                    20.3768854,
                    52.6300848
                ]
            },
            "properties": {
                "name": "Szpital"
            }
        },
        {
            "type": "Feature",
            "geometry": {
                "type": "Point",
                "coordinates": [
                    18.5426451,
                    54.5222902
                ]
            },
            "properties": {
                "name": "Szpital Miejski"
            }
        },
        {
            "type": "Feature",
            "geometry": {
                "type": "Point",
                "coordinates": [
                    19.5006064,
                    51.6007565
                ]
            },
            "properties": {
                "name": "Szpital Tuszyn"
            }
        },
        {
            "type": "Feature",
            "geometry": {
                "type": "Point",
                "coordinates": [
                    21.011937,
                    52.2259293
                ]
            },
            "properties": {
                "name": "Wojew\u00f3dzka Stacja Pogotowia Ratunkowego"
            }
        },
        {
            "type": "Feature",
            "geometry": {
                "type": "Point",
                "coordinates": [
                    20.4801971,
                    53.770573
                ]
            },
            "properties": {
                "name": "Szpital Miejski"
            }
        },
        {
            "type": "Feature",
            "geometry": {
                "type": "Point",
                "coordinates": [
                    20.6478665,
                    52.0065483
                ]
            },
            "properties": {
                "name": "Wojew\u00f3dzki Zesp\u00f3\u0142 Publicznych Zak\u0142ad\u00f3w Psychiarycznej Opieki Zdrowotnej Warszawa. Oddzia\u0142 Rehabilitacyjny Grzmi\u0105ca"
            }
        },
        {
            "type": "Feature",
            "geometry": {
                "type": "Point",
                "coordinates": [
                    21.7657132,
                    49.6842315
                ]
            },
            "properties": {
                "name": "Pogotowie Ratunkowe"
            }
        },
        {
            "type": "Feature",
            "geometry": {
                "type": "Point",
                "coordinates": [
                    21.9724,
                    50.03464
                ]
            },
            "properties": {
                "name": "Orisdent"
            }
        },
        {
            "type": "Feature",
            "geometry": {
                "type": "Point",
                "coordinates": [
                    22.33332,
                    50.32788
                ]
            },
            "properties": {
                "name": "Przychodnia nr2"
            }
        },
        {
            "type": "Feature",
            "geometry": {
                "type": "Point",
                "coordinates": [
                    20.8905014,
                    50.1322996
                ]
            },
            "properties": {
                "name": "Miejska Przychodnia Rejonowa"
            }
        },
        {
            "type": "Feature",
            "geometry": {
                "type": "Point",
                "coordinates": [
                    20.5900905,
                    49.9691582
                ]
            },
            "properties": {
                "name": "Szpital Powiatowy"
            }
        },
        {
            "type": "Feature",
            "geometry": {
                "type": "Point",
                "coordinates": [
                    20.91835,
                    50.0141
                ]
            },
            "properties": {
                "name": "Mo\u015bcickie Centrum Medyczne SPZOZ"
            }
        },
        {
            "type": "Feature",
            "geometry": {
                "type": "Point",
                "coordinates": [
                    20.99451,
                    50.01695
                ]
            },
            "properties": {
                "name": "Szpital Specjalistyczny im. Szczeklika"
            }
        },
        {
            "type": "Feature",
            "geometry": {
                "type": "Point",
                "coordinates": [
                    21.03298,
                    50.01317
                ]
            },
            "properties": {
                "name": "Szpital \u015awi\u0119tego \u0141ukasza"
            }
        },
        {
            "type": "Feature",
            "geometry": {
                "type": "Point",
                "coordinates": [
                    18.9472744,
                    53.2754983
                ]
            },
            "properties": {
                "name": "Szpital Powiatowy"
            }
        },
        {
            "type": "Feature",
            "geometry": {
                "type": "Point",
                "coordinates": [
                    18.76474,
                    53.48923
                ]
            },
            "properties": {
                "name": "O\u015brodek Zdrowia"
            }
        },
        {
            "type": "Feature",
            "geometry": {
                "type": "Point",
                "coordinates": [
                    17.91089,
                    53.09497
                ]
            },
            "properties": {
                "name": "Centum Medyczne IKAR"
            }
        },
        {
            "type": "Feature",
            "geometry": {
                "type": "Point",
                "coordinates": [
                    18.111707,
                    53.1452159
                ]
            },
            "properties": {
                "name": "Dom Sue Ryder"
            }
        },
        {
            "type": "Feature",
            "geometry": {
                "type": "Point",
                "coordinates": [
                    18.4563859,
                    53.4071214
                ]
            },
            "properties": {
                "name": "Wojew\u00f3dzki Szpital dla Nerwowo i Psychicznie Chorych"
            }
        },
        {
            "type": "Feature",
            "geometry": {
                "type": "Point",
                "coordinates": [
                    16.5571176,
                    52.8974487
                ]
            },
            "properties": {
                "name": "Szpital Powiatowy w Czarnkowie"
            }
        },
        {
            "type": "Feature",
            "geometry": {
                "type": "Point",
                "coordinates": [
                    16.4688714,
                    50.8317197
                ]
            },
            "properties": {
                "name": "Latawiec"
            }
        },
        {
            "type": "Feature",
            "geometry": {
                "type": "Point",
                "coordinates": [
                    22.1259386,
                    50.3728284
                ]
            },
            "properties": {
                "name": "Przychodnia Lekarska"
            }
        },
        {
            "type": "Feature",
            "geometry": {
                "type": "Point",
                "coordinates": [
                    19.9734216,
                    51.4707775
                ]
            },
            "properties": {
                "name": "WOPR"
            }
        },
        {
            "type": "Feature",
            "geometry": {
                "type": "Point",
                "coordinates": [
                    20.0045422,
                    51.5230159
                ]
            },
            "properties": {
                "name": "Pogotowie ratunkowe"
            }
        },
        {
            "type": "Feature",
            "geometry": {
                "type": "Point",
                "coordinates": [
                    20.0047223,
                    51.5230416
                ]
            },
            "properties": {
                "name": "Ambulatorium"
            }
        },
        {
            "type": "Feature",
            "geometry": {
                "type": "Point",
                "coordinates": [
                    20.0049268,
                    51.5232244
                ]
            },
            "properties": {
                "name": "Tomaszowskie Centrum Zdrowia"
            }
        },
        {
            "type": "Feature",
            "geometry": {
                "type": "Point",
                "coordinates": [
                    20.0063087,
                    51.5224642
                ]
            },
            "properties": {
                "name": "Oddzia\u0142 zaka\u017any"
            }
        },
        {
            "type": "Feature",
            "geometry": {
                "type": "Point",
                "coordinates": [
                    21.9893042,
                    50.6193134
                ]
            },
            "properties": {
                "name": "Przychodnia Lekarska w Turbi"
            }
        },
        {
            "type": "Feature",
            "geometry": {
                "type": "Point",
                "coordinates": [
                    16.6478717,
                    52.0850951
                ]
            }
        },
        {
            "type": "Feature",
            "geometry": {
                "type": "Point",
                "coordinates": [
                    20.064876,
                    49.9831615
                ]
            },
            "properties": {
                "name": "SP Zesp\u00f3\u0142 Lecznictwa Otwartego w Wieliczce"
            }
        },
        {
            "type": "Feature",
            "geometry": {
                "type": "Point",
                "coordinates": [
                    15.9967731,
                    50.7079054
                ]
            }
        },
        {
            "type": "Feature",
            "geometry": {
                "type": "Point",
                "coordinates": [
                    21.1619603,
                    51.3912981
                ]
            },
            "properties": {
                "name": "Przychodnia"
            }
        },
        {
            "type": "Feature",
            "geometry": {
                "type": "Point",
                "coordinates": [
                    21.172656,
                    51.3886569
                ]
            },
            "properties": {
                "name": "Gabinet dentystyczny"
            }
        },
        {
            "type": "Feature",
            "geometry": {
                "type": "Point",
                "coordinates": [
                    19.2854643,
                    51.9673445
                ]
            },
            "properties": {
                "name": "Miejska Przychodnia Zdrowia w Ozorkowie"
            }
        },
        {
            "type": "Feature",
            "geometry": {
                "type": "Point",
                "coordinates": [
                    19.2849648,
                    51.958614
                ]
            },
            "properties": {
                "name": "Niepubliczny Zak\u0142ad Opieki Zdrowotnej MEDYK"
            }
        },
        {
            "type": "Feature",
            "geometry": {
                "type": "Point",
                "coordinates": [
                    14.7268822,
                    51.9455696
                ]
            },
            "properties": {
                "name": "Szpital"
            }
        },
        {
            "type": "Feature",
            "geometry": {
                "type": "Point",
                "coordinates": [
                    16.7174424,
                    53.1523811
                ]
            },
            "properties": {
                "name": "NZOZ Ars-Medical"
            }
        },
        {
            "type": "Feature",
            "geometry": {
                "type": "Point",
                "coordinates": [
                    18.2639346,
                    52.2268072
                ]
            },
            "properties": {
                "name": "Wojew\u00f3dzki Szpital Zespolony"
            }
        },
        {
            "type": "Feature",
            "geometry": {
                "type": "Point",
                "coordinates": [
                    15.0370675,
                    53.3432488
                ]
            },
            "properties": {
                "name": "Szpital Miejski"
            }
        },
        {
            "type": "Feature",
            "geometry": {
                "type": "Point",
                "coordinates": [
                    15.0414878,
                    53.3324609
                ]
            }
        },
        {
            "type": "Feature",
            "geometry": {
                "type": "Point",
                "coordinates": [
                    15.9720534,
                    54.0068198
                ]
            },
            "properties": {
                "name": "Szpital Powiatowy"
            }
        },
        {
            "type": "Feature",
            "geometry": {
                "type": "Point",
                "coordinates": [
                    16.0074393,
                    54.0073791
                ]
            },
            "properties": {
                "name": "Centrum Rehabilitacji"
            }
        },
        {
            "type": "Feature",
            "geometry": {
                "type": "Point",
                "coordinates": [
                    22.1061643,
                    50.602445
                ]
            },
            "properties": {
                "name": "O\u015brodek Zdrowia"
            }
        },
        {
            "type": "Feature",
            "geometry": {
                "type": "Point",
                "coordinates": [
                    19.7336997,
                    51.9568798
                ]
            },
            "properties": {
                "name": "Centrum Medyczne WSInf"
            }
        },
        {
            "type": "Feature",
            "geometry": {
                "type": "Point",
                "coordinates": [
                    17.9533544,
                    50.6524852
                ]
            }
        },
        {
            "type": "Feature",
            "geometry": {
                "type": "Point",
                "coordinates": [
                    16.3929485,
                    50.3999951
                ]
            }
        },
        {
            "type": "Feature",
            "geometry": {
                "type": "Point",
                "coordinates": [
                    17.034072,
                    51.1570129
                ]
            },
            "properties": {
                "name": "Wojew\u00f3dzki Szpital Specjalistyczny Zamiejscowy Oddzia\u0142 Rehabilitacji"
            }
        },
        {
            "type": "Feature",
            "geometry": {
                "type": "Point",
                "coordinates": [
                    18.5659864,
                    54.4446093
                ]
            },
            "properties": {
                "name": "Blikpol"
            }
        },
        {
            "type": "Feature",
            "geometry": {
                "type": "Point",
                "coordinates": [
                    19.1726951,
                    50.7893619
                ]
            },
            "properties": {
                "name": "Szpital Chor\u00f3b Wewn\u0119trznych"
            }
        },
        {
            "type": "Feature",
            "geometry": {
                "type": "Point",
                "coordinates": [
                    18.2099461,
                    50.3459479
                ]
            }
        },
        {
            "type": "Feature",
            "geometry": {
                "type": "Point",
                "coordinates": [
                    18.9419332,
                    51.6044678
                ]
            }
        },
        {
            "type": "Feature",
            "geometry": {
                "type": "Point",
                "coordinates": [
                    17.9491743,
                    53.1855762
                ]
            },
            "properties": {
                "name": "Kujawsko-Pomorskie Centrum Pulmonologii Oddzia\u0142 Smuka\u0142a"
            }
        },
        {
            "type": "Feature",
            "geometry": {
                "type": "Point",
                "coordinates": [
                    22.4783923,
                    50.0647545
                ]
            },
            "properties": {
                "name": "Samodzielny Publiczny Zak\u0142ad Opieki Zdrowotnej im. Henryka Jankowskiego"
            }
        },
        {
            "type": "Feature",
            "geometry": {
                "type": "Point",
                "coordinates": [
                    22.4701463,
                    53.6461877
                ]
            },
            "properties": {
                "name": "Szpital Og\u00f3lny im. W. Ginela"
            }
        },
        {
            "type": "Feature",
            "geometry": {
                "type": "Point",
                "coordinates": [
                    20.0358707,
                    49.9496071
                ]
            },
            "properties": {
                "name": "NZOZ  \u201eZdrowie\""
            }
        },
        {
            "type": "Feature",
            "geometry": {
                "type": "Point",
                "coordinates": [
                    18.6253612,
                    54.3759442
                ]
            },
            "properties": {
                "name": "Samodzielny Publiczny Szpital Kliniczny nr 2"
            }
        },
        {
            "type": "Feature",
            "geometry": {
                "type": "Point",
                "coordinates": [
                    20.5648603,
                    51.6161131
                ]
            }
        },
        {
            "type": "Feature",
            "geometry": {
                "type": "Point",
                "coordinates": [
                    22.0686196,
                    53.1759565
                ]
            },
            "properties": {
                "name": "Wojew\u00f3dzka Przychodnia Chor\u00f3b P\u0142uc i Gru\u017alicy"
            }
        },
        {
            "type": "Feature",
            "geometry": {
                "type": "Point",
                "coordinates": [
                    22.0851819,
                    53.160484
                ]
            },
            "properties": {
                "name": "Wojew\u00f3dzki Szpital w \u0141om\u017cy im. kard. Stefana Wyszy\u0144skiego"
            }
        },
        {
            "type": "Feature",
            "geometry": {
                "type": "Point",
                "coordinates": [
                    22.084333,
                    53.181324
                ]
            },
            "properties": {
                "name": "Wojew\u00f3dzki O\u015brodek Profilaktyki i Terapii Uzale\u017cnie\u0144"
            }
        },
        {
            "type": "Feature",
            "geometry": {
                "type": "Point",
                "coordinates": [
                    16.8160978,
                    52.6533271
                ]
            },
            "properties": {
                "name": "Szpital powiatowy w Obornikach"
            }
        },
        {
            "type": "Feature",
            "geometry": {
                "type": "Point",
                "coordinates": [
                    17.5046169,
                    51.9695456
                ]
            },
            "properties": {
                "name": "Szpital Powiatowy w Jarocinie"
            }
        },
        {
            "type": "Feature",
            "geometry": {
                "type": "Point",
                "coordinates": [
                    16.679213,
                    54.3692832
                ]
            }
        },
        {
            "type": "Feature",
            "geometry": {
                "type": "Point",
                "coordinates": [
                    19.3299671,
                    51.6521762
                ]
            },
            "properties": {
                "name": "Pabianickie Centrum Medyczne (szpital powiatowy)"
            }
        },
        {
            "type": "Feature",
            "geometry": {
                "type": "Point",
                "coordinates": [
                    16.9036416,
                    51.4641944
                ]
            },
            "properties": {
                "name": "Szpital Rehabilitacyjny"
            }
        },
        {
            "type": "Feature",
            "geometry": {
                "type": "Point",
                "coordinates": [
                    17.2313872,
                    52.0617418
                ]
            },
            "properties": {
                "name": "O\u015brodek Zdrowia \"BELLUS\""
            }
        },
        {
            "type": "Feature",
            "geometry": {
                "type": "Point",
                "coordinates": [
                    18.9538333,
                    51.8887953
                ]
            },
            "properties": {
                "name": "Podd\u0119bickie Centrum Zdrowia"
            }
        },
        {
            "type": "Feature",
            "geometry": {
                "type": "Point",
                "coordinates": [
                    16.9067434,
                    51.4730025
                ]
            },
            "properties": {
                "name": "O\u015brodek Zdrowia w \u017bmigrodzie"
            }
        },
        {
            "type": "Feature",
            "geometry": {
                "type": "Point",
                "coordinates": [
                    19.1329947,
                    50.2470273
                ]
            },
            "properties": {
                "name": "Szpital Miejski nr 2"
            }
        },
        {
            "type": "Feature",
            "geometry": {
                "type": "Point",
                "coordinates": [
                    15.4124547,
                    53.165603
                ]
            },
            "properties": {
                "name": "SP ZOZ Choszczno"
            }
        },
        {
            "type": "Feature",
            "geometry": {
                "type": "Point",
                "coordinates": [
                    20.9029589,
                    51.4678962
                ]
            }
        },
        {
            "type": "Feature",
            "geometry": {
                "type": "Point",
                "coordinates": [
                    19.4256193,
                    54.1555686
                ]
            },
            "properties": {
                "name": "Szpital Wojskowy"
            }
        },
        {
            "type": "Feature",
            "geometry": {
                "type": "Point",
                "coordinates": [
                    19.0265932,
                    50.2546733
                ]
            },
            "properties": {
                "name": "Oddzia\u0142 Hematologii i Transplantacji Szpiku"
            }
        },
        {
            "type": "Feature",
            "geometry": {
                "type": "Point",
                "coordinates": [
                    20.1724477,
                    50.0111552
                ]
            },
            "properties": {
                "name": "O\u015brodek Zdrowia"
            }
        },
        {
            "type": "Feature",
            "geometry": {
                "type": "Point",
                "coordinates": [
                    19.6836269,
                    50.7741249
                ]
            }
        },
        {
            "type": "Feature",
            "geometry": {
                "type": "Point",
                "coordinates": [
                    20.5987089,
                    50.8710382
                ]
            },
            "properties": {
                "name": "Wojew\u00f3dzki Specjalistyczny Szpital Dzieci\u0119cy"
            }
        },
        {
            "type": "Feature",
            "geometry": {
                "type": "Point",
                "coordinates": [
                    23.3496152,
                    53.6575616
                ]
            }
        },
        {
            "type": "Feature",
            "geometry": {
                "type": "Point",
                "coordinates": [
                    18.5485254,
                    54.4877403
                ]
            },
            "properties": {
                "name": "Uniwersyteckie Centrum Medycyny Morskiej i Tropikalnej"
            }
        },
        {
            "type": "Feature",
            "geometry": {
                "type": "Point",
                "coordinates": [
                    17.0590751,
                    51.3196519
                ]
            },
            "properties": {
                "name": "Szpital im. \u015bw. Jadwigi \u015al\u0105skiej"
            }
        },
        {
            "type": "Feature",
            "geometry": {
                "type": "Point",
                "coordinates": [
                    21.8952466,
                    50.6505807
                ]
            },
            "properties": {
                "name": "O\u015brodek Zdrowia"
            }
        },
        {
            "type": "Feature",
            "geometry": {
                "type": "Point",
                "coordinates": [
                    21.1896466,
                    52.4145399
                ]
            },
            "properties": {
                "name": "Centrum Medyczne im. Bitwy Warszawskiej 1920 roku"
            }
        },
        {
            "type": "Feature",
            "geometry": {
                "type": "Point",
                "coordinates": [
                    20.5947157,
                    49.5758323
                ]
            },
            "properties": {
                "name": "Gminny O\u015brodek Zdrowia"
            }
        },
        {
            "type": "Feature",
            "geometry": {
                "type": "Point",
                "coordinates": [
                    18.3797748,
                    49.9607362
                ]
            },
            "properties": {
                "name": "Wojew\u00f3dzki O\u015brodek Leczenia Odwykowego"
            }
        },
        {
            "type": "Feature",
            "geometry": {
                "type": "Point",
                "coordinates": [
                    23.8576459,
                    52.7035988
                ]
            }
        },
        {
            "type": "Feature",
            "geometry": {
                "type": "Point",
                "coordinates": [
                    17.0099754,
                    52.3639712
                ]
            },
            "properties": {
                "name": "Przychodnia rodzinna Szczepankowo-Sp\u0142awie"
            }
        },
        {
            "type": "Feature",
            "geometry": {
                "type": "Point",
                "coordinates": [
                    17.0028234,
                    50.4631132
                ]
            }
        },
        {
            "type": "Feature",
            "geometry": {
                "type": "Point",
                "coordinates": [
                    22.9777551,
                    50.6931511
                ]
            },
            "properties": {
                "name": "Szpital publiczny"
            }
        },
        {
            "type": "Feature",
            "geometry": {
                "type": "Point",
                "coordinates": [
                    19.0328129,
                    50.2516874
                ]
            },
            "properties": {
                "name": "Wojew\u00f3dzkie Pogotowie Ratunkowe w Katowicach - Dyrekcja"
            }
        },
        {
            "type": "Feature",
            "geometry": {
                "type": "Point",
                "coordinates": [
                    20.192647,
                    53.241818
                ]
            },
            "properties": {
                "name": "Szpital Pa\u0144stwowy w Dzia\u0142dowie"
            }
        },
        {
            "type": "Feature",
            "geometry": {
                "type": "Point",
                "coordinates": [
                    19.3703428,
                    50.00995
                ]
            },
            "properties": {
                "name": "O\u015brodek Zdrowia"
            }
        },
        {
            "type": "Feature",
            "geometry": {
                "type": "Point",
                "coordinates": [
                    16.9831811,
                    54.0127456
                ]
            },
            "properties": {
                "name": "Szpital Miejski w Miastku"
            }
        },
        {
            "type": "Feature",
            "geometry": {
                "type": "Point",
                "coordinates": [
                    19.4286599,
                    50.1360772
                ]
            },
            "properties": {
                "name": "Szpitalny Oddzia\u0142 Ratunkowy"
            }
        },
        {
            "type": "Feature",
            "geometry": {
                "type": "Point",
                "coordinates": [
                    22.3854861,
                    53.1919407
                ]
            }
        },
        {
            "type": "Feature",
            "geometry": {
                "type": "Point",
                "coordinates": [
                    20.5574697,
                    49.6777066
                ]
            },
            "properties": {
                "name": "NZOZ M\u0119cina (O\u015brodek Zdrowia)"
            }
        },
        {
            "type": "Feature",
            "geometry": {
                "type": "Point",
                "coordinates": [
                    18.7170555,
                    50.5304106
                ]
            },
            "properties": {
                "name": "Przychodnia NFZ"
            }
        },
        {
            "type": "Feature",
            "geometry": {
                "type": "Point",
                "coordinates": [
                    21.7275947,
                    53.3869616
                ]
            },
            "properties": {
                "name": "Gminne Centrum Medyczne"
            }
        },
        {
            "type": "Feature",
            "geometry": {
                "type": "Point",
                "coordinates": [
                    21.2477217,
                    51.3118392
                ]
            },
            "properties": {
                "name": "Przychodnia w Skaryszewie"
            }
        },
        {
            "type": "Feature",
            "geometry": {
                "type": "Point",
                "coordinates": [
                    15.9867407,
                    53.505311
                ]
            },
            "properties": {
                "name": "ZOZ Szpital Specjalistyczny MSWiA"
            }
        },
        {
            "type": "Feature",
            "geometry": {
                "type": "Point",
                "coordinates": [
                    22.2997998,
                    53.2851971
                ]
            },
            "properties": {
                "name": "Zak\u0142ad Opieki Zdrowotnej"
            }
        },
        {
            "type": "Feature",
            "geometry": {
                "type": "Point",
                "coordinates": [
                    21.928145,
                    50.6347186
                ]
            },
            "properties": {
                "name": "O\u015brodek Zdrowia"
            }
        },
        {
            "type": "Feature",
            "geometry": {
                "type": "Point",
                "coordinates": [
                    20.8995611,
                    52.009758
                ]
            }
        },
        {
            "type": "Feature",
            "geometry": {
                "type": "Point",
                "coordinates": [
                    20.8369344,
                    51.9857018
                ]
            },
            "properties": {
                "name": "Tarczy\u0144skie Centrum Medyczne"
            }
        },
        {
            "type": "Feature",
            "geometry": {
                "type": "Point",
                "coordinates": [
                    17.8854341,
                    50.8037444
                ]
            }
        },
        {
            "type": "Feature",
            "geometry": {
                "type": "Point",
                "coordinates": [
                    19.2401313,
                    50.2916774
                ]
            },
            "properties": {
                "name": "Przychodnia Rejonowa"
            }
        },
        {
            "type": "Feature",
            "geometry": {
                "type": "Point",
                "coordinates": [
                    20.47034,
                    53.7728627
                ]
            },
            "properties": {
                "name": "Uniwersytecki Szpital Kliniczny"
            }
        },
        {
            "type": "Feature",
            "geometry": {
                "type": "Point",
                "coordinates": [
                    20.3816521,
                    52.1627999
                ]
            },
            "properties": {
                "name": "Przychodnia zdrowia"
            }
        },
        {
            "type": "Feature",
            "geometry": {
                "type": "Point",
                "coordinates": [
                    20.4283049,
                    53.7634685
                ]
            },
            "properties": {
                "name": "Centrum Rehabilitacji i Wsparcia"
            }
        },
        {
            "type": "Feature",
            "geometry": {
                "type": "Point",
                "coordinates": [
                    18.6105486,
                    53.1872391
                ]
            },
            "properties": {
                "name": "Szpital Powiatowy Sp. z o.o."
            }
        },
        {
            "type": "Feature",
            "geometry": {
                "type": "Point",
                "coordinates": [
                    19.0346444,
                    50.3264443
                ]
            },
            "properties": {
                "name": "Sana.pl"
            }
        },
        {
            "type": "Feature",
            "geometry": {
                "type": "Point",
                "coordinates": [
                    17.9224407,
                    53.9058895
                ]
            },
            "properties": {
                "name": "O\u015brodek zdrowia"
            }
        },
        {
            "type": "Feature",
            "geometry": {
                "type": "Point",
                "coordinates": [
                    18.0132469,
                    53.0292123
                ]
            }
        },
        {
            "type": "Feature",
            "geometry": {
                "type": "Point",
                "coordinates": [
                    20.0386859,
                    50.5600065
                ]
            },
            "properties": {
                "name": "Niepubliczna Przychodnia Eskulap"
            }
        },
        {
            "type": "Feature",
            "geometry": {
                "type": "Point",
                "coordinates": [
                    19.0120758,
                    49.7086132
                ]
            },
            "properties": {
                "name": "GOPR - Centrala Beskidzkie Grupy GOPR"
            }
        },
        {
            "type": "Feature",
            "geometry": {
                "type": "Point",
                "coordinates": [
                    18.88398,
                    50.5659918
                ]
            },
            "properties": {
                "name": "Pogotowie ratunkowe"
            }
        },
        {
            "type": "Feature",
            "geometry": {
                "type": "Point",
                "coordinates": [
                    18.8876975,
                    50.566095
                ]
            },
            "properties": {
                "name": "O\u015brodek Zdrowia \"ESKULAP\""
            }
        },
        {
            "type": "Feature",
            "geometry": {
                "type": "Point",
                "coordinates": [
                    18.8819937,
                    50.562861
                ]
            }
        },
        {
            "type": "Feature",
            "geometry": {
                "type": "Point",
                "coordinates": [
                    18.5997021,
                    54.3298997
                ]
            },
            "properties": {
                "name": "Przychodnia Nowy Che\u0142m"
            }
        },
        {
            "type": "Feature",
            "geometry": {
                "type": "Point",
                "coordinates": [
                    18.6066568,
                    54.3259163
                ]
            }
        },
        {
            "type": "Feature",
            "geometry": {
                "type": "Point",
                "coordinates": [
                    17.983408,
                    51.2770485
                ]
            }
        },
        {
            "type": "Feature",
            "geometry": {
                "type": "Point",
                "coordinates": [
                    16.6587743,
                    50.7286283
                ]
            },
            "properties": {
                "name": "Szpital Powiatowy"
            }
        },
        {
            "type": "Feature",
            "geometry": {
                "type": "Point",
                "coordinates": [
                    20.7979238,
                    52.5936635
                ]
            },
            "properties": {
                "name": "O\u015brodek Zdrowia"
            }
        },
        {
            "type": "Feature",
            "geometry": {
                "type": "Point",
                "coordinates": [
                    16.0773736,
                    51.6558592
                ]
            },
            "properties": {
                "name": "Szpital imienia Jana Paw\u0142a II"
            }
        },
        {
            "type": "Feature",
            "geometry": {
                "type": "Point",
                "coordinates": [
                    21.7002154,
                    50.0692785
                ]
            },
            "properties": {
                "name": "Szpital Powiatowy w S\u0119dziszowie Ma\u0142opolskim"
            }
        },
        {
            "type": "Feature",
            "geometry": {
                "type": "Point",
                "coordinates": [
                    16.0811178,
                    51.6544683
                ]
            }
        },
        {
            "type": "Feature",
            "geometry": {
                "type": "Point",
                "coordinates": [
                    15.568447,
                    54.1740735
                ]
            },
            "properties": {
                "name": "Regionalny szpital w Ko\u0142obrzegu"
            }
        },
        {
            "type": "Feature",
            "geometry": {
                "type": "Point",
                "coordinates": [
                    21.1047143,
                    52.3210322
                ]
            },
            "properties": {
                "name": "Niepubliczny Zak\u0142ad Opieki Zdrowotnej Esculap Sp. z o.o."
            }
        },
        {
            "type": "Feature",
            "geometry": {
                "type": "Point",
                "coordinates": [
                    18.5083426,
                    53.9673503
                ]
            },
            "properties": {
                "name": "Szpital w Starogardzie Gda\u0144skim"
            }
        },
        {
            "type": "Feature",
            "geometry": {
                "type": "Point",
                "coordinates": [
                    18.8503486,
                    50.3683243
                ]
            },
            "properties": {
                "name": "Klinika chirurgii plastycznej Aesthete"
            }
        },
        {
            "type": "Feature",
            "geometry": {
                "type": "Point",
                "coordinates": [
                    20.7251178,
                    51.6904564
                ]
            },
            "properties": {
                "name": "Przychodnia"
            }
        },
        {
            "type": "Feature",
            "geometry": {
                "type": "Point",
                "coordinates": [
                    14.9763436,
                    53.0039047
                ]
            }
        },
        {
            "type": "Feature",
            "geometry": {
                "type": "Point",
                "coordinates": [
                    14.5169493,
                    53.4330276
                ]
            }
        },
        {
            "type": "Feature",
            "geometry": {
                "type": "Point",
                "coordinates": [
                    20.9574038,
                    53.8659798
                ]
            }
        },
        {
            "type": "Feature",
            "geometry": {
                "type": "Point",
                "coordinates": [
                    18.5842685,
                    49.9474524
                ]
            },
            "properties": {
                "name": "Wojew\u00f3dzki Szpital Specjalistyczny nr 2"
            }
        },
        {
            "type": "Feature",
            "geometry": {
                "type": "Point",
                "coordinates": [
                    18.8124896,
                    49.8954396
                ]
            },
            "properties": {
                "name": "NZOZ"
            }
        },
        {
            "type": "Feature",
            "geometry": {
                "type": "Point",
                "coordinates": [
                    21.3811401,
                    51.376821
                ]
            },
            "properties": {
                "name": "O\u015brodek Zdrowia w Go\u017adzie"
            }
        },
        {
            "type": "Feature",
            "geometry": {
                "type": "Point",
                "coordinates": [
                    17.9841846,
                    51.2763088
                ]
            },
            "properties": {
                "name": "Pracownia Fizjoterapii"
            }
        },
        {
            "type": "Feature",
            "geometry": {
                "type": "Point",
                "coordinates": [
                    15.1198374,
                    52.4379759
                ]
            },
            "properties": {
                "name": "Przychodnia Rodzinna"
            }
        },
        {
            "type": "Feature",
            "geometry": {
                "type": "Point",
                "coordinates": [
                    16.3230552,
                    51.805183
                ]
            },
            "properties": {
                "name": "Nowy Szpital"
            }
        },
        {
            "type": "Feature",
            "geometry": {
                "type": "Point",
                "coordinates": [
                    16.1049689,
                    50.9231984
                ]
            },
            "properties": {
                "name": "O\u015brodek Zdrowia w Bolkowie"
            }
        },
        {
            "type": "Feature",
            "geometry": {
                "type": "Point",
                "coordinates": [
                    16.1062185,
                    50.9200636
                ]
            }
        },
        {
            "type": "Feature",
            "geometry": {
                "type": "Point",
                "coordinates": [
                    16.1989753,
                    51.0499729
                ]
            },
            "properties": {
                "name": "Przychodnia Rejonowa"
            }
        },
        {
            "type": "Feature",
            "geometry": {
                "type": "Point",
                "coordinates": [
                    18.5720605,
                    49.947309
                ]
            },
            "properties": {
                "name": "Wojew\u00f3dzki Szpital Rehabilitacyjny dla Dzieci"
            }
        },
        {
            "type": "Feature",
            "geometry": {
                "type": "Point",
                "coordinates": [
                    21.9749842,
                    51.1510899
                ]
            },
            "properties": {
                "name": "Szpital w Opolu Lubelskim"
            }
        },
        {
            "type": "Feature",
            "geometry": {
                "type": "Point",
                "coordinates": [
                    19.13985,
                    49.8827307
                ]
            },
            "properties": {
                "name": "Przychodnia w Pisarzowicach"
            }
        },
        {
            "type": "Feature",
            "geometry": {
                "type": "Point",
                "coordinates": [
                    17.5929105,
                    50.4883447
                ]
            },
            "properties": {
                "name": "Opolskie Centrum Rehabilitacji"
            }
        },
        {
            "type": "Feature",
            "geometry": {
                "type": "Point",
                "coordinates": [
                    20.2665569,
                    49.4619323
                ]
            },
            "properties": {
                "name": "O\u015brodek Zdrowia"
            }
        },
        {
            "type": "Feature",
            "geometry": {
                "type": "Point",
                "coordinates": [
                    20.7318593,
                    53.5303718
                ]
            }
        },
        {
            "type": "Feature",
            "geometry": {
                "type": "Point",
                "coordinates": [
                    21.4340924,
                    51.4668255
                ]
            },
            "properties": {
                "name": "Miejski Szpital w Pionkach"
            }
        },
        {
            "type": "Feature",
            "geometry": {
                "type": "Point",
                "coordinates": [
                    21.4481631,
                    51.4771118
                ]
            },
            "properties": {
                "name": "Pogotowie Ratunkowe"
            }
        },
        {
            "type": "Feature",
            "geometry": {
                "type": "Point",
                "coordinates": [
                    19.8164218,
                    53.2595039
                ]
            },
            "properties": {
                "name": "Przychodnia"
            }
        },
        {
            "type": "Feature",
            "geometry": {
                "type": "Point",
                "coordinates": [
                    20.4422785,
                    52.0673914
                ]
            },
            "properties": {
                "name": "Klinika Life-Med Bis"
            }
        },
        {
            "type": "Feature",
            "geometry": {
                "type": "Point",
                "coordinates": [
                    18.5814981,
                    53.0283575
                ]
            },
            "properties": {
                "name": "Wojew\u00f3dzki Szpital Zespolony im. L. Rydygiera"
            }
        },
        {
            "type": "Feature",
            "geometry": {
                "type": "Point",
                "coordinates": [
                    22.0482732,
                    51.409128
                ]
            },
            "properties": {
                "name": "centrum medyczne"
            }
        },
        {
            "type": "Feature",
            "geometry": {
                "type": "Point",
                "coordinates": [
                    22.3062468,
                    54.3094508
                ]
            },
            "properties": {
                "name": "Szpital"
            }
        },
        {
            "type": "Feature",
            "geometry": {
                "type": "Point",
                "coordinates": [
                    17.9950108,
                    53.5036507
                ]
            },
            "properties": {
                "name": "O\u015brodek zdrowia w Bys\u0142awiu"
            }
        },
        {
            "type": "Feature",
            "geometry": {
                "type": "Point",
                "coordinates": [
                    21.7525954,
                    49.6613792
                ]
            }
        },
        {
            "type": "Feature",
            "geometry": {
                "type": "Point",
                "coordinates": [
                    15.1516622,
                    51.6402962
                ]
            },
            "properties": {
                "name": "\"Avitum\" stacja dializ"
            }
        },
        {
            "type": "Feature",
            "geometry": {
                "type": "Point",
                "coordinates": [
                    15.1483792,
                    51.641548
                ]
            },
            "properties": {
                "name": "105 Szpital Wojskowy z Przychodni\u0105 SPZOZ"
            }
        },
        {
            "type": "Feature",
            "geometry": {
                "type": "Point",
                "coordinates": [
                    19.2291222,
                    50.039786
                ]
            },
            "properties": {
                "name": "Przychodnia Rejonowa nr 1"
            }
        },
        {
            "type": "Feature",
            "geometry": {
                "type": "Point",
                "coordinates": [
                    15.1420375,
                    51.6344879
                ]
            },
            "properties": {
                "name": "NZOZ Przychodnia"
            }
        },
        {
            "type": "Feature",
            "geometry": {
                "type": "Point",
                "coordinates": [
                    20.1183851,
                    52.783861
                ]
            }
        },
        {
            "type": "Feature",
            "geometry": {
                "type": "Point",
                "coordinates": [
                    19.0754678,
                    50.3267777
                ]
            },
            "properties": {
                "name": "Powiatowy Zesp\u00f3\u0142 Zak\u0142ad\u00f3w Opieki Zdrowotnej w B\u0119dzinie - Szpital w Czeladzi"
            }
        },
        {
            "type": "Feature",
            "geometry": {
                "type": "Point",
                "coordinates": [
                    21.1623548,
                    51.3810397
                ]
            },
            "properties": {
                "name": "Centrum ortopedyczne MAX-MED"
            }
        },
        {
            "type": "Feature",
            "geometry": {
                "type": "Point",
                "coordinates": [
                    22.8028618,
                    53.4056151
                ]
            }
        },
        {
            "type": "Feature",
            "geometry": {
                "type": "Point",
                "coordinates": [
                    19.604941,
                    49.7364285
                ]
            }
        },
        {
            "type": "Feature",
            "geometry": {
                "type": "Point",
                "coordinates": [
                    20.4136574,
                    49.7160365
                ]
            },
            "properties": {
                "name": "Szpital Powiatowy"
            }
        },
        {
            "type": "Feature",
            "geometry": {
                "type": "Point",
                "coordinates": [
                    16.8628535,
                    54.5865952
                ]
            },
            "properties": {
                "name": "SOR Ustka"
            }
        },
        {
            "type": "Feature",
            "geometry": {
                "type": "Point",
                "coordinates": [
                    21.1582587,
                    51.3843784
                ]
            },
            "properties": {
                "name": "Medicon"
            }
        },
        {
            "type": "Feature",
            "geometry": {
                "type": "Point",
                "coordinates": [
                    21.0213895,
                    52.6197484
                ]
            },
            "properties": {
                "name": "Niepubliczny O\u015brodek Zdrowia ESKULAP"
            }
        },
        {
            "type": "Feature",
            "geometry": {
                "type": "Point",
                "coordinates": [
                    21.1436858,
                    51.3917706
                ]
            },
            "properties": {
                "name": "Specjalistyczna Przychodnia Medycyny Pracy"
            }
        },
        {
            "type": "Feature",
            "geometry": {
                "type": "Point",
                "coordinates": [
                    19.324847,
                    49.9838995
                ]
            },
            "properties": {
                "name": "O\u015brodek Zdrowia"
            }
        },
        {
            "type": "Feature",
            "geometry": {
                "type": "Point",
                "coordinates": [
                    22.094585,
                    50.7557753
                ]
            }
        },
        {
            "type": "Feature",
            "geometry": {
                "type": "Point",
                "coordinates": [
                    17.4324141,
                    51.6985662
                ]
            },
            "properties": {
                "name": "Szpital Powiatowy im. Marcela Nenckiego"
            }
        },
        {
            "type": "Feature",
            "geometry": {
                "type": "Point",
                "coordinates": [
                    21.1459716,
                    51.3993347
                ]
            },
            "properties": {
                "name": "Radomski Szpital Specjalistyczny im. dr. Tytusa Cha\u0142ubi\u0144skiego"
            }
        },
        {
            "type": "Feature",
            "geometry": {
                "type": "Point",
                "coordinates": [
                    19.071776,
                    53.1093021
                ]
            },
            "properties": {
                "name": "Szpital"
            }
        },
        {
            "type": "Feature",
            "geometry": {
                "type": "Point",
                "coordinates": [
                    21.1584669,
                    51.4376328
                ]
            },
            "properties": {
                "name": "Mazowiecki Szpital Specjalistyczny"
            }
        },
        {
            "type": "Feature",
            "geometry": {
                "type": "Point",
                "coordinates": [
                    21.751444,
                    50.6985605
                ]
            },
            "properties": {
                "name": "SSD\u015a Sandomierz"
            }
        },
        {
            "type": "Feature",
            "geometry": {
                "type": "Point",
                "coordinates": [
                    16.1830312,
                    51.0591544
                ]
            },
            "properties": {
                "name": "NZOZ KORMED Sp. z o.o."
            }
        },
        {
            "type": "Feature",
            "geometry": {
                "type": "Point",
                "coordinates": [
                    16.1852357,
                    54.1866949
                ]
            },
            "properties": {
                "name": "Zak\u0142ad Opieki Zdrowotnej Medical Beta"
            }
        },
        {
            "type": "Feature",
            "geometry": {
                "type": "Point",
                "coordinates": [
                    19.0084927,
                    50.2671962
                ]
            },
            "properties": {
                "name": "Klinika 2000"
            }
        },
        {
            "type": "Feature",
            "geometry": {
                "type": "Point",
                "coordinates": [
                    15.9177073,
                    52.0965554
                ]
            },
            "properties": {
                "name": "O\u015brodek zdrowia w Kopanicy"
            }
        },
        {
            "type": "Feature",
            "geometry": {
                "type": "Point",
                "coordinates": [
                    19.9564727,
                    50.0649728
                ]
            },
            "properties": {
                "name": "Centrum Urazowe Medycyny Ratunkowej i Katastrof"
            }
        },
        {
            "type": "Feature",
            "geometry": {
                "type": "Point",
                "coordinates": [
                    19.2344592,
                    50.034929
                ]
            },
            "properties": {
                "name": "Przychodnia Rejonowa Nr 2"
            }
        },
        {
            "type": "Feature",
            "geometry": {
                "type": "Point",
                "coordinates": [
                    16.1988754,
                    51.0472162
                ]
            },
            "properties": {
                "name": "Przychodnia C.D.T. \"Medicus\""
            }
        },
        {
            "type": "Feature",
            "geometry": {
                "type": "Point",
                "coordinates": [
                    18.9056036,
                    50.1748144
                ]
            },
            "properties": {
                "name": "Szpital Powiatowy"
            }
        },
        {
            "type": "Feature",
            "geometry": {
                "type": "Point",
                "coordinates": [
                    18.9084745,
                    50.1701247
                ]
            },
            "properties": {
                "name": "Szpital \u015bw. J\u00f3zefa w Miko\u0142owie"
            }
        },
        {
            "type": "Feature",
            "geometry": {
                "type": "Point",
                "coordinates": [
                    21.5486848,
                    53.3632685
                ]
            },
            "properties": {
                "name": "Przychodnia lekarska"
            }
        },
        {
            "type": "Feature",
            "geometry": {
                "type": "Point",
                "coordinates": [
                    20.4206871,
                    49.8031788
                ]
            },
            "properties": {
                "name": "Centrum medyczne w \u017begocinie"
            }
        },
        {
            "type": "Feature",
            "geometry": {
                "type": "Point",
                "coordinates": [
                    20.2342536,
                    49.6816515
                ]
            },
            "properties": {
                "name": "O\u015brodek Zdrowia"
            }
        },
        {
            "type": "Feature",
            "geometry": {
                "type": "Point",
                "coordinates": [
                    20.1896049,
                    49.7813775
                ]
            },
            "properties": {
                "name": "NZOZ Szpital pw. \u015aw. Jana Jerozolimskiego w Szczyrzycu"
            }
        },
        {
            "type": "Feature",
            "geometry": {
                "type": "Point",
                "coordinates": [
                    20.1919975,
                    49.7779447
                ]
            },
            "properties": {
                "name": "DPS"
            }
        },
        {
            "type": "Feature",
            "geometry": {
                "type": "Point",
                "coordinates": [
                    18.4140081,
                    54.7210358
                ]
            },
            "properties": {
                "name": "Samodzielny Publiczny Zak\u0142ad Opieki Zdrowotnej Szpitala im. Franciszka \u017baczka w Pucku."
            }
        },
        {
            "type": "Feature",
            "geometry": {
                "type": "Point",
                "coordinates": [
                    18.4139728,
                    54.7215641
                ]
            }
        },
        {
            "type": "Feature",
            "geometry": {
                "type": "Point",
                "coordinates": [
                    18.5963964,
                    49.9494026
                ]
            },
            "properties": {
                "name": "Przychodnie Lekarskie"
            }
        },
        {
            "type": "Feature",
            "geometry": {
                "type": "Point",
                "coordinates": [
                    21.2439155,
                    52.2196604
                ]
            },
            "properties": {
                "name": "NZOZ Lecznica Stomatologiczna ELIXIR"
            }
        },
        {
            "type": "Feature",
            "geometry": {
                "type": "Point",
                "coordinates": [
                    21.2434905,
                    52.2207651
                ]
            },
            "properties": {
                "name": "Aboutara"
            }
        },
        {
            "type": "Feature",
            "geometry": {
                "type": "Point",
                "coordinates": [
                    16.5279623,
                    52.2223354
                ]
            },
            "properties": {
                "name": "Przychodnia lekarza rodzinnego"
            }
        },
        {
            "type": "Feature",
            "geometry": {
                "type": "Point",
                "coordinates": [
                    23.7050721,
                    50.6130314
                ]
            }
        },
        {
            "type": "Feature",
            "geometry": {
                "type": "Point",
                "coordinates": [
                    21.9976488,
                    53.0398015
                ]
            }
        },
        {
            "type": "Feature",
            "geometry": {
                "type": "Point",
                "coordinates": [
                    16.2036999,
                    51.3834347
                ]
            },
            "properties": {
                "name": "Medicus - Szpital"
            }
        },
        {
            "type": "Feature",
            "geometry": {
                "type": "Point",
                "coordinates": [
                    20.020406,
                    50.0746202
                ]
            }
        },
        {
            "type": "Feature",
            "geometry": {
                "type": "Point",
                "coordinates": [
                    17.81209,
                    50.2037163
                ]
            }
        },
        {
            "type": "Feature",
            "geometry": {
                "type": "Point",
                "coordinates": [
                    23.8931219,
                    50.8014786
                ]
            },
            "properties": {
                "name": "Szpital"
            }
        },
        {
            "type": "Feature",
            "geometry": {
                "type": "Point",
                "coordinates": [
                    19.2251367,
                    51.0452827
                ]
            },
            "properties": {
                "name": "WOPR"
            }
        },
        {
            "type": "Feature",
            "geometry": {
                "type": "Point",
                "coordinates": [
                    21.1839348,
                    51.4085488
                ]
            },
            "properties": {
                "name": "Przychodnia"
            }
        },
        {
            "type": "Feature",
            "geometry": {
                "type": "Point",
                "coordinates": [
                    18.8123971,
                    50.1208206
                ]
            },
            "properties": {
                "name": "Stema-Med NZOZ"
            }
        },
        {
            "type": "Feature",
            "geometry": {
                "type": "Point",
                "coordinates": [
                    16.0492227,
                    51.5944667
                ]
            },
            "properties": {
                "name": "Przychodnia"
            }
        },
        {
            "type": "Feature",
            "geometry": {
                "type": "Point",
                "coordinates": [
                    20.2879823,
                    52.8928541
                ]
            }
        },
        {
            "type": "Feature",
            "geometry": {
                "type": "Point",
                "coordinates": [
                    20.2881673,
                    52.893872
                ]
            }
        },
        {
            "type": "Feature",
            "geometry": {
                "type": "Point",
                "coordinates": [
                    19.3767964,
                    51.3812264
                ]
            },
            "properties": {
                "name": "Poradnia Kardiologiczna Puls"
            }
        },
        {
            "type": "Feature",
            "geometry": {
                "type": "Point",
                "coordinates": [
                    20.1138453,
                    50.134812
                ]
            },
            "properties": {
                "name": "NZOZ LUBOMED"
            }
        },
        {
            "type": "Feature",
            "geometry": {
                "type": "Point",
                "coordinates": [
                    19.2051628,
                    51.768778
                ]
            },
            "properties": {
                "name": "Przychodnia lekarska"
            }
        },
        {
            "type": "Feature",
            "geometry": {
                "type": "Point",
                "coordinates": [
                    18.9771098,
                    50.2101765
                ]
            },
            "properties": {
                "name": "Wielospecjalistyczny Szpital TOMMED"
            }
        },
        {
            "type": "Feature",
            "geometry": {
                "type": "Point",
                "coordinates": [
                    20.9935427,
                    50.0168864
                ]
            },
            "properties": {
                "name": "Zesp\u00f3\u0142 Przychodni Specjalistycznych"
            }
        },
        {
            "type": "Feature",
            "geometry": {
                "type": "Point",
                "coordinates": [
                    18.2023529,
                    50.1016677
                ]
            },
            "properties": {
                "name": "Szpital Rejonowy im. dr J\u00f3zefa Rostka"
            }
        },
        {
            "type": "Feature",
            "geometry": {
                "type": "Point",
                "coordinates": [
                    22.5374703,
                    51.0135743
                ]
            },
            "properties": {
                "name": "Szpital Powiatowy w Bychawie"
            }
        },
        {
            "type": "Feature",
            "geometry": {
                "type": "Point",
                "coordinates": [
                    18.7795306,
                    50.3093344
                ]
            },
            "properties": {
                "name": "Kamilia\u0144skie Centrum Opieku\u0144czo-Lecznicze"
            }
        },
        {
            "type": "Feature",
            "geometry": {
                "type": "Point",
                "coordinates": [
                    20.8673693,
                    51.557714
                ]
            },
            "properties": {
                "name": "Przychodnia Zdrowia"
            }
        },
        {
            "type": "Feature",
            "geometry": {
                "type": "Point",
                "coordinates": [
                    22.7080451,
                    52.2154926
                ]
            }
        },
        {
            "type": "Feature",
            "geometry": {
                "type": "Point",
                "coordinates": [
                    21.3243582,
                    51.4317563
                ]
            },
            "properties": {
                "name": "O\u015brodek Zdrowia"
            }
        },
        {
            "type": "Feature",
            "geometry": {
                "type": "Point",
                "coordinates": [
                    18.6415747,
                    49.747118
                ]
            },
            "properties": {
                "name": "Cieszy\u0144skie Pogotowie Ratunkowe"
            }
        },
        {
            "type": "Feature",
            "geometry": {
                "type": "Point",
                "coordinates": [
                    20.5008931,
                    53.7749405
                ]
            },
            "properties": {
                "name": "Przychodnia"
            }
        },
        {
            "type": "Feature",
            "geometry": {
                "type": "Point",
                "coordinates": [
                    20.492014,
                    53.7699689
                ]
            },
            "properties": {
                "name": "Wojew\u00f3dzki Szpital Specjalistyczny"
            }
        },
        {
            "type": "Feature",
            "geometry": {
                "type": "Point",
                "coordinates": [
                    20.92581,
                    52.15869
                ]
            },
            "properties": {
                "name": "Ortognatyka"
            }
        },
        {
            "type": "Feature",
            "geometry": {
                "type": "Point",
                "coordinates": [
                    16.5939634,
                    51.166367
                ]
            },
            "properties": {
                "name": "Szpital Specjalistyczny"
            }
        },
        {
            "type": "Feature",
            "geometry": {
                "type": "Point",
                "coordinates": [
                    20.5126369,
                    53.7704026
                ]
            },
            "properties": {
                "name": "Przychodnia Medycyny Pracy"
            }
        },
        {
            "type": "Feature",
            "geometry": {
                "type": "Point",
                "coordinates": [
                    16.5360646,
                    53.583825
                ]
            },
            "properties": {
                "name": "Szpital Miejski w Bornem Sulinowie"
            }
        },
        {
            "type": "Feature",
            "geometry": {
                "type": "Point",
                "coordinates": [
                    22.526563,
                    51.0169845
                ]
            }
        },
        {
            "type": "Feature",
            "geometry": {
                "type": "Point",
                "coordinates": [
                    21.0846098,
                    51.358357
                ]
            },
            "properties": {
                "name": "Szpital psychiatryczny"
            }
        },
        {
            "type": "Feature",
            "geometry": {
                "type": "Point",
                "coordinates": [
                    20.80905,
                    52.09577
                ]
            },
            "properties": {
                "name": "SPGZOZ Nadarzyn"
            }
        },
        {
            "type": "Feature",
            "geometry": {
                "type": "Point",
                "coordinates": [
                    18.2625352,
                    54.7555562
                ]
            },
            "properties": {
                "name": "Apteka"
            }
        },
        {
            "type": "Feature",
            "geometry": {
                "type": "Point",
                "coordinates": [
                    21.4614,
                    52.26704
                ]
            },
            "properties": {
                "name": "Stomatolog Katarzyna Kowalska. RTG z\u0119b\u00f3w, ul. Szkolna 16, 05-304 Pustelnik , tel. 792 069 966"
            }
        },
        {
            "type": "Feature",
            "geometry": {
                "type": "Point",
                "coordinates": [
                    18.5340225,
                    50.097473
                ]
            }
        },
        {
            "type": "Feature",
            "geometry": {
                "type": "Point",
                "coordinates": [
                    15.0145563,
                    51.1364236
                ]
            },
            "properties": {
                "name": "O\u015brodek Zdrowia NFZ"
            }
        },
        {
            "type": "Feature",
            "geometry": {
                "type": "Point",
                "coordinates": [
                    15.17442,
                    53.9243
                ]
            },
            "properties": {
                "name": "Samodzielny Publiczny Zesp\u00f3\u0142 Zak\u0142ad\u00f3w Opieki Zdrowotnej w Gryficach"
            }
        },
        {
            "type": "Feature",
            "geometry": {
                "type": "Point",
                "coordinates": [
                    18.02178,
                    54.45667
                ]
            }
        },
        {
            "type": "Feature",
            "geometry": {
                "type": "Point",
                "coordinates": [
                    23.5872154,
                    50.4242806
                ]
            }
        },
        {
            "type": "Feature",
            "geometry": {
                "type": "Point",
                "coordinates": [
                    19.090334,
                    50.092173
                ]
            },
            "properties": {
                "name": "Galen - Ortopedia"
            }
        },
        {
            "type": "Feature",
            "geometry": {
                "type": "Point",
                "coordinates": [
                    18.5986209,
                    54.4135828
                ]
            }
        },
        {
            "type": "Feature",
            "geometry": {
                "type": "Point",
                "coordinates": [
                    20.1251197,
                    50.8865207
                ]
            },
            "properties": {
                "name": "O\u015brodek zdrowia"
            }
        },
        {
            "type": "Feature",
            "geometry": {
                "type": "Point",
                "coordinates": [
                    20.3022442,
                    50.6489763
                ]
            },
            "properties": {
                "name": "NZOZ Szpital Specjalistyczny im. W. Biega\u0144skiego w J\u0119drzejowie"
            }
        },
        {
            "type": "Feature",
            "geometry": {
                "type": "Point",
                "coordinates": [
                    20.8058828,
                    50.8025322
                ]
            },
            "properties": {
                "name": "O\u015brodek zdrowia"
            }
        },
        {
            "type": "Feature",
            "geometry": {
                "type": "Point",
                "coordinates": [
                    22.4385303,
                    53.0887489
                ]
            }
        },
        {
            "type": "Feature",
            "geometry": {
                "type": "Point",
                "coordinates": [
                    22.4409656,
                    53.0886427
                ]
            }
        },
        {
            "type": "Feature",
            "geometry": {
                "type": "Point",
                "coordinates": [
                    22.6731655,
                    50.0094034
                ]
            },
            "properties": {
                "name": "Przychodnia POZ"
            }
        },
        {
            "type": "Feature",
            "geometry": {
                "type": "Point",
                "coordinates": [
                    16.7668876,
                    51.0337936
                ]
            },
            "properties": {
                "name": "Zesp\u00f3\u0142 Lecznictwa Ambulatoryjnego"
            }
        },
        {
            "type": "Feature",
            "geometry": {
                "type": "Point",
                "coordinates": [
                    17.9916654,
                    51.2716442
                ]
            },
            "properties": {
                "name": "Okulista"
            }
        },
        {
            "type": "Feature",
            "geometry": {
                "type": "Point",
                "coordinates": [
                    19.0707417,
                    50.3217914
                ]
            },
            "properties": {
                "name": "Alfa-Med"
            }
        },
        {
            "type": "Feature",
            "geometry": {
                "type": "Point",
                "coordinates": [
                    19.0726985,
                    50.3181673
                ]
            },
            "properties": {
                "name": "Tw\u00f3j dentysta"
            }
        },
        {
            "type": "Feature",
            "geometry": {
                "type": "Point",
                "coordinates": [
                    19.1892612,
                    50.0082786
                ]
            },
            "properties": {
                "name": "Niepubliczny Zak\u0142ad Opieku\u0144czo-Leczniczy"
            }
        },
        {
            "type": "Feature",
            "geometry": {
                "type": "Point",
                "coordinates": [
                    19.026399,
                    53.9226016
                ]
            }
        },
        {
            "type": "Feature",
            "geometry": {
                "type": "Point",
                "coordinates": [
                    19.4157988,
                    53.2473506
                ]
            },
            "properties": {
                "name": "Prywatny gabinet Lech Sprudin"
            }
        },
        {
            "type": "Feature",
            "geometry": {
                "type": "Point",
                "coordinates": [
                    19.3992389,
                    53.2515494
                ]
            },
            "properties": {
                "name": "Poradnia AlfaMed"
            }
        },
        {
            "type": "Feature",
            "geometry": {
                "type": "Point",
                "coordinates": [
                    19.4021005,
                    53.258603
                ]
            },
            "properties": {
                "name": "Zak\u0142\u0105d Opieki Zdrowotnej 'Zdrowie'"
            }
        },
        {
            "type": "Feature",
            "geometry": {
                "type": "Point",
                "coordinates": [
                    18.9210371,
                    53.7267411
                ]
            },
            "properties": {
                "name": "Szpital Powiatowy w Kwidzynie"
            }
        },
        {
            "type": "Feature",
            "geometry": {
                "type": "Point",
                "coordinates": [
                    22.2232282,
                    50.9320803
                ]
            }
        },
        {
            "type": "Feature",
            "geometry": {
                "type": "Point",
                "coordinates": [
                    19.9591346,
                    50.3900145
                ]
            },
            "properties": {
                "name": "O\u015brodek Zdrowia"
            }
        },
        {
            "type": "Feature",
            "geometry": {
                "type": "Point",
                "coordinates": [
                    18.5277168,
                    53.9721647
                ]
            },
            "properties": {
                "name": "gabinet Kardiologiczny"
            }
        },
        {
            "type": "Feature",
            "geometry": {
                "type": "Point",
                "coordinates": [
                    22.8253314,
                    50.751438
                ]
            },
            "properties": {
                "name": "Samodzielny Publiczny Wojew\u00f3dzki Szpital Psychiatryczny"
            }
        },
        {
            "type": "Feature",
            "geometry": {
                "type": "Point",
                "coordinates": [
                    21.7822003,
                    54.0368949
                ]
            }
        },
        {
            "type": "Feature",
            "geometry": {
                "type": "Point",
                "coordinates": [
                    17.0694202,
                    50.7877155
                ]
            },
            "properties": {
                "name": "Strzeli\u0144skie Centrum Medyczne"
            }
        },
        {
            "type": "Feature",
            "geometry": {
                "type": "Point",
                "coordinates": [
                    21.3341379,
                    51.2950824
                ]
            }
        },
        {
            "type": "Feature",
            "geometry": {
                "type": "Point",
                "coordinates": [
                    18.6902321,
                    54.1730351
                ]
            },
            "properties": {
                "name": "o\u015brodek zdrowia"
            }
        },
        {
            "type": "Feature",
            "geometry": {
                "type": "Point",
                "coordinates": [
                    20.8639608,
                    50.1204873
                ]
            },
            "properties": {
                "name": "Punkt Lekarski"
            }
        },
        {
            "type": "Feature",
            "geometry": {
                "type": "Point",
                "coordinates": [
                    20.8497981,
                    50.4947789
                ]
            },
            "properties": {
                "name": "O\u015brodek Zdrowia"
            }
        },
        {
            "type": "Feature",
            "geometry": {
                "type": "Point",
                "coordinates": [
                    17.9290441,
                    50.680782
                ]
            },
            "properties": {
                "name": "Megamed"
            }
        },
        {
            "type": "Feature",
            "geometry": {
                "type": "Point",
                "coordinates": [
                    17.4326777,
                    51.6986825
                ]
            },
            "properties": {
                "name": "Oddzia\u0142 Ratunkowy w Krotoszynie"
            }
        },
        {
            "type": "Feature",
            "geometry": {
                "type": "Point",
                "coordinates": [
                    16.8811786,
                    51.0763694
                ]
            },
            "properties": {
                "name": "Wiejski O\u015brodek Zdrowia"
            }
        },
        {
            "type": "Feature",
            "geometry": {
                "type": "Point",
                "coordinates": [
                    22.5636243,
                    51.2561572
                ]
            },
            "properties": {
                "name": "Instytut Medycyny Wsi"
            }
        },
        {
            "type": "Feature",
            "geometry": {
                "type": "Point",
                "coordinates": [
                    22.5610326,
                    51.26036
                ]
            },
            "properties": {
                "name": "Uniwersytecki Szpital Dzieci\u0119cy"
            }
        },
        {
            "type": "Feature",
            "geometry": {
                "type": "Point",
                "coordinates": [
                    22.5643243,
                    51.2596794
                ]
            },
            "properties": {
                "name": "Instytut Medycyny S\u0105dowej"
            }
        },
        {
            "type": "Feature",
            "geometry": {
                "type": "Point",
                "coordinates": [
                    22.5646345,
                    51.2587918
                ]
            },
            "properties": {
                "name": "Szpital Kliniczny nr 4"
            }
        },
        {
            "type": "Feature",
            "geometry": {
                "type": "Point",
                "coordinates": [
                    20.0036631,
                    50.0827004
                ]
            },
            "properties": {
                "name": "Prywatna Przychodnia Ortopedyczna"
            }
        },
        {
            "type": "Feature",
            "geometry": {
                "type": "Point",
                "coordinates": [
                    18.2443436,
                    52.7935087
                ]
            },