{
    "type": "FeatureCollection",
    "features": [
        {
            "type": "Feature",
            "geometry": {
                "type": "Point",
                "coordinates": [
                    27.0481332,
                    58.0549109
                ]
            },
            "properties": {
                "name": "P\u00f5lva Haigla"
            }
        },
        {
            "type": "Feature",
            "geometry": {
                "type": "Point",
                "coordinates": [
                    26.3838109,
                    58.7472835
                ]
            }
        },
        {
            "type": "Feature",
            "geometry": {
                "type": "Point",
                "coordinates": [
                    26.247,
                    58.140101
                ]
            },
            "properties": {
                "name": "R\u00f5ngu hooldushaigla"
            }
        },
        {
            "type": "Feature",
            "geometry": {
                "type": "Point",
                "coordinates": [
                    27.7454095,
                    59.3898206
                ]
            },
            "properties": {
                "name": "Sillam\u00e4e Haigla"
            }
        },
        {
            "type": "Feature",
            "geometry": {
                "type": "Point",
                "coordinates": [
                    24.7388083,
                    59.4168244
                ]
            },
            "properties": {
                "name": "Magdaleena haigla"
            }
        },
        {
            "type": "Feature",
            "geometry": {
                "type": "Point",
                "coordinates": [
                    22.4719199,
                    58.2513843
                ]
            },
            "properties": {
                "name": "Kuressaare haigla"
            }
        },
        {
            "type": "Feature",
            "geometry": {
                "type": "Point",
                "coordinates": [
                    27.7567901,
                    59.3960266
                ]
            },
            "properties": {
                "name": "Sillam\u00e4e polikliinik"
            }
        },
        {
            "type": "Feature",
            "geometry": {
                "type": "Point",
                "coordinates": [
                    27.2945413,
                    59.4035241
                ]
            },
            "properties": {
                "name": "Ida-Viru keskhaigla Kohtla-J\u00e4rve korpus"
            }
        },
        {
            "type": "Feature",
            "geometry": {
                "type": "Point",
                "coordinates": [
                    23.5422142,
                    58.9455573
                ]
            },
            "properties": {
                "name": "L\u00e4\u00e4nemaa haigla"
            }
        },
        {
            "type": "Feature",
            "geometry": {
                "type": "Point",
                "coordinates": [
                    27.7756386,
                    59.3954118
                ]
            },
            "properties": {
                "name": "Almeda"
            }
        },
        {
            "type": "Feature",
            "geometry": {
                "type": "Point",
                "coordinates": [
                    23.5321984,
                    58.9523803
                ]
            },
            "properties": {
                "name": "Haapsalu Neuroloogiline Rehabilitatsioonikeskus"
            }
        },
        {
            "type": "Feature",
            "geometry": {
                "type": "Point",
                "coordinates": [
                    27.4116971,
                    59.3626333
                ]
            }
        },
        {
            "type": "Feature",
            "geometry": {
                "type": "Point",
                "coordinates": [
                    27.4671355,
                    58.0957027
                ]
            },
            "properties": {
                "name": "Polikliinik"
            }
        },
        {
            "type": "Feature",
            "geometry": {
                "type": "Point",
                "coordinates": [
                    27.453361,
                    59.3118134
                ]
            },
            "properties": {
                "name": "Ahtme statsionaar"
            }
        },
        {
            "type": "Feature",
            "geometry": {
                "type": "Point",
                "coordinates": [
                    25.3550029,
                    58.1265883
                ]
            }
        },
        {
            "type": "Feature",
            "geometry": {
                "type": "Point",
                "coordinates": [
                    25.5511978,
                    58.1049987
                ]
            }
        },
        {
            "type": "Feature",
            "geometry": {
                "type": "Point",
                "coordinates": [
                    26.6980912,
                    58.3673012
                ]
            },
            "properties": {
                "name": "Lastekliinik"
            }
        },
        {
            "type": "Feature",
            "geometry": {
                "type": "Point",
                "coordinates": [
                    26.0538187,
                    57.7803094
                ]
            },
            "properties": {
                "name": "Valga Haigla"
            }
        },
        {
            "type": "Feature",
            "geometry": {
                "type": "Point",
                "coordinates": [
                    25.5600225,
                    58.8869365
                ]
            },
            "properties": {
                "name": "J\u00e4rvamaa Haigla Kiirabi"
            }
        },
        {
            "type": "Feature",
            "geometry": {
                "type": "Point",
                "coordinates": [
                    24.9609632,
                    58.1489961
                ]
            },
            "properties": {
                "name": "Polikliniik"
            }
        },
        {
            "type": "Feature",
            "geometry": {
                "type": "Point",
                "coordinates": [
                    27.294237,
                    59.4034059
                ]
            },
            "properties": {
                "name": "Kohtla-J\u00e4rve Taastus- ja hooldusravikliinik"
            }
        },
        {
            "type": "Feature",
            "geometry": {
                "type": "Point",
                "coordinates": [
                    27.2943503,
                    59.40306
                ]
            },
            "properties": {
                "name": "Kohtla-J\u00e4rve Hooldekeskus"
            }
        },
        {
            "type": "Feature",
            "geometry": {
                "type": "Point",
                "coordinates": [
                    24.6944963,
                    59.4303798
                ]
            },
            "properties": {
                "name": "LTK nakkuskliinik"
            }
        },
        {
            "type": "Feature",
            "geometry": {
                "type": "Point",
                "coordinates": [
                    24.756048,
                    59.428516
                ]
            },
            "properties": {
                "name": "Kesklinna Lastepolikliinik"
            }
        },
        {
            "type": "Feature",
            "geometry": {
                "type": "Point",
                "coordinates": [
                    24.7324435,
                    59.432075
                ]
            },
            "properties": {
                "name": "Wismari haigla"
            }
        },
        {
            "type": "Feature",
            "geometry": {
                "type": "Point",
                "coordinates": [
                    25.0202365,
                    59.476055
                ]
            },
            "properties": {
                "name": "Kallavere Haigla"
            }
        },
        {
            "type": "Feature",
            "geometry": {
                "type": "Point",
                "coordinates": [
                    24.714442,
                    59.3955855
                ]
            },
            "properties": {
                "name": "J\u00e4rve haigla"
            }
        },
        {
            "type": "Feature",
            "geometry": {
                "type": "Point",
                "coordinates": [
                    25.5770924,
                    58.3826721
                ]
            },
            "properties": {
                "name": "Viljandi haigla"
            }
        },
        {
            "type": "Feature",
            "geometry": {
                "type": "Point",
                "coordinates": [
                    26.6844335,
                    58.3702295
                ]
            },
            "properties": {
                "name": "Elite"
            }
        },
        {
            "type": "Feature",
            "geometry": {
                "type": "Point",
                "coordinates": [
                    26.3763509,
                    59.3350734
                ]
            },
            "properties": {
                "name": "Rakvere haigla"
            }
        },
        {
            "type": "Feature",
            "geometry": {
                "type": "Point",
                "coordinates": [
                    26.3766613,
                    59.3354527
                ]
            },
            "properties": {
                "name": "Rakvere haigla"
            }
        },
        {
            "type": "Feature",
            "geometry": {
                "type": "Point",
                "coordinates": [
                    26.3779205,
                    59.3354259
                ]
            },
            "properties": {
                "name": "Rakvere haigla"
            }
        },
        {
            "type": "Feature",
            "geometry": {
                "type": "Point",
                "coordinates": [
                    22.7549653,
                    58.9989635
                ]
            },
            "properties": {
                "name": "Hiiumaa Haigla"
            }
        },
        {
            "type": "Feature",
            "geometry": {
                "type": "Point",
                "coordinates": [
                    24.5475507,
                    58.3876115
                ]
            },
            "properties": {
                "name": "P\u00e4rnu Haigla"
            }
        },
        {
            "type": "Feature",
            "geometry": {
                "type": "Point",
                "coordinates": [
                    26.3770674,
                    59.3361824
                ]
            },
            "properties": {
                "name": "Rakvere Haigla"
            }
        },
        {
            "type": "Feature",
            "geometry": {
                "type": "Point",
                "coordinates": [
                    27.4090254,
                    59.3282306
                ]
            },
            "properties": {
                "name": "Ida-Viru keskhaigla Puru korpus"
            }
        },
        {
            "type": "Feature",
            "geometry": {
                "type": "Point",
                "coordinates": [
                    27.4103895,
                    59.3301261
                ]
            }
        },
        {
            "type": "Feature",
            "geometry": {
                "type": "Point",
                "coordinates": [
                    26.4096755,
                    58.2299046
                ]
            },
            "properties": {
                "name": "Elva haigla"
            }
        },
        {
            "type": "Feature",
            "geometry": {
                "type": "Point",
                "coordinates": [
                    24.7930506,
                    59.007064
                ]
            },
            "properties": {
                "name": "Rapla Haigla"
            }
        },
        {
            "type": "Feature",
            "geometry": {
                "type": "Point",
                "coordinates": [
                    28.1939359,
                    59.3623149
                ]
            },
            "properties": {
                "name": "Narva Haigla"
            }
        },
        {
            "type": "Feature",
            "geometry": {
                "type": "Point",
                "coordinates": [
                    25.0926321,
                    59.4266591
                ]
            },
            "properties": {
                "name": "Kostivere perearstikeskus"
            }
        },
        {
            "type": "Feature",
            "geometry": {
                "type": "Point",
                "coordinates": [
                    26.9973766,
                    57.808548
                ]
            },
            "properties": {
                "name": "L\u00f5una-Eesti Haigla"
            }
        },
        {
            "type": "Feature",
            "geometry": {
                "type": "Point",
                "coordinates": [
                    26.7001112,
                    58.3696258
                ]
            },
            "properties": {
                "name": "Tartu \u00dclikooli Kliinikum"
            }
        },
        {
            "type": "Feature",
            "geometry": {
                "type": "Point",
                "coordinates": [
                    28.1971725,
                    59.3838175
                ]
            },
            "properties": {
                "name": "Nakkushaigla"
            }
        },
        {
            "type": "Feature",
            "geometry": {
                "type": "Point",
                "coordinates": [
                    27.4117445,
                    59.3617795
                ]
            },
            "properties": {
                "name": "Poliklinnik"
            }
        },
        {
            "type": "Feature",
            "geometry": {
                "type": "Point",
                "coordinates": [
                    26.980524,
                    59.35564
                ]
            },
            "properties": {
                "name": "Kivi\u00f5li polikliinik"
            }
        },
        {
            "type": "Feature",
            "geometry": {
                "type": "Point",
                "coordinates": [
                    25.1850414,
                    59.1857518
                ]
            },
            "properties": {
                "name": "Kose Haigla"
            }
        },
        {
            "type": "Feature",
            "geometry": {
                "type": "Point",
                "coordinates": [
                    25.5843765,
                    58.387335
                ]
            },
            "properties": {
                "name": "J\u00e4mejala Ps\u00fchhiaatriakliinik"
            }
        },
        {
            "type": "Feature",
            "geometry": {
                "type": "Point",
                "coordinates": [
                    25.5774919,
                    58.3826741
                ]
            },
            "properties": {
                "name": "Viljandi haigla"
            }
        },
        {
            "type": "Feature",
            "geometry": {
                "type": "Point",
                "coordinates": [
                    25.9648377,
                    59.2693797
                ]
            },
            "properties": {
                "name": "Tapa Haigla"
            }
        },
        {
            "type": "Feature",
            "geometry": {
                "type": "Point",
                "coordinates": [
                    25.5591054,
                    58.8875988
                ]
            }
        },
        {
            "type": "Feature",
            "geometry": {
                "type": "Point",
                "coordinates": [
                    24.7561437,
                    59.4269306
                ]
            },
            "properties": {
                "name": "Ida-Tallinna Keskhaigla"
            }
        },
        {
            "type": "Feature",
            "geometry": {
                "type": "Point",
                "coordinates": [
                    24.7090628,
                    59.4359512
                ]
            }
        },
        {
            "type": "Feature",
            "geometry": {
                "type": "Point",
                "coordinates": [
                    24.6933437,
                    59.4312065
                ]
            },
            "properties": {
                "name": "L\u00e4\u00e4ne-Tallinna Keskhaigla"
            }
        },
        {
            "type": "Feature",
            "geometry": {
                "type": "Point",
                "coordinates": [
                    24.71403,
                    59.4361242
                ]
            },
            "properties": {
                "name": "Pelgulinna Haigla"
            }
        },
        {
            "type": "Feature",
            "geometry": {
                "type": "Point",
                "coordinates": [
                    24.6983889,
                    59.432559
                ]
            },
            "properties": {
                "name": "P\u00f5hja-Eesti Regionaalhaigla ps\u00fchhiaatriakliinik"
            }
        },
        {
            "type": "Feature",
            "geometry": {
                "type": "Point",
                "coordinates": [
                    24.7013927,
                    59.3984875
                ]
            },
            "properties": {
                "name": "P\u00f5hja-Eesti Regionaalhaigla"
            }
        },
        {
            "type": "Feature",
            "geometry": {
                "type": "Point",
                "coordinates": [
                    24.6984322,
                    59.39622
                ]
            },
            "properties": {
                "name": "P\u00f5hja-Eesti Regionaalhaigla"
            }
        },
        {
            "type": "Feature",
            "geometry": {
                "type": "Point",
                "coordinates": [
                    24.7028665,
                    59.3971114
                ]
            },
            "properties": {
                "name": "Tallinna Lastehaigla"
            }
        }
    ],
    "crs": {
        "type": "name",
        "properties": {
            "name": "urn:ogc:def:crs:OGC:1.3:CRS84"
        }
    }
}