{
    "type": "FeatureCollection",
    "features": [
        {
            "type": "Feature",
            "geometry": {
                "type": "Point",
                "coordinates": [
                    28.0195936,
                    45.4188774
                ]
            },
            "properties": {
                "name": "Spitalul Jude\u021bean de Urgen\u021b\u0103 \"Sf\u00e2ntul Apostol Andrei\""
            }
        },
        {
            "type": "Feature",
            "geometry": {
                "type": "Point",
                "coordinates": [
                    24.783871,
                    46.2207744
                ]
            },
            "properties": {
                "name": "Spitalul Municipal"
            }
        },
        {
            "type": "Feature",
            "geometry": {
                "type": "Point",
                "coordinates": [
                    25.9383708,
                    44.5762751
                ]
            }
        },
        {
            "type": "Feature",
            "geometry": {
                "type": "Point",
                "coordinates": [
                    28.0235885,
                    45.4313362
                ]
            },
            "properties": {
                "name": "Spitalul de pediatrie \"Sf\u00e2ntul Ioan\""
            }
        },
        {
            "type": "Feature",
            "geometry": {
                "type": "Point",
                "coordinates": [
                    25.6203539,
                    45.648131
                ]
            },
            "properties": {
                "name": "Spitalul Jude\u021bean, Policlinic\u0103"
            }
        },
        {
            "type": "Feature",
            "geometry": {
                "type": "Point",
                "coordinates": [
                    26.1563623,
                    44.4634006
                ]
            },
            "properties": {
                "name": "IOB"
            }
        },
        {
            "type": "Feature",
            "geometry": {
                "type": "Point",
                "coordinates": [
                    22.907004,
                    45.7503645
                ]
            },
            "properties": {
                "name": "Policlinica Spitalului Municipal"
            }
        },
        {
            "type": "Feature",
            "geometry": {
                "type": "Point",
                "coordinates": [
                    22.908436,
                    45.7489036
                ]
            },
            "properties": {
                "name": "Spitalul de Boli Infec\u021bioase"
            }
        },
        {
            "type": "Feature",
            "geometry": {
                "type": "Point",
                "coordinates": [
                    27.5723783,
                    47.1510134
                ]
            },
            "properties": {
                "name": "B\u0103ile Nicolina"
            }
        },
        {
            "type": "Feature",
            "geometry": {
                "type": "Point",
                "coordinates": [
                    25.6064125,
                    45.6492129
                ]
            },
            "properties": {
                "name": "Spitalul CFR"
            }
        },
        {
            "type": "Feature",
            "geometry": {
                "type": "Point",
                "coordinates": [
                    25.6170943,
                    45.6495818
                ]
            },
            "properties": {
                "name": "Spitalul Astra"
            }
        },
        {
            "type": "Feature",
            "geometry": {
                "type": "Point",
                "coordinates": [
                    25.6001061,
                    45.6437191
                ]
            },
            "properties": {
                "name": "Spitalul Militar"
            }
        },
        {
            "type": "Feature",
            "geometry": {
                "type": "Point",
                "coordinates": [
                    23.0146918,
                    45.8480155
                ]
            },
            "properties": {
                "name": "Spitalul CFR"
            }
        },
        {
            "type": "Feature",
            "geometry": {
                "type": "Point",
                "coordinates": [
                    22.7910319,
                    46.1265851
                ]
            },
            "properties": {
                "name": "Spitalul Or\u0103\u0219enesc"
            }
        },
        {
            "type": "Feature",
            "geometry": {
                "type": "Point",
                "coordinates": [
                    25.9970411,
                    44.9265826
                ]
            },
            "properties": {
                "name": "Spital CFR"
            }
        },
        {
            "type": "Feature",
            "geometry": {
                "type": "Point",
                "coordinates": [
                    24.4929433,
                    47.1260309
                ]
            },
            "properties": {
                "name": "Spitalul de Boli Infec\u021bioase"
            }
        },
        {
            "type": "Feature",
            "geometry": {
                "type": "Point",
                "coordinates": [
                    24.4880897,
                    47.1314845
                ]
            },
            "properties": {
                "name": "Policlinica Bistri\u021ba"
            }
        },
        {
            "type": "Feature",
            "geometry": {
                "type": "Point",
                "coordinates": [
                    25.5927496,
                    45.6473487
                ]
            },
            "properties": {
                "name": "Spitalul de Neuro-Psihiatrie"
            }
        },
        {
            "type": "Feature",
            "geometry": {
                "type": "Point",
                "coordinates": [
                    27.5751249,
                    47.1733621
                ]
            },
            "properties": {
                "name": "Spitalul Clinic Militar de Urgen\u021b\u0103 \u201eDr. IACOB CZIHAC\u201d"
            }
        },
        {
            "type": "Feature",
            "geometry": {
                "type": "Point",
                "coordinates": [
                    27.5767525,
                    47.1747336
                ]
            },
            "properties": {
                "name": "Spit Clinic de Urgen\u021be Sf Ioan"
            }
        },
        {
            "type": "Feature",
            "geometry": {
                "type": "Point",
                "coordinates": [
                    25.6078969,
                    45.6655309
                ]
            },
            "properties": {
                "name": "Spital Cardiologie \"M\u00e2rzescu\""
            }
        },
        {
            "type": "Feature",
            "geometry": {
                "type": "Point",
                "coordinates": [
                    25.5958857,
                    45.6513588
                ]
            },
            "properties": {
                "name": "Pavilioanele M\u00e2rzescu"
            }
        },
        {
            "type": "Feature",
            "geometry": {
                "type": "Point",
                "coordinates": [
                    25.587008,
                    45.656751
                ]
            },
            "properties": {
                "name": "Spitalul Clinic de Copii / Children Hospital"
            }
        },
        {
            "type": "Feature",
            "geometry": {
                "type": "Point",
                "coordinates": [
                    25.5987234,
                    45.6515541
                ]
            },
            "properties": {
                "name": "Centrul de Transfuzie Sanguin\u0103"
            }
        },
        {
            "type": "Feature",
            "geometry": {
                "type": "Point",
                "coordinates": [
                    28.0619055,
                    45.439169
                ]
            },
            "properties": {
                "name": "Spitalul CFR"
            }
        },
        {
            "type": "Feature",
            "geometry": {
                "type": "Point",
                "coordinates": [
                    25.5771093,
                    45.6458376
                ]
            },
            "properties": {
                "name": "Spitalul Clinic de Pneumoftiziologie, Pavilion IV adul\u021bi"
            }
        },
        {
            "type": "Feature",
            "geometry": {
                "type": "Point",
                "coordinates": [
                    27.6490948,
                    47.0992465
                ]
            },
            "properties": {
                "name": "Spitalul de Pneumoftiziologie Sc\u021b Exterioar\u0103 Dr Clunet"
            }
        },
        {
            "type": "Feature",
            "geometry": {
                "type": "Point",
                "coordinates": [
                    27.5846724,
                    47.1696324
                ]
            },
            "properties": {
                "name": "Spitalul Clinic de Pneumoftiziologie"
            }
        },
        {
            "type": "Feature",
            "geometry": {
                "type": "Point",
                "coordinates": [
                    25.5372392,
                    45.1673009
                ]
            },
            "properties": {
                "name": "Dispensar"
            }
        },
        {
            "type": "Feature",
            "geometry": {
                "type": "Point",
                "coordinates": [
                    23.271195,
                    45.0325306
                ]
            },
            "properties": {
                "name": "Spitalul Municipal"
            }
        },
        {
            "type": "Feature",
            "geometry": {
                "type": "Point",
                "coordinates": [
                    25.6365631,
                    45.6356997
                ]
            },
            "properties": {
                "name": "Dispensar Medical de Adul\u021bi Nr. 17"
            }
        },
        {
            "type": "Feature",
            "geometry": {
                "type": "Point",
                "coordinates": [
                    21.3103144,
                    46.1903274
                ]
            },
            "properties": {
                "name": "Dispensarul TBC"
            }
        },
        {
            "type": "Feature",
            "geometry": {
                "type": "Point",
                "coordinates": [
                    22.9070287,
                    45.7498243
                ]
            },
            "properties": {
                "name": "Spitalul Municipal"
            }
        },
        {
            "type": "Feature",
            "geometry": {
                "type": "Point",
                "coordinates": [
                    23.5856202,
                    46.7776962
                ]
            },
            "properties": {
                "name": "Pediatrie 2"
            }
        },
        {
            "type": "Feature",
            "geometry": {
                "type": "Point",
                "coordinates": [
                    24.4882513,
                    47.129225
                ]
            }
        },
        {
            "type": "Feature",
            "geometry": {
                "type": "Point",
                "coordinates": [
                    24.5133729,
                    47.1381771
                ]
            }
        },
        {
            "type": "Feature",
            "geometry": {
                "type": "Point",
                "coordinates": [
                    26.8011952,
                    45.150578
                ]
            },
            "properties": {
                "name": "Spitalul Jude\u021bean De Urgen\u021b\u0103 Buz\u0103u"
            }
        },
        {
            "type": "Feature",
            "geometry": {
                "type": "Point",
                "coordinates": [
                    27.1926669,
                    45.7044763
                ]
            },
            "properties": {
                "name": "Spitalul Jude\u021bean de Urgen\u021b\u0103 \"Sf. Pantelimon\""
            }
        },
        {
            "type": "Feature",
            "geometry": {
                "type": "Point",
                "coordinates": [
                    21.2144378,
                    45.7448601
                ]
            },
            "properties": {
                "name": "Maternitate Spital Odobescu"
            }
        },
        {
            "type": "Feature",
            "geometry": {
                "type": "Point",
                "coordinates": [
                    25.6203019,
                    45.6485502
                ]
            },
            "properties": {
                "name": "Spitalul Clinic Jude\u021bean de Urgen\u021b\u0103"
            }
        },
        {
            "type": "Feature",
            "geometry": {
                "type": "Point",
                "coordinates": [
                    26.2401443,
                    47.6391758
                ]
            },
            "properties": {
                "name": "Spitalul Jude\u021bean \"Sf\u00e2ntul Ioan cel Nou\" Suceava"
            }
        },
        {
            "type": "Feature",
            "geometry": {
                "type": "Point",
                "coordinates": [
                    22.8631551,
                    47.7828104
                ]
            },
            "properties": {
                "name": "Spitalul Jude\u021bean Satu-Mare"
            }
        },
        {
            "type": "Feature",
            "geometry": {
                "type": "Point",
                "coordinates": [
                    22.9502266,
                    47.5633039
                ]
            },
            "properties": {
                "name": "Dispensar Socund"
            }
        },
        {
            "type": "Feature",
            "geometry": {
                "type": "Point",
                "coordinates": [
                    27.9703046,
                    45.2695549
                ]
            },
            "properties": {
                "name": "Spitalul de Pneumoftiziologie"
            }
        },
        {
            "type": "Feature",
            "geometry": {
                "type": "Point",
                "coordinates": [
                    25.893573,
                    47.5538329
                ]
            },
            "properties": {
                "name": "Maternitatea"
            }
        },
        {
            "type": "Feature",
            "geometry": {
                "type": "Point",
                "coordinates": [
                    24.3547798,
                    44.1164033
                ]
            },
            "properties": {
                "name": "Spitalul Municipal Caracal"
            }
        },
        {
            "type": "Feature",
            "geometry": {
                "type": "Point",
                "coordinates": [
                    21.3158065,
                    46.1756614
                ]
            },
            "properties": {
                "name": "Spitalul Matern"
            }
        },
        {
            "type": "Feature",
            "geometry": {
                "type": "Point",
                "coordinates": [
                    23.5838194,
                    46.7665064
                ]
            },
            "properties": {
                "name": "Clinica Medical\u0103 2"
            }
        },
        {
            "type": "Feature",
            "geometry": {
                "type": "Point",
                "coordinates": [
                    23.5796611,
                    46.7683581
                ]
            },
            "properties": {
                "name": "Clinica de Chirurgie Maxilo Faciala"
            }
        },
        {
            "type": "Feature",
            "geometry": {
                "type": "Point",
                "coordinates": [
                    23.5870644,
                    46.7657613
                ]
            },
            "properties": {
                "name": "Spitalul CFR"
            }
        },
        {
            "type": "Feature",
            "geometry": {
                "type": "Point",
                "coordinates": [
                    21.3077851,
                    46.1721434
                ]
            },
            "properties": {
                "name": "Spitalul clinic municipal sec\u021bia TBC"
            }
        },
        {
            "type": "Feature",
            "geometry": {
                "type": "Point",
                "coordinates": [
                    26.4392503,
                    46.2072388
                ]
            },
            "properties": {
                "name": "Sanatoriul Balnear Sl\u0103nic Moldova"
            }
        },
        {
            "type": "Feature",
            "geometry": {
                "type": "Point",
                "coordinates": [
                    25.6429915,
                    45.766112
                ]
            },
            "properties": {
                "name": "Cabinet Medical"
            }
        },
        {
            "type": "Feature",
            "geometry": {
                "type": "Point",
                "coordinates": [
                    25.9690112,
                    43.8984541
                ]
            },
            "properties": {
                "name": "Spitalul Jude\u021bean Giurgiu"
            }
        },
        {
            "type": "Feature",
            "geometry": {
                "type": "Point",
                "coordinates": [
                    26.1338412,
                    44.4603826
                ]
            },
            "properties": {
                "name": "Dispensarul Trei Scaune"
            }
        },
        {
            "type": "Feature",
            "geometry": {
                "type": "Point",
                "coordinates": [
                    26.0813053,
                    44.4912049
                ]
            },
            "properties": {
                "name": "Dispensarul B\u0103neasa"
            }
        },
        {
            "type": "Feature",
            "geometry": {
                "type": "Point",
                "coordinates": [
                    26.0700774,
                    44.473975
                ]
            },
            "properties": {
                "name": "Spitalul 2 CFR"
            }
        },
        {
            "type": "Feature",
            "geometry": {
                "type": "Point",
                "coordinates": [
                    26.0923811,
                    44.4523421
                ]
            },
            "properties": {
                "name": "Spitalul de Copii \"Grigore Alexandrescu\" Bucure\u0219ti"
            }
        },
        {
            "type": "Feature",
            "geometry": {
                "type": "Point",
                "coordinates": [
                    28.6331236,
                    44.0669001
                ]
            },
            "properties": {
                "name": "Policlinic\u0103 cu plat\u0103"
            }
        },
        {
            "type": "Feature",
            "geometry": {
                "type": "Point",
                "coordinates": [
                    23.5142671,
                    44.9628556
                ]
            },
            "properties": {
                "name": "Spitalul Or\u0103\u0219enesc"
            }
        },
        {
            "type": "Feature",
            "geometry": {
                "type": "Point",
                "coordinates": [
                    23.0263719,
                    45.7331603
                ]
            },
            "properties": {
                "name": "Centrul de S\u0103n\u0103tate C\u0103lan"
            }
        },
        {
            "type": "Feature",
            "geometry": {
                "type": "Point",
                "coordinates": [
                    26.0285103,
                    44.9391949
                ]
            },
            "properties": {
                "name": "dentist"
            }
        },
        {
            "type": "Feature",
            "geometry": {
                "type": "Point",
                "coordinates": [
                    26.0270234,
                    44.9340425
                ]
            }
        },
        {
            "type": "Feature",
            "geometry": {
                "type": "Point",
                "coordinates": [
                    25.9918822,
                    44.9413821
                ]
            },
            "properties": {
                "name": "Serviciu Ambulanta"
            }
        },
        {
            "type": "Feature",
            "geometry": {
                "type": "Point",
                "coordinates": [
                    25.7794569,
                    45.8641805
                ]
            },
            "properties": {
                "name": "Spitalul Jude\u021bean Dr. Fogoly\u00e1n Krist\u00f3f"
            }
        },
        {
            "type": "Feature",
            "geometry": {
                "type": "Point",
                "coordinates": [
                    25.7791747,
                    45.8636238
                ]
            },
            "properties": {
                "name": "Policlinica"
            }
        },
        {
            "type": "Feature",
            "geometry": {
                "type": "Point",
                "coordinates": [
                    25.3583204,
                    47.3478745
                ]
            },
            "properties": {
                "name": "Spitalul Municipal"
            }
        },
        {
            "type": "Feature",
            "geometry": {
                "type": "Point",
                "coordinates": [
                    25.3557388,
                    47.3477065
                ]
            },
            "properties": {
                "name": "Policlinica Municipal\u0103"
            }
        },
        {
            "type": "Feature",
            "geometry": {
                "type": "Point",
                "coordinates": [
                    25.3596782,
                    47.3533083
                ]
            },
            "properties": {
                "name": "Sec\u021bia de boli infec\u021bioase"
            }
        },
        {
            "type": "Feature",
            "geometry": {
                "type": "Point",
                "coordinates": [
                    24.1432856,
                    45.7948919
                ]
            },
            "properties": {
                "name": "Spitalul TBC"
            }
        },
        {
            "type": "Feature",
            "geometry": {
                "type": "Point",
                "coordinates": [
                    24.1564076,
                    45.8071281
                ]
            },
            "properties": {
                "name": "Maternitatea de Psihologie"
            }
        },
        {
            "type": "Feature",
            "geometry": {
                "type": "Point",
                "coordinates": [
                    26.3740105,
                    46.9270941
                ]
            },
            "properties": {
                "name": "Spitalul Jude\u021bean Neam\u021b"
            }
        },
        {
            "type": "Feature",
            "geometry": {
                "type": "Point",
                "coordinates": [
                    26.0197179,
                    44.9315734
                ]
            },
            "properties": {
                "name": "Shuller"
            }
        },
        {
            "type": "Feature",
            "geometry": {
                "type": "Point",
                "coordinates": [
                    26.0006336,
                    44.9507145
                ]
            },
            "properties": {
                "name": "Spitalul de Boli Infec\u021bioase"
            }
        },
        {
            "type": "Feature",
            "geometry": {
                "type": "Point",
                "coordinates": [
                    25.9926593,
                    44.9423976
                ]
            },
            "properties": {
                "name": "Centrul de Transfuzie Sanguin\u0103"
            }
        },
        {
            "type": "Feature",
            "geometry": {
                "type": "Point",
                "coordinates": [
                    22.9037634,
                    45.7492669
                ]
            },
            "properties": {
                "name": "Spitalul de Boli Cronice"
            }
        },
        {
            "type": "Feature",
            "geometry": {
                "type": "Point",
                "coordinates": [
                    26.092252,
                    44.4895413
                ]
            },
            "properties": {
                "name": "ALIA Medical Center"
            }
        },
        {
            "type": "Feature",
            "geometry": {
                "type": "Point",
                "coordinates": [
                    22.8722157,
                    47.7984431
                ]
            },
            "properties": {
                "name": "Spitalul Municipal Satu Mare"
            }
        },
        {
            "type": "Feature",
            "geometry": {
                "type": "Point",
                "coordinates": [
                    22.8718981,
                    47.7989447
                ]
            },
            "properties": {
                "name": "Spitalul de Psihiatrie"
            }
        },
        {
            "type": "Feature",
            "geometry": {
                "type": "Point",
                "coordinates": [
                    22.859015,
                    47.7871125
                ]
            },
            "properties": {
                "name": "Laborator de S\u0103n\u0103tate Mintal\u0103"
            }
        },
        {
            "type": "Feature",
            "geometry": {
                "type": "Point",
                "coordinates": [
                    28.0188216,
                    45.4194413
                ]
            },
            "properties": {
                "name": "Policlinica Jude\u021bean\u0103 \"Sf\u00e2ntul Apostol Andrei\""
            }
        },
        {
            "type": "Feature",
            "geometry": {
                "type": "Point",
                "coordinates": [
                    21.95419,
                    47.0641814
                ]
            },
            "properties": {
                "name": "Spitalul Clinic Judetean"
            }
        },
        {
            "type": "Feature",
            "geometry": {
                "type": "Point",
                "coordinates": [
                    23.5902518,
                    47.6611589
                ]
            }
        },
        {
            "type": "Feature",
            "geometry": {
                "type": "Point",
                "coordinates": [
                    23.1870352,
                    45.842209
                ]
            },
            "properties": {
                "name": "Spitalul Municipal Or\u0103\u0219tie"
            }
        },
        {
            "type": "Feature",
            "geometry": {
                "type": "Point",
                "coordinates": [
                    25.4507427,
                    44.923597
                ]
            },
            "properties": {
                "name": "Spitalul Jude\u021bean"
            }
        },
        {
            "type": "Feature",
            "geometry": {
                "type": "Point",
                "coordinates": [
                    26.1744422,
                    44.4981209
                ]
            },
            "properties": {
                "name": "Centrul medical NATURALIA"
            }
        },
        {
            "type": "Feature",
            "geometry": {
                "type": "Point",
                "coordinates": [
                    22.1316241,
                    46.3725991
                ]
            },
            "properties": {
                "name": "Spitalul Sebi\u0219"
            }
        },
        {
            "type": "Feature",
            "geometry": {
                "type": "Point",
                "coordinates": [
                    23.1634545,
                    44.89882
                ]
            },
            "properties": {
                "name": "Spitalul Or\u0103\u0219enesc"
            }
        },
        {
            "type": "Feature",
            "geometry": {
                "type": "Point",
                "coordinates": [
                    28.7848249,
                    45.1737587
                ]
            },
            "properties": {
                "name": "Spitalul Jude\u021bean"
            }
        },
        {
            "type": "Feature",
            "geometry": {
                "type": "Point",
                "coordinates": [
                    26.5557634,
                    47.0851762
                ]
            },
            "properties": {
                "name": "C\u0103min Spital"
            }
        },
        {
            "type": "Feature",
            "geometry": {
                "type": "Point",
                "coordinates": [
                    27.575204,
                    47.0071458
                ]
            },
            "properties": {
                "name": "Sp de Psihiatrie \u0219i M\u0103suri de Siguran\u021b\u0103"
            }
        },
        {
            "type": "Feature",
            "geometry": {
                "type": "Point",
                "coordinates": [
                    27.190055,
                    45.6969296
                ]
            },
            "properties": {
                "name": "Spitalul Militar Foc\u0219ani"
            }
        },
        {
            "type": "Feature",
            "geometry": {
                "type": "Point",
                "coordinates": [
                    21.9017864,
                    45.6821988
                ]
            },
            "properties": {
                "name": "Spitalul de copii"
            }
        },
        {
            "type": "Feature",
            "geometry": {
                "type": "Point",
                "coordinates": [
                    21.5157893,
                    46.5239335
                ]
            },
            "properties": {
                "name": "Spitalul Sf\u00e2ntul Gheorghe"
            }
        },
        {
            "type": "Feature",
            "geometry": {
                "type": "Point",
                "coordinates": [
                    27.432591,
                    45.841082
                ]
            },
            "properties": {
                "name": "Spital (fixme)"
            }
        },
        {
            "type": "Feature",
            "geometry": {
                "type": "Point",
                "coordinates": [
                    23.2745341,
                    45.0401597
                ]
            },
            "properties": {
                "name": "Spitalul Jude\u021bean Tudor Vladimirescu"
            }
        },
        {
            "type": "Feature",
            "geometry": {
                "type": "Point",
                "coordinates": [
                    23.3788243,
                    45.1808473
                ]
            },
            "properties": {
                "name": "Spitalul Or\u0103\u0219enesc"
            }
        },
        {
            "type": "Feature",
            "geometry": {
                "type": "Point",
                "coordinates": [
                    26.0986445,
                    44.4310727
                ]
            },
            "properties": {
                "name": "Institutul Na\u021bional de Recuperare, Medicin\u0103 Fizic\u0103 \u0219i Balneoclimatologie"
            }
        },
        {
            "type": "Feature",
            "geometry": {
                "type": "Point",
                "coordinates": [
                    26.1393852,
                    44.426579
                ]
            },
            "properties": {
                "name": "Spitalul de boli infec\u021bioase \u0219i tropicale \"Dr.Victor Babe\u0219\""
            }
        },
        {
            "type": "Feature",
            "geometry": {
                "type": "Point",
                "coordinates": [
                    23.1221304,
                    45.3319073
                ]
            },
            "properties": {
                "name": "Spitalul Or\u0103\u0219enesc"
            }
        },
        {
            "type": "Feature",
            "geometry": {
                "type": "Point",
                "coordinates": [
                    24.1430113,
                    45.797659
                ]
            }
        },
        {
            "type": "Feature",
            "geometry": {
                "type": "Point",
                "coordinates": [
                    24.964765,
                    44.0994384
                ]
            },
            "properties": {
                "name": "Spitalul de Pneumoftiziologie"
            }
        },
        {
            "type": "Feature",
            "geometry": {
                "type": "Point",
                "coordinates": [
                    24.9876379,
                    44.115025
                ]
            },
            "properties": {
                "name": "Spitalul de stat Caritas"
            }
        },
        {
            "type": "Feature",
            "geometry": {
                "type": "Point",
                "coordinates": [
                    26.1333309,
                    44.4227538
                ]
            },
            "properties": {
                "name": "Policlinica Gral Medical"
            }
        },
        {
            "type": "Feature",
            "geometry": {
                "type": "Point",
                "coordinates": [
                    27.594555,
                    47.1417711
                ]
            },
            "properties": {
                "name": "Ia\u0219iSting- Spit Reg Sf Sava-Recumedis"
            }
        },
        {
            "type": "Feature",
            "geometry": {
                "type": "Point",
                "coordinates": [
                    26.1138286,
                    44.4438896
                ]
            },
            "properties": {
                "name": "Clinica de oftalmologie Ama Optimex"
            }
        },
        {
            "type": "Feature",
            "geometry": {
                "type": "Point",
                "coordinates": [
                    23.5578161,
                    46.0720707
                ]
            },
            "properties": {
                "name": "Spitalul Jude\u021bean de Urgen\u021b\u0103"
            }
        },
        {
            "type": "Feature",
            "geometry": {
                "type": "Point",
                "coordinates": [
                    23.5770175,
                    46.7674391
                ]
            },
            "properties": {
                "name": "Centrul Medical Halmasan"
            }
        },
        {
            "type": "Feature",
            "geometry": {
                "type": "Point",
                "coordinates": [
                    23.5852355,
                    46.7648425
                ]
            },
            "properties": {
                "name": "Policlinica Spital Salvosan Ciobanca"
            }
        },
        {
            "type": "Feature",
            "geometry": {
                "type": "Point",
                "coordinates": [
                    22.8622824,
                    47.7988666
                ]
            },
            "properties": {
                "name": "Clinica privat\u0103 de Chirurgie Plastic\u0103 \u0219i Estetic\u0103 ELISESTET"
            }
        },
        {
            "type": "Feature",
            "geometry": {
                "type": "Point",
                "coordinates": [
                    27.5800235,
                    47.149609
                ]
            },
            "properties": {
                "name": "Policlinica Cantemir"
            }
        },
        {
            "type": "Feature",
            "geometry": {
                "type": "Point",
                "coordinates": [
                    26.0822248,
                    44.4327743
                ]
            },
            "properties": {
                "name": "Institutul Na\u021bional de Cercetare-Dezvoltarepentru Microbiologie \u0219i Imunologie\u201cCantacuzino\u201d"
            }
        },
        {
            "type": "Feature",
            "geometry": {
                "type": "Point",
                "coordinates": [
                    27.574683,
                    47.1710157
                ]
            },
            "properties": {
                "name": "Spitalul Clinic C.F.R."
            }
        },
        {
            "type": "Feature",
            "geometry": {
                "type": "Point",
                "coordinates": [
                    22.9051033,
                    45.7500474
                ]
            },
            "properties": {
                "name": "Ambulanta Hunedoara"
            }
        },
        {
            "type": "Feature",
            "geometry": {
                "type": "Point",
                "coordinates": [
                    24.8468986,
                    44.8712411
                ]
            },
            "properties": {
                "name": "Spitalul Jude\u021bean Arge\u0219"
            }
        },
        {
            "type": "Feature",
            "geometry": {
                "type": "Point",
                "coordinates": [
                    24.3496722,
                    47.6593039
                ]
            }
        },
        {
            "type": "Feature",
            "geometry": {
                "type": "Point",
                "coordinates": [
                    26.126314,
                    44.4230706
                ]
            },
            "properties": {
                "name": "Policlinica Vitan"
            }
        },
        {
            "type": "Feature",
            "geometry": {
                "type": "Point",
                "coordinates": [
                    27.6075281,
                    47.1616184
                ]
            },
            "properties": {
                "name": "Vital Test"
            }
        },
        {
            "type": "Feature",
            "geometry": {
                "type": "Point",
                "coordinates": [
                    26.1082331,
                    44.4216617
                ]
            },
            "properties": {
                "name": "Maternitatea Bucur"
            }
        },
        {
            "type": "Feature",
            "geometry": {
                "type": "Point",
                "coordinates": [
                    26.0743151,
                    44.4970463
                ]
            },
            "properties": {
                "name": "Centrul Medical Unirea - CMU Baneasa"
            }
        },
        {
            "type": "Feature",
            "geometry": {
                "type": "Point",
                "coordinates": [
                    25.5161688,
                    44.2788073
                ]
            },
            "properties": {
                "name": "Spitalul Videle"
            }
        },
        {
            "type": "Feature",
            "geometry": {
                "type": "Point",
                "coordinates": [
                    26.0741379,
                    44.4826348
                ]
            },
            "properties": {
                "name": "Centrul Medical Unirea - CMU Bucharest Business Park"
            }
        },
        {
            "type": "Feature",
            "geometry": {
                "type": "Point",
                "coordinates": [
                    26.0264874,
                    44.4349981
                ]
            },
            "properties": {
                "name": "Policlinica de copii"
            }
        },
        {
            "type": "Feature",
            "geometry": {
                "type": "Point",
                "coordinates": [
                    23.7903518,
                    45.1939772
                ]
            },
            "properties": {
                "name": "Sta\u021bia SALVAMONT Gorj"
            }
        },
        {
            "type": "Feature",
            "geometry": {
                "type": "Point",
                "coordinates": [
                    26.8243225,
                    45.1530738
                ]
            },
            "properties": {
                "name": "Clinica Sante"
            }
        },
        {
            "type": "Feature",
            "geometry": {
                "type": "Point",
                "coordinates": [
                    23.5834712,
                    46.7676822
                ]
            },
            "properties": {
                "name": "Centrul clinic de diagnostic \u0219i tratament"
            }
        },
        {
            "type": "Feature",
            "geometry": {
                "type": "Point",
                "coordinates": [
                    24.2888095,
                    43.8582805
                ]
            },
            "properties": {
                "name": "Dispensar"
            }
        },
        {
            "type": "Feature",
            "geometry": {
                "type": "Point",
                "coordinates": [
                    22.4634168,
                    47.680698
                ]
            }
        },
        {
            "type": "Feature",
            "geometry": {
                "type": "Point",
                "coordinates": [
                    26.1142017,
                    44.410914
                ]
            },
            "properties": {
                "name": "Eurodent"
            }
        },
        {
            "type": "Feature",
            "geometry": {
                "type": "Point",
                "coordinates": [
                    28.6447444,
                    44.1808591
                ]
            },
            "properties": {
                "name": "Clinica particulara de chirurgie generala Medstar 2000"
            }
        },
        {
            "type": "Feature",
            "geometry": {
                "type": "Point",
                "coordinates": [
                    26.1583432,
                    44.4381496
                ]
            },
            "properties": {
                "name": "Clinica Medical\u0103 Hypocrat 2000"
            }
        },
        {
            "type": "Feature",
            "geometry": {
                "type": "Point",
                "coordinates": [
                    25.3138358,
                    43.9795677
                ]
            },
            "properties": {
                "name": "Spitalul Jude\u021bean Teleorman"
            }
        },
        {
            "type": "Feature",
            "geometry": {
                "type": "Point",
                "coordinates": [
                    26.0790405,
                    44.4564896
                ]
            },
            "properties": {
                "name": "Spitalul Sf\u00e2nta Maria"
            }
        },
        {
            "type": "Feature",
            "geometry": {
                "type": "Point",
                "coordinates": [
                    25.3156624,
                    43.980404
                ]
            },
            "properties": {
                "name": "Ambulanta Teleorman"
            }
        },
        {
            "type": "Feature",
            "geometry": {
                "type": "Point",
                "coordinates": [
                    24.7929194,
                    46.2218953
                ]
            },
            "properties": {
                "name": "Policlinica"
            }
        },
        {
            "type": "Feature",
            "geometry": {
                "type": "Point",
                "coordinates": [
                    24.7871661,
                    46.2195292
                ]
            },
            "properties": {
                "name": "Dispensarul TBC"
            }
        },
        {
            "type": "Feature",
            "geometry": {
                "type": "Point",
                "coordinates": [
                    25.613321,
                    45.6502626
                ]
            },
            "properties": {
                "name": "Clinica Eva"
            }
        },
        {
            "type": "Feature",
            "geometry": {
                "type": "Point",
                "coordinates": [
                    26.0542476,
                    44.4646923
                ]
            },
            "properties": {
                "name": "Medlife Grivi\u021ba"
            }
        },
        {
            "type": "Feature",
            "geometry": {
                "type": "Point",
                "coordinates": [
                    28.5775541,
                    43.7866452
                ]
            },
            "properties": {
                "name": "Cabinete Medicale"
            }
        },
        {
            "type": "Feature",
            "geometry": {
                "type": "Point",
                "coordinates": [
                    24.1449873,
                    45.7087694
                ]
            },
            "properties": {
                "name": "Spitalul Cisn\u0103die"
            }
        },
        {
            "type": "Feature",
            "geometry": {
                "type": "Point",
                "coordinates": [
                    26.1130414,
                    44.4279092
                ]
            }
        },
        {
            "type": "Feature",
            "geometry": {
                "type": "Point",
                "coordinates": [
                    26.1182628,
                    44.4279535
                ]
            }
        },
        {
            "type": "Feature",
            "geometry": {
                "type": "Point",
                "coordinates": [
                    28.6431182,
                    44.1754896
                ]
            },
            "properties": {
                "name": "Policlinica cu plat\u0103"
            }
        },
        {
            "type": "Feature",
            "geometry": {
                "type": "Point",
                "coordinates": [
                    23.5851889,
                    46.7619762
                ]
            },
            "properties": {
                "name": "Clinica de Endocrinologie"
            }
        },
        {
            "type": "Feature",
            "geometry": {
                "type": "Point",
                "coordinates": [
                    24.5768488,
                    46.5394804
                ]
            },
            "properties": {
                "name": "Centru Medical Gastroenterologie"
            }
        },
        {
            "type": "Feature",
            "geometry": {
                "type": "Point",
                "coordinates": [
                    24.5771923,
                    46.5395291
                ]
            },
            "properties": {
                "name": "Centrul Alma Medical"
            }
        },
        {
            "type": "Feature",
            "geometry": {
                "type": "Point",
                "coordinates": [
                    21.2446159,
                    45.7624244
                ]
            },
            "properties": {
                "name": "Cabinet Dr. Iana Elena Cristina"
            }
        },
        {
            "type": "Feature",
            "geometry": {
                "type": "Point",
                "coordinates": [
                    21.2444909,
                    45.7619478
                ]
            },
            "properties": {
                "name": "Cabinet Radiografie Dentara"
            }
        },
        {
            "type": "Feature",
            "geometry": {
                "type": "Point",
                "coordinates": [
                    26.1010363,
                    44.4545808
                ]
            },
            "properties": {
                "name": "Spitalul Euroclinic - Regina Maria"
            }
        },
        {
            "type": "Feature",
            "geometry": {
                "type": "Point",
                "coordinates": [
                    26.0402159,
                    44.9394268
                ]
            },
            "properties": {
                "name": "Spitalul de Obstetric\u0103 \u0219i Ginecologie"
            }
        },
        {
            "type": "Feature",
            "geometry": {
                "type": "Point",
                "coordinates": [
                    26.0491687,
                    44.4002609
                ]
            },
            "properties": {
                "name": "AIS Clinics & Hospitals"
            }
        },
        {
            "type": "Feature",
            "geometry": {
                "type": "Point",
                "coordinates": [
                    24.3625832,
                    45.1185439
                ]
            },
            "properties": {
                "name": "Spitalul Jude\u021bean de Urgen\u021b\u0103 - V\u00e2lcea"
            }
        },
        {
            "type": "Feature",
            "geometry": {
                "type": "Point",
                "coordinates": [
                    26.0247874,
                    44.9292264
                ]
            },
            "properties": {
                "name": "Clinica ProSmile"
            }
        },
        {
            "type": "Feature",
            "geometry": {
                "type": "Point",
                "coordinates": [
                    25.6065734,
                    45.6508339
                ]
            },
            "properties": {
                "name": "Spitalul Regina Maria"
            }
        },
        {
            "type": "Feature",
            "geometry": {
                "type": "Point",
                "coordinates": [
                    27.4336781,
                    45.843052
                ]
            },
            "properties": {
                "name": "Cabinet de Ginecologie"
            }
        },
        {
            "type": "Feature",
            "geometry": {
                "type": "Point",
                "coordinates": [
                    25.8971132,
                    47.5562037
                ]
            },
            "properties": {
                "name": "Spital copii"
            }
        },
        {
            "type": "Feature",
            "geometry": {
                "type": "Point",
                "coordinates": [
                    26.0405642,
                    44.4223906
                ]
            },
            "properties": {
                "name": "Lasermed Medical Center"
            }
        },
        {
            "type": "Feature",
            "geometry": {
                "type": "Point",
                "coordinates": [
                    25.7312023,
                    45.1261708
                ]
            },
            "properties": {
                "name": "Cabinetul Stomatologic Cabident."
            }
        },
        {
            "type": "Feature",
            "geometry": {
                "type": "Point",
                "coordinates": [
                    21.4989989,
                    46.343797
                ]
            }
        },
        {
            "type": "Feature",
            "geometry": {
                "type": "Point",
                "coordinates": [
                    23.5823846,
                    46.754776
                ]
            },
            "properties": {
                "name": "Spitalul de Recuperare"
            }
        },
        {
            "type": "Feature",
            "geometry": {
                "type": "Point",
                "coordinates": [
                    21.2383194,
                    45.7736642
                ]
            },
            "properties": {
                "name": "Centrul Medical DALMED"
            }
        },
        {
            "type": "Feature",
            "geometry": {
                "type": "Point",
                "coordinates": [
                    24.8408579,
                    44.8773736
                ]
            }
        },
        {
            "type": "Feature",
            "geometry": {
                "type": "Point",
                "coordinates": [
                    24.8690668,
                    44.8616606
                ]
            },
            "properties": {
                "name": "Centru de diagnosticare Br\u0103tianu"
            }
        },
        {
            "type": "Feature",
            "geometry": {
                "type": "Point",
                "coordinates": [
                    24.8436593,
                    44.8712223
                ]
            },
            "properties": {
                "name": "BRD"
            }
        },
        {
            "type": "Feature",
            "geometry": {
                "type": "Point",
                "coordinates": [
                    24.8425829,
                    44.8775301
                ]
            }
        },
        {
            "type": "Feature",
            "geometry": {
                "type": "Point",
                "coordinates": [
                    24.8674639,
                    44.85877
                ]
            },
            "properties": {
                "name": "Implant & Esthetic Center - Clinica Stomatologic\u0103"
            }
        },
        {
            "type": "Feature",
            "geometry": {
                "type": "Point",
                "coordinates": [
                    24.8688389,
                    44.8621524
                ]
            },
            "properties": {
                "name": "Centru medical"
            }
        },
        {
            "type": "Feature",
            "geometry": {
                "type": "Point",
                "coordinates": [
                    24.867352,
                    44.8609212
                ]
            },
            "properties": {
                "name": "Centru de oncologie"
            }
        },
        {
            "type": "Feature",
            "geometry": {
                "type": "Point",
                "coordinates": [
                    24.8442117,
                    44.8711954
                ]
            },
            "properties": {
                "name": "Centru Medical Natisan"
            }
        },
        {
            "type": "Feature",
            "geometry": {
                "type": "Point",
                "coordinates": [
                    24.8677238,
                    44.8525738
                ]
            },
            "properties": {
                "name": "Cabinet Medical Cadar Sorin"
            }
        },
        {
            "type": "Feature",
            "geometry": {
                "type": "Point",
                "coordinates": [
                    24.8407475,
                    44.8772563
                ]
            }
        },
        {
            "type": "Feature",
            "geometry": {
                "type": "Point",
                "coordinates": [
                    24.8650573,
                    44.8509829
                ]
            },
            "properties": {
                "name": "Spitalul de Pediatrie Arge\u0219"
            }
        },
        {
            "type": "Feature",
            "geometry": {
                "type": "Point",
                "coordinates": [
                    24.8688182,
                    44.8633415
                ]
            },
            "properties": {
                "name": "Laborator de radiologie"
            }
        },
        {
            "type": "Feature",
            "geometry": {
                "type": "Point",
                "coordinates": [
                    24.8654493,
                    44.8557444
                ]
            },
            "properties": {
                "name": "Cabinet Ginecologic"
            }
        },
        {
            "type": "Feature",
            "geometry": {
                "type": "Point",
                "coordinates": [
                    24.8748203,
                    44.862956
                ]
            },
            "properties": {
                "name": "Cabinet psihologic"
            }
        },
        {
            "type": "Feature",
            "geometry": {
                "type": "Point",
                "coordinates": [
                    24.8622915,
                    44.8550932
                ]
            },
            "properties": {
                "name": "Stomatologia Medical Tour Company"
            }
        },
        {
            "type": "Feature",
            "geometry": {
                "type": "Point",
                "coordinates": [
                    24.9171217,
                    44.8290094
                ]
            }
        },
        {
            "type": "Feature",
            "geometry": {
                "type": "Point",
                "coordinates": [
                    24.8697399,
                    44.8641342
                ]
            },
            "properties": {
                "name": "Policlinica stomatologic\u0103"
            }
        },
        {
            "type": "Feature",
            "geometry": {
                "type": "Point",
                "coordinates": [
                    25.5472836,
                    45.3484972
                ]
            },
            "properties": {
                "name": "Spital"
            }
        },
        {
            "type": "Feature",
            "geometry": {
                "type": "Point",
                "coordinates": [
                    26.1181618,
                    44.4277923
                ]
            }
        },
        {
            "type": "Feature",
            "geometry": {
                "type": "Point",
                "coordinates": [
                    25.5955503,
                    45.6622252
                ]
            },
            "properties": {
                "name": "\"MEDO\" international medical center - 24/24"
            }
        },
        {
            "type": "Feature",
            "geometry": {
                "type": "Point",
                "coordinates": [
                    26.3009784,
                    47.4638624
                ]
            },
            "properties": {
                "name": "Maternitatea F\u0103lticeni"
            }
        },
        {
            "type": "Feature",
            "geometry": {
                "type": "Point",
                "coordinates": [
                    26.2957182,
                    47.4612254
                ]
            },
            "properties": {
                "name": "Spitalul municipal F\u0103lticeni"
            }
        },
        {
            "type": "Feature",
            "geometry": {
                "type": "Point",
                "coordinates": [
                    25.7807696,
                    45.8632705
                ]
            },
            "properties": {
                "name": "Ambulan\u021ba"
            }
        },
        {
            "type": "Feature",
            "geometry": {
                "type": "Point",
                "coordinates": [
                    23.583976,
                    46.7669709
                ]
            },
            "properties": {
                "name": "Centrul Medica de Diabet"
            }
        },
        {
            "type": "Feature",
            "geometry": {
                "type": "Point",
                "coordinates": [
                    22.8792812,
                    47.7937812
                ]
            },
            "properties": {
                "name": "Dr. Heim Manuela"
            }
        },
        {
            "type": "Feature",
            "geometry": {
                "type": "Point",
                "coordinates": [
                    26.1653042,
                    44.4422644
                ]
            },
            "properties": {
                "name": "Policlinic\u0103"
            }
        },
        {
            "type": "Feature",
            "geometry": {
                "type": "Point",
                "coordinates": [
                    26.5481651,
                    44.8667009
                ]
            },
            "properties": {
                "name": "Dispensar Medical"
            }
        },
        {
            "type": "Feature",
            "geometry": {
                "type": "Point",
                "coordinates": [
                    23.592861,
                    46.7844802
                ]
            },
            "properties": {
                "name": "Clinica de Psihiatrie pentru Ergoterapie"
            }
        },
        {
            "type": "Feature",
            "geometry": {
                "type": "Point",
                "coordinates": [
                    23.5680776,
                    45.9510285
                ]
            },
            "properties": {
                "name": "Spitalul Municipal Sebe\u0219"
            }
        },
        {
            "type": "Feature",
            "geometry": {
                "type": "Point",
                "coordinates": [
                    21.690075,
                    46.0906862
                ]
            },
            "properties": {
                "name": "Spitalul de stat"
            }
        },
        {
            "type": "Feature",
            "geometry": {
                "type": "Point",
                "coordinates": [
                    21.6921601,
                    46.0904332
                ]
            },
            "properties": {
                "name": "Spitalul Oraseesc"
            }
        },
        {
            "type": "Feature",
            "geometry": {
                "type": "Point",
                "coordinates": [
                    26.1002688,
                    44.4487358
                ]
            },
            "properties": {
                "name": "Centrul de diagnostic \u0219i tratament"
            }
        },
        {
            "type": "Feature",
            "geometry": {
                "type": "Point",
                "coordinates": [
                    26.0991315,
                    44.451313
                ]
            },
            "properties": {
                "name": "Ambulatoriul de specialitate al Spitalului de copii Grigore Alexandrescu"
            }
        },
        {
            "type": "Feature",
            "geometry": {
                "type": "Point",
                "coordinates": [
                    26.0897321,
                    44.4646584
                ]
            },
            "properties": {
                "name": "Policlinica Regina Maria"
            }
        },
        {
            "type": "Feature",
            "geometry": {
                "type": "Point",
                "coordinates": [
                    23.5833318,
                    46.7669143
                ]
            },
            "properties": {
                "name": "Institutul Inimii \u201eNiculae St\u0103ncioiu\u201d"
            }
        },
        {
            "type": "Feature",
            "geometry": {
                "type": "Point",
                "coordinates": [
                    25.318619,
                    44.7218367
                ]
            },
            "properties": {
                "name": "Cabinete medicale individuale"
            }
        },
        {
            "type": "Feature",
            "geometry": {
                "type": "Point",
                "coordinates": [
                    28.4796076,
                    44.1645353
                ]
            },
            "properties": {
                "name": "Cabinete Medicale Individuale"
            }
        },
        {
            "type": "Feature",
            "geometry": {
                "type": "Point",
                "coordinates": [
                    26.1339576,
                    44.4555
                ]
            },
            "properties": {
                "name": "Centrul Medical \u201eSf. Andrei\u201d"
            }
        },
        {
            "type": "Feature",
            "geometry": {
                "type": "Point",
                "coordinates": [
                    28.0191736,
                    45.4304417
                ]
            },
            "properties": {
                "name": "Cabinete Medicale"
            }
        },
        {
            "type": "Feature",
            "geometry": {
                "type": "Point",
                "coordinates": [
                    25.4717221,
                    44.9163076
                ]
            },
            "properties": {
                "name": "Biomedica"
            }
        },
        {
            "type": "Feature",
            "geometry": {
                "type": "Point",
                "coordinates": [
                    27.7368251,
                    46.6554321
                ]
            },
            "properties": {
                "name": "Spitalul Jude\u021bean Vaslui"
            }
        },
        {
            "type": "Feature",
            "geometry": {
                "type": "Point",
                "coordinates": [
                    27.7262893,
                    46.6331916
                ]
            },
            "properties": {
                "name": "Spitalul Vechi"
            }
        },
        {
            "type": "Feature",
            "geometry": {
                "type": "Point",
                "coordinates": [
                    25.6742269,
                    44.3422268
                ]
            },
            "properties": {
                "name": "Spitalul de psihiatrie Vadu Lat"
            }
        },
        {
            "type": "Feature",
            "geometry": {
                "type": "Point",
                "coordinates": [
                    27.4968448,
                    45.502802
                ]
            },
            "properties": {
                "name": "M\u0103ic\u0103ne\u0219ti"
            }
        },
        {
            "type": "Feature",
            "geometry": {
                "type": "Point",
                "coordinates": [
                    26.448467,
                    46.418749
                ]
            },
            "properties": {
                "name": "Spitalul Ioan Lasc\u0103r"
            }
        },
        {
            "type": "Feature",
            "geometry": {
                "type": "Point",
                "coordinates": [
                    24.5527386,
                    46.5364203
                ]
            },
            "properties": {
                "name": "Centrul Medical TOPMED"
            }
        },
        {
            "type": "Feature",
            "geometry": {
                "type": "Point",
                "coordinates": [
                    26.1436312,
                    44.4684614
                ]
            },
            "properties": {
                "name": "HCFI MED S.A."
            }
        },
        {
            "type": "Feature",
            "geometry": {
                "type": "Point",
                "coordinates": [
                    26.0916346,
                    44.4899542
                ]
            },
            "properties": {
                "name": "Medicover Hospital Pipera"
            }
        },
        {
            "type": "Feature",
            "geometry": {
                "type": "Point",
                "coordinates": [
                    23.7989295,
                    45.8859866
                ]
            },
            "properties": {
                "name": "Spital"
            }
        },
        {
            "type": "Feature",
            "geometry": {
                "type": "Point",
                "coordinates": [
                    25.047536,
                    45.2777752
                ]
            },
            "properties": {
                "name": "Spitalul Pneumoftiziologie C\u00e2mpulung TBC"
            }
        },
        {
            "type": "Feature",
            "geometry": {
                "type": "Point",
                "coordinates": [
                    23.9247694,
                    46.1791954
                ]
            },
            "properties": {
                "name": "Spitalul Municipal Blaj"
            }
        },
        {
            "type": "Feature",
            "geometry": {
                "type": "Point",
                "coordinates": [
                    25.7329635,
                    45.1277723
                ]
            },
            "properties": {
                "name": "Policlinica Municipiului C\u00e2mpina"
            }
        },
        {
            "type": "Feature",
            "geometry": {
                "type": "Point",
                "coordinates": [
                    25.801477,
                    46.3565568
                ]
            },
            "properties": {
                "name": "Spitalul Municipal"
            }
        },
        {
            "type": "Feature",
            "geometry": {
                "type": "Point",
                "coordinates": [
                    27.5739552,
                    47.1492788
                ]
            },
            "properties": {
                "name": "Spitalul Clinic de Recuperare"
            }
        },
        {
            "type": "Feature",
            "geometry": {
                "type": "Point",
                "coordinates": [
                    28.0477768,
                    45.5687492
                ]
            }
        },
        {
            "type": "Feature",
            "geometry": {
                "type": "Point",
                "coordinates": [
                    23.8892212,
                    45.7912328
                ]
            },
            "properties": {
                "name": "Spital"
            }
        },
        {
            "type": "Feature",
            "geometry": {
                "type": "Point",
                "coordinates": [
                    27.6030098,
                    47.1680446
                ]
            },
            "properties": {
                "name": "Spitalul Pa\u0219canu"
            }
        },
        {
            "type": "Feature",
            "geometry": {
                "type": "Point",
                "coordinates": [
                    28.3587565,
                    45.2631331
                ]
            },
            "properties": {
                "name": "Spitalul de Leprosi (Leper Colony)"
            }
        },
        {
            "type": "Feature",
            "geometry": {
                "type": "Point",
                "coordinates": [
                    27.5731628,
                    47.1708585
                ]
            },
            "properties": {
                "name": "Policlinica C.F.R."
            }
        },
        {
            "type": "Feature",
            "geometry": {
                "type": "Point",
                "coordinates": [
                    26.4400462,
                    44.9994827
                ]
            }
        },
        {
            "type": "Feature",
            "geometry": {
                "type": "Point",
                "coordinates": [
                    26.443576,
                    45.0031924
                ]
            },
            "properties": {
                "name": "Spitalul Or\u0103\u0219enesc Sf\u00e2nta Filofteia"
            }
        },
        {
            "type": "Feature",
            "geometry": {
                "type": "Point",
                "coordinates": [
                    25.5915544,
                    46.0727043
                ]
            },
            "properties": {
                "name": "K\u00f3rh\u00e1z"
            }
        },
        {
            "type": "Feature",
            "geometry": {
                "type": "Point",
                "coordinates": [
                    25.1837689,
                    46.4747252
                ]
            }
        },
        {
            "type": "Feature",
            "geometry": {
                "type": "Point",
                "coordinates": [
                    27.9528046,
                    45.2500589
                ]
            },
            "properties": {
                "name": "Dispensar Viziru III"
            }
        },
        {
            "type": "Feature",
            "geometry": {
                "type": "Point",
                "coordinates": [
                    27.5868471,
                    47.1636589
                ]
            },
            "properties": {
                "name": "Spitalul Clinic de Obstetric\u0103-Ginecologie \u201eCuza Vod\u0103\u201d Ia\u0219i"
            }
        },
        {
            "type": "Feature",
            "geometry": {
                "type": "Point",
                "coordinates": [
                    27.5827219,
                    47.1697676
                ]
            },
            "properties": {
                "name": "Centrul Regional de Transfuzii Sanguine"
            }
        },
        {
            "type": "Feature",
            "geometry": {
                "type": "Point",
                "coordinates": [
                    27.5682868,
                    47.1805903
                ]
            },
            "properties": {
                "name": "Spitalul Clinic \u201eC.I. Parhon\u201d"
            }
        },
        {
            "type": "Feature",
            "geometry": {
                "type": "Point",
                "coordinates": [
                    27.6077094,
                    47.1594167
                ]
            },
            "properties": {
                "name": "Spitalul Clinic de Urgen\u021b\u0103 pentru Copii \u201eSf. Maria\u201d"
            }
        },
        {
            "type": "Feature",
            "geometry": {
                "type": "Point",
                "coordinates": [
                    27.5710777,
                    47.1785865
                ]
            },
            "properties": {
                "name": "Policlinica cu Plat\u0103"
            }
        },
        {
            "type": "Feature",
            "geometry": {
                "type": "Point",
                "coordinates": [
                    27.5812169,
                    47.1693579
                ]
            },
            "properties": {
                "name": "Ambulatorul de Specialitate Sf\u00e2ntul Spiridon"
            }
        },
        {
            "type": "Feature",
            "geometry": {
                "type": "Point",
                "coordinates": [
                    22.4724594,
                    46.4759412
                ]
            },
            "properties": {
                "name": "Dispensarul uman"
            }
        },
        {
            "type": "Feature",
            "geometry": {
                "type": "Point",
                "coordinates": [
                    23.1636157,
                    45.9119807
                ]
            },
            "properties": {
                "name": "Spital TBC"
            }
        },
        {
            "type": "Feature",
            "geometry": {
                "type": "Point",
                "coordinates": [
                    26.0316059,
                    45.0325975
                ]
            },
            "properties": {
                "name": "Bestmed Serv"
            }
        },
        {
            "type": "Feature",
            "geometry": {
                "type": "Point",
                "coordinates": [
                    26.8783746,
                    47.4657854
                ]
            },
            "properties": {
                "name": "Preventoriu TBC pt Copii"
            }
        },
        {
            "type": "Feature",
            "geometry": {
                "type": "Point",
                "coordinates": [
                    27.1878019,
                    46.0919311
                ]
            },
            "properties": {
                "name": "Spitalul Municipal Adjud"
            }
        },
        {
            "type": "Feature",
            "geometry": {
                "type": "Point",
                "coordinates": [
                    26.2706362,
                    45.7601716
                ]
            },
            "properties": {
                "name": "Orvosi rendel\u0151"
            }
        },
        {
            "type": "Feature",
            "geometry": {
                "type": "Point",
                "coordinates": [
                    21.3084991,
                    46.180955
                ]
            },
            "properties": {
                "name": "Centrul Medical Laser System"
            }
        },
        {
            "type": "Feature",
            "geometry": {
                "type": "Point",
                "coordinates": [
                    25.596522,
                    45.6518601
                ]
            },
            "properties": {
                "name": "Spitalul M\u00e2rzescu"
            }
        },
        {
            "type": "Feature",
            "geometry": {
                "type": "Point",
                "coordinates": [
                    26.502416,
                    46.9538526
                ]
            },
            "properties": {
                "name": "Dispensarul Girov"
            }
        },
        {
            "type": "Feature",
            "geometry": {
                "type": "Point",
                "coordinates": [
                    25.821681,
                    44.4538206
                ]
            },
            "properties": {
                "name": "Spitalul Or\u0103\u0219enesc Bolintin-Deal"
            }
        },
        {
            "type": "Feature",
            "geometry": {
                "type": "Point",
                "coordinates": [
                    23.5836608,
                    46.7546333
                ]
            },
            "properties": {
                "name": "Centrul Medical Transilvania"
            }
        },
        {
            "type": "Feature",
            "geometry": {
                "type": "Point",
                "coordinates": [
                    25.1663518,
                    43.8005092
                ]
            },
            "properties": {
                "name": "Dispensar"
            }
        },
        {
            "type": "Feature",
            "geometry": {
                "type": "Point",
                "coordinates": [
                    21.9198089,
                    47.152146
                ]
            }
        },
        {
            "type": "Feature",
            "geometry": {
                "type": "Point",
                "coordinates": [
                    27.7235166,
                    46.9659571
                ]
            }
        },
        {
            "type": "Feature",
            "geometry": {
                "type": "Point",
                "coordinates": [
                    26.8523331,
                    44.4424731
                ]
            },
            "properties": {
                "name": "Spitalul Or\u0103\u0219enesc Lehliu-Gar\u0103"
            }
        },
        {
            "type": "Feature",
            "geometry": {
                "type": "Point",
                "coordinates": [
                    25.546908,
                    45.3488105
                ]
            },
            "properties": {
                "name": "Ambulatoriu pediatrie"
            }
        },
        {
            "type": "Feature",
            "geometry": {
                "type": "Point",
                "coordinates": [
                    26.5058961,
                    46.8389506
                ]
            },
            "properties": {
                "name": "Dispensar Roznov"
            }
        },
        {
            "type": "Feature",
            "geometry": {
                "type": "Point",
                "coordinates": [
                    26.291126,
                    44.3915064
                ]
            },
            "properties": {
                "name": "Centru de Recuperare \u0219i Reabilitare Neuropsihiatrica B\u0103l\u0103ceanca"
            }
        },
        {
            "type": "Feature",
            "geometry": {
                "type": "Point",
                "coordinates": [
                    26.1081491,
                    44.4217616
                ]
            },
            "properties": {
                "name": "Spitalul Clinic de Urgen\u021b\u0103 \"Sf\u00e2ntul Ioan\" Bucure\u0219ti"
            }
        },
        {
            "type": "Feature",
            "geometry": {
                "type": "Point",
                "coordinates": [
                    26.1054977,
                    44.4412069
                ]
            },
            "properties": {
                "name": "Centrul Metodologic de Reumatologie \"Dr. Ion Stoia\""
            }
        },
        {
            "type": "Feature",
            "geometry": {
                "type": "Point",
                "coordinates": [
                    26.1056125,
                    44.4148288
                ]
            },
            "properties": {
                "name": "Biostom Bucure\u0219ti"
            }
        },
        {
            "type": "Feature",
            "geometry": {
                "type": "Point",
                "coordinates": [
                    24.5622788,
                    44.0331618
                ]
            },
            "properties": {
                "name": "Dispensar"
            }
        },
        {
            "type": "Feature",
            "geometry": {
                "type": "Point",
                "coordinates": [
                    23.5929282,
                    46.7760909
                ]
            },
            "properties": {
                "name": "Clinica Medical\u0103 \u0219i Chirurgie 3"
            }
        },
        {
            "type": "Feature",
            "geometry": {
                "type": "Point",
                "coordinates": [
                    24.3536362,
                    44.1146199
                ]
            },
            "properties": {
                "name": "Centrul de Dializ\u0103"
            }
        },
        {
            "type": "Feature",
            "geometry": {
                "type": "Point",
                "coordinates": [
                    25.4663021,
                    45.5913205
                ]
            },
            "properties": {
                "name": "Policlinica"
            }
        },
        {
            "type": "Feature",
            "geometry": {
                "type": "Point",
                "coordinates": [
                    24.7057415,
                    45.7258055
                ]
            }
        },
        {
            "type": "Feature",
            "geometry": {
                "type": "Point",
                "coordinates": [
                    26.0726594,
                    44.4422754
                ]
            },
            "properties": {
                "name": "Spitalul Universitar de Urgen\u021b\u0103 Militar Central \"Dr. Carol Davila\""
            }
        },
        {
            "type": "Feature",
            "geometry": {
                "type": "Point",
                "coordinates": [
                    24.9445733,
                    44.9611814
                ]
            },
            "properties": {
                "name": "Spitalul de Urgen\u021b\u0103"
            }
        },
        {
            "type": "Feature",
            "geometry": {
                "type": "Point",
                "coordinates": [
                    26.072102,
                    44.435894
                ]
            },
            "properties": {
                "name": "Spitalul Universitar de Urgen\u021b\u0103 Bucure\u0219ti"
            }
        },
        {
            "type": "Feature",
            "geometry": {
                "type": "Point",
                "coordinates": [
                    25.802845,
                    44.7923944
                ]
            },
            "properties": {
                "name": "dispensar"
            }
        },
        {
            "type": "Feature",
            "geometry": {
                "type": "Point",
                "coordinates": [
                    25.7933417,
                    44.789686
                ]
            },
            "properties": {
                "name": "farmacie"
            }
        },
        {
            "type": "Feature",
            "geometry": {
                "type": "Point",
                "coordinates": [
                    26.0688266,
                    44.4321748
                ]
            },
            "properties": {
                "name": "Top Uni Derm Clinic Dermatology - Doctor Professor Olga Simionescu"
            }
        },
        {
            "type": "Feature",
            "geometry": {
                "type": "Point",
                "coordinates": [
                    21.9005972,
                    45.6830974
                ]
            },
            "properties": {
                "name": "Cabinet Stomatologic TRIDENT"
            }
        },
        {
            "type": "Feature",
            "geometry": {
                "type": "Point",
                "coordinates": [
                    26.0926043,
                    44.3864537
                ]
            },
            "properties": {
                "name": "Cabinet stomatologic"
            }
        },
        {
            "type": "Feature",
            "geometry": {
                "type": "Point",
                "coordinates": [
                    26.6336893,
                    44.0804252
                ]
            },
            "properties": {
                "name": "Spitalul municipal Olteni\u021ba, C\u0103l\u0103ra\u0219i"
            }
        },
        {
            "type": "Feature",
            "geometry": {
                "type": "Point",
                "coordinates": [
                    25.585149,
                    45.6573522
                ]
            },
            "properties": {
                "name": "Spital Clinicco"
            }
        },
        {
            "type": "Feature",
            "geometry": {
                "type": "Point",
                "coordinates": [
                    26.0726603,
                    44.4332803
                ]
            },
            "properties": {
                "name": "Medsana Cotroceni"
            }
        },
        {
            "type": "Feature",
            "geometry": {
                "type": "Point",
                "coordinates": [
                    25.7493332,
                    45.1591005
                ]
            },
            "properties": {
                "name": "Spitalul Psihiatric Voila"
            }
        },
        {
            "type": "Feature",
            "geometry": {
                "type": "Point",
                "coordinates": [
                    25.3560293,
                    46.9224615
                ]
            },
            "properties": {
                "name": "Spitalul Municipal"
            }
        },
        {
            "type": "Feature",
            "geometry": {
                "type": "Point",
                "coordinates": [
                    25.6272371,
                    45.6498904
                ]
            },
            "properties": {
                "name": "Farmacie"
            }
        },
        {
            "type": "Feature",
            "geometry": {
                "type": "Point",
                "coordinates": [
                    21.7768512,
                    45.0595983
                ]
            },
            "properties": {
                "name": "Sanatoriul Marila"
            }
        },
        {
            "type": "Feature",
            "geometry": {
                "type": "Point",
                "coordinates": [
                    23.4900709,
                    46.7402887
                ]
            },
            "properties": {
                "name": "ConfiDens"
            }
        },
        {
            "type": "Feature",
            "geometry": {
                "type": "Point",
                "coordinates": [
                    23.5874121,
                    46.7760725
                ]
            }
        },
        {
            "type": "Feature",
            "geometry": {
                "type": "Point",
                "coordinates": [
                    23.5830487,
                    46.7789521
                ]
            },
            "properties": {
                "name": "Euro medical center"
            }
        },
        {
            "type": "Feature",
            "geometry": {
                "type": "Point",
                "coordinates": [
                    23.5874303,
                    46.7789722
                ]
            },
            "properties": {
                "name": "Spitalul Privat de Chirurgie"
            }
        },
        {
            "type": "Feature",
            "geometry": {
                "type": "Point",
                "coordinates": [
                    26.0823374,
                    44.4332398
                ]
            },
            "properties": {
                "name": "Institutul Victor Babe\u0219"
            }
        },
        {
            "type": "Feature",
            "geometry": {
                "type": "Point",
                "coordinates": [
                    26.0723154,
                    44.4433603
                ]
            },
            "properties": {
                "name": "Munor Cris Medica"
            }
        },
        {
            "type": "Feature",
            "geometry": {
                "type": "Point",
                "coordinates": [
                    24.5740642,
                    46.5377274
                ]
            },
            "properties": {
                "name": "Centrul medical TOPMED"
            }
        },
        {
            "type": "Feature",
            "geometry": {
                "type": "Point",
                "coordinates": [
                    26.5303811,
                    44.7622885
                ]
            },
            "properties": {
                "name": "Dispensar"
            }
        },
        {
            "type": "Feature",
            "geometry": {
                "type": "Point",
                "coordinates": [
                    26.0733067,
                    44.4442313
                ]
            },
            "properties": {
                "name": "Munposan 94"
            }
        },
        {
            "type": "Feature",
            "geometry": {
                "type": "Point",
                "coordinates": [
                    25.80547,
                    46.3628063
                ]
            },
            "properties": {
                "name": "Serviciul jude\u021bean de ambulant\u0103 Harghita"
            }
        },
        {
            "type": "Feature",
            "geometry": {
                "type": "Point",
                "coordinates": [
                    22.8245118,
                    46.1350751
                ]
            },
            "properties": {
                "name": "Sanatoriul de Pneumoftiziologie Brad"
            }
        },
        {
            "type": "Feature",
            "geometry": {
                "type": "Point",
                "coordinates": [
                    26.7988902,
                    45.1505133
                ]
            },
            "properties": {
                "name": "Centrul de transfuzie Buz\u0103u"
            }
        },
        {
            "type": "Feature",
            "geometry": {
                "type": "Point",
                "coordinates": [
                    26.8002152,
                    45.1511489
                ]
            },
            "properties": {
                "name": "Serviciul jude\u021bean de ambulan\u021b\u0103 Buz\u0103u"
            }
        },
        {
            "type": "Feature",
            "geometry": {
                "type": "Point",
                "coordinates": [
                    21.2209739,
                    45.7646351
                ]
            },
            "properties": {
                "name": "Cabinet Dr. Giurgiu Daniela"
            }
        },
        {
            "type": "Feature",
            "geometry": {
                "type": "Point",
                "coordinates": [
                    28.135514,
                    45.2456181
                ]
            },
            "properties": {
                "name": "Spitalul M\u0103cin"
            }
        },
        {
            "type": "Feature",
            "geometry": {
                "type": "Point",
                "coordinates": [
                    28.6339069,
                    44.0678214
                ]
            },
            "properties": {
                "name": "Spitalul Clinic de recuperare, medicin\u0103 fizica \u0219i balneologie Eforie Nord"
            }
        },
        {
            "type": "Feature",
            "geometry": {
                "type": "Point",
                "coordinates": [
                    26.071937,
                    44.436768
                ]
            },
            "properties": {
                "name": "Heliport Emergency University Hospital of Bucharest"
            }
        },
        {
            "type": "Feature",
            "geometry": {
                "type": "Point",
                "coordinates": [
                    28.5990546,
                    44.0520718
                ]
            },
            "properties": {
                "name": "Sanatoriul de copii Techirghiol"
            }
        },
        {
            "type": "Feature",
            "geometry": {
                "type": "Point",
                "coordinates": [
                    25.1404045,
                    43.8754907
                ]
            }
        },
        {
            "type": "Feature",
            "geometry": {
                "type": "Point",
                "coordinates": [
                    23.882849,
                    46.5471551
                ]
            },
            "properties": {
                "name": "Spitalul municipal \"Dr. Cornel Igna\""
            }
        },
        {
            "type": "Feature",
            "geometry": {
                "type": "Point",
                "coordinates": [
                    25.0379744,
                    45.2662283
                ]
            },
            "properties": {
                "name": "Spitalul Municipal C\u00e2mpulung Muscel"
            }
        },
        {
            "type": "Feature",
            "geometry": {
                "type": "Point",
                "coordinates": [
                    26.1349143,
                    44.4417787
                ]
            },
            "properties": {
                "name": "Policlinica Iancului"
            }
        },
        {
            "type": "Feature",
            "geometry": {
                "type": "Point",
                "coordinates": [
                    25.4353353,
                    45.0752205
                ]
            },
            "properties": {
                "name": "Spitalul or\u0103\u0219enesc Pucioasa"
            }
        },
        {
            "type": "Feature",
            "geometry": {
                "type": "Point",
                "coordinates": [
                    25.0424102,
                    45.2740151
                ]
            },
            "properties": {
                "name": "Centrul Maternal \"Mama \u0219i Copilul\" C\u00e2mpulung"
            }
        },
        {
            "type": "Feature",
            "geometry": {
                "type": "Point",
                "coordinates": [
                    25.7429525,
                    45.1211365
                ]
            },
            "properties": {
                "name": "Recuperare Medical\u0103 Dr. Mehedin\u021bi"
            }
        },
        {
            "type": "Feature",
            "geometry": {
                "type": "Point",
                "coordinates": [
                    24.8690216,
                    43.7439603
                ]
            },
            "properties": {
                "name": "Spitalul Or\u0103\u0219enesc"
            }
        },
        {
            "type": "Feature",
            "geometry": {
                "type": "Point",
                "coordinates": [
                    24.8697029,
                    43.751701
                ]
            },
            "properties": {
                "name": "Policlinica"
            }
        },
        {
            "type": "Feature",
            "geometry": {
                "type": "Point",
                "coordinates": [
                    26.0942806,
                    44.4324399
                ]
            },
            "properties": {
                "name": "Centrul Medical de Diagnostic \u0219i Tratament Ambulatoriu Dr. \"Nicolae Kretzulescu\""
            }
        },
        {
            "type": "Feature",
            "geometry": {
                "type": "Point",
                "coordinates": [
                    26.5913815,
                    48.1839229
                ]
            },
            "properties": {
                "name": "Spitalul Or\u0103\u0219enesc"
            }
        },
        {
            "type": "Feature",
            "geometry": {
                "type": "Point",
                "coordinates": [
                    26.0902927,
                    44.4509837
                ]
            },
            "properties": {
                "name": "Medicover Victoriei & Pediatrie"
            }
        },