{
    "type": "FeatureCollection",
    "features": [
        {
            "type": "Feature",
            "geometry": {
                "type": "Point",
                "coordinates": [
                    -0.3641254,
                    39.4782496
                ]
            },
            "properties": {
                "name": "Hospital Quir\u00f3n"
            }
        },
        {
            "type": "Feature",
            "geometry": {
                "type": "Point",
                "coordinates": [
                    -0.3904493,
                    39.4837878
                ]
            },
            "properties": {
                "name": "Hospital Universitario La Fe"
            }
        },
        {
            "type": "Feature",
            "geometry": {
                "type": "Point",
                "coordinates": [
                    -0.8939116,
                    41.6367295
                ]
            },
            "properties": {
                "name": "Cl\u00ednica Hospital Quir\u00f3nSalud"
            }
        },
        {
            "type": "Feature",
            "geometry": {
                "type": "Point",
                "coordinates": [
                    -5.9357555,
                    43.551953
                ]
            },
            "properties": {
                "name": "Hospital San Agust\u00edn"
            }
        },
        {
            "type": "Feature",
            "geometry": {
                "type": "Point",
                "coordinates": [
                    -2.4174879,
                    36.8559247
                ]
            },
            "properties": {
                "name": "Virgen del Mar"
            }
        },
        {
            "type": "Feature",
            "geometry": {
                "type": "Point",
                "coordinates": [
                    -0.0728965,
                    40.0043875
                ]
            },
            "properties": {
                "name": "Hospital de La Magdalena"
            }
        },
        {
            "type": "Feature",
            "geometry": {
                "type": "Point",
                "coordinates": [
                    -16.5260112,
                    28.3872688
                ]
            },
            "properties": {
                "name": "Hospital de la Sant\u00edsima Trinidad"
            }
        },
        {
            "type": "Feature",
            "geometry": {
                "type": "Point",
                "coordinates": [
                    2.0179406,
                    41.5649056
                ]
            },
            "properties": {
                "name": "Hospital M\u00fatua de Terrassa (Consultes Externes)"
            }
        },
        {
            "type": "Feature",
            "geometry": {
                "type": "Point",
                "coordinates": [
                    -16.6372979,
                    28.1568872
                ]
            },
            "properties": {
                "name": "Consultorio Vilaflor"
            }
        },
        {
            "type": "Feature",
            "geometry": {
                "type": "Point",
                "coordinates": [
                    -16.3169281,
                    28.4850693
                ]
            },
            "properties": {
                "name": "Centro de Salud La Laguna"
            }
        },
        {
            "type": "Feature",
            "geometry": {
                "type": "Point",
                "coordinates": [
                    -1.1305329,
                    37.9986505
                ]
            },
            "properties": {
                "name": "Hospital \"Nuestra Se\u00f1ora de Bel\u00e9n\""
            }
        },
        {
            "type": "Feature",
            "geometry": {
                "type": "Point",
                "coordinates": [
                    -1.1294343,
                    37.9945719
                ]
            },
            "properties": {
                "name": "Hospital \"Morales Meseguer\""
            }
        },
        {
            "type": "Feature",
            "geometry": {
                "type": "Point",
                "coordinates": [
                    -16.6821766,
                    28.0979772
                ]
            },
            "properties": {
                "name": "Centro de Salud Arona"
            }
        },
        {
            "type": "Feature",
            "geometry": {
                "type": "Point",
                "coordinates": [
                    -16.8465469,
                    28.3441652
                ]
            },
            "properties": {
                "name": "Consultorio El Palmar"
            }
        },
        {
            "type": "Feature",
            "geometry": {
                "type": "Point",
                "coordinates": [
                    -16.8070971,
                    28.269544
                ]
            },
            "properties": {
                "name": "Consultorio Arguayo"
            }
        },
        {
            "type": "Feature",
            "geometry": {
                "type": "Point",
                "coordinates": [
                    -17.1155594,
                    28.0916552
                ]
            }
        },
        {
            "type": "Feature",
            "geometry": {
                "type": "Point",
                "coordinates": [
                    -17.1979445,
                    28.1648958
                ]
            }
        },
        {
            "type": "Feature",
            "geometry": {
                "type": "Point",
                "coordinates": [
                    -15.4175252,
                    28.0837089
                ]
            },
            "properties": {
                "name": "Hospital Insular"
            }
        },
        {
            "type": "Feature",
            "geometry": {
                "type": "Point",
                "coordinates": [
                    -15.4228473,
                    28.1034083
                ]
            },
            "properties": {
                "name": "Hospital Juan Carlos I"
            }
        },
        {
            "type": "Feature",
            "geometry": {
                "type": "Point",
                "coordinates": [
                    -17.9792926,
                    28.7708734
                ]
            },
            "properties": {
                "name": "Centro de Salud Puntagorda"
            }
        },
        {
            "type": "Feature",
            "geometry": {
                "type": "Point",
                "coordinates": [
                    2.1421736,
                    41.4012888
                ]
            },
            "properties": {
                "name": "Hospital Plat\u00f3"
            }
        },
        {
            "type": "Feature",
            "geometry": {
                "type": "Point",
                "coordinates": [
                    -4.5583851,
                    36.5978862
                ]
            },
            "properties": {
                "name": "Xanit International Hospital"
            }
        },
        {
            "type": "Feature",
            "geometry": {
                "type": "Point",
                "coordinates": [
                    -15.4323758,
                    28.1433317
                ]
            },
            "properties": {
                "name": "Clinica de San Jos\u00e9"
            }
        },
        {
            "type": "Feature",
            "geometry": {
                "type": "Point",
                "coordinates": [
                    -2.4522543,
                    36.8437925
                ]
            },
            "properties": {
                "name": "Hospital Cruz Roja de San Jos\u00e9 y Santa Adela"
            }
        },
        {
            "type": "Feature",
            "geometry": {
                "type": "Point",
                "coordinates": [
                    -6.3635321,
                    38.9122351
                ]
            },
            "properties": {
                "name": "Hospital de M\u00e9rida"
            }
        },
        {
            "type": "Feature",
            "geometry": {
                "type": "Point",
                "coordinates": [
                    2.2458414,
                    41.4507615
                ]
            },
            "properties": {
                "name": "Hospital Municipal de Badalona"
            }
        },
        {
            "type": "Feature",
            "geometry": {
                "type": "Point",
                "coordinates": [
                    -4.0023121,
                    40.7884009
                ]
            }
        },
        {
            "type": "Feature",
            "geometry": {
                "type": "Point",
                "coordinates": [
                    2.9213708,
                    39.71588
                ]
            },
            "properties": {
                "name": "Hospital Comarcal d'Inca"
            }
        },
        {
            "type": "Feature",
            "geometry": {
                "type": "Point",
                "coordinates": [
                    -8.8008483,
                    42.1150466
                ]
            },
            "properties": {
                "name": "Asistencia Primaria A Xunqueira"
            }
        },
        {
            "type": "Feature",
            "geometry": {
                "type": "Point",
                "coordinates": [
                    -8.8538721,
                    42.1186604
                ]
            },
            "properties": {
                "name": "Centro de Sa\u00fade de Baiona"
            }
        },
        {
            "type": "Feature",
            "geometry": {
                "type": "Point",
                "coordinates": [
                    -15.4170826,
                    28.0810772
                ]
            },
            "properties": {
                "name": "Hospital Materno Infantil"
            }
        },
        {
            "type": "Feature",
            "geometry": {
                "type": "Point",
                "coordinates": [
                    2.2959097,
                    41.6134098
                ]
            },
            "properties": {
                "name": "Fundaci\u00f3 Hospital Asil de Granollers"
            }
        },
        {
            "type": "Feature",
            "geometry": {
                "type": "Point",
                "coordinates": [
                    -3.1536156,
                    40.6194839
                ]
            },
            "properties": {
                "name": "Hospital de Guadalajara"
            }
        },
        {
            "type": "Feature",
            "geometry": {
                "type": "Point",
                "coordinates": [
                    2.802138,
                    41.6873345
                ]
            },
            "properties": {
                "name": "Hospital Comarcal de la Selva"
            }
        },
        {
            "type": "Feature",
            "geometry": {
                "type": "Point",
                "coordinates": [
                    4.2719624,
                    39.8893323
                ]
            },
            "properties": {
                "name": "Hospital Verge del Toro"
            }
        },
        {
            "type": "Feature",
            "geometry": {
                "type": "Point",
                "coordinates": [
                    2.7870169,
                    41.6761848
                ]
            },
            "properties": {
                "name": "Hospital Asil Sant Jaume"
            }
        },
        {
            "type": "Feature",
            "geometry": {
                "type": "Point",
                "coordinates": [
                    -17.2658787,
                    28.1791009
                ]
            },
            "properties": {
                "name": "Centro Salud"
            }
        },
        {
            "type": "Feature",
            "geometry": {
                "type": "Point",
                "coordinates": [
                    2.1426945,
                    41.4134446
                ]
            },
            "properties": {
                "name": "Clinica Delfos"
            }
        },
        {
            "type": "Feature",
            "geometry": {
                "type": "Point",
                "coordinates": [
                    -3.6364048,
                    40.4685882
                ]
            },
            "properties": {
                "name": "Centro de especialidades Emigrantes"
            }
        },
        {
            "type": "Feature",
            "geometry": {
                "type": "Point",
                "coordinates": [
                    -14.0197492,
                    28.2128802
                ]
            }
        },
        {
            "type": "Feature",
            "geometry": {
                "type": "Point",
                "coordinates": [
                    -14.2227286,
                    28.1649468
                ]
            }
        },
        {
            "type": "Feature",
            "geometry": {
                "type": "Point",
                "coordinates": [
                    -1.9772687,
                    43.3002321
                ]
            },
            "properties": {
                "name": "San Juan de Dios ospitalea"
            }
        },
        {
            "type": "Feature",
            "geometry": {
                "type": "Point",
                "coordinates": [
                    -4.4886021,
                    36.6377681
                ]
            },
            "properties": {
                "name": "Hospital Mar\u00edtimo de Torremolinos"
            }
        },
        {
            "type": "Feature",
            "geometry": {
                "type": "Point",
                "coordinates": [
                    -13.5661249,
                    28.9745045
                ]
            },
            "properties": {
                "name": "Hospital General de Lanzarote"
            }
        },
        {
            "type": "Feature",
            "geometry": {
                "type": "Point",
                "coordinates": [
                    -14.0179649,
                    28.2203824
                ]
            }
        },
        {
            "type": "Feature",
            "geometry": {
                "type": "Point",
                "coordinates": [
                    -0.1300429,
                    41.0449363
                ]
            },
            "properties": {
                "name": "Hospital Comarcal de Alca\u00f1iz"
            }
        },
        {
            "type": "Feature",
            "geometry": {
                "type": "Point",
                "coordinates": [
                    -2.3203747,
                    43.0876675
                ]
            },
            "properties": {
                "name": "Osasun Zentrua"
            }
        },
        {
            "type": "Feature",
            "geometry": {
                "type": "Point",
                "coordinates": [
                    -5.6274753,
                    40.9499927
                ]
            },
            "properties": {
                "name": "Policl\u00ednica Santa Marta"
            }
        },
        {
            "type": "Feature",
            "geometry": {
                "type": "Point",
                "coordinates": [
                    -5.728618,
                    41.5115366
                ]
            },
            "properties": {
                "name": "Hospital Provincial"
            }
        },
        {
            "type": "Feature",
            "geometry": {
                "type": "Point",
                "coordinates": [
                    1.4609585,
                    42.3548545
                ]
            },
            "properties": {
                "name": "Fundaci\u00f3 Sant Hospital"
            }
        },
        {
            "type": "Feature",
            "geometry": {
                "type": "Point",
                "coordinates": [
                    -1.9403988,
                    43.3231603
                ]
            },
            "properties": {
                "name": "Bidebietako Osasun Zentrua"
            }
        },
        {
            "type": "Feature",
            "geometry": {
                "type": "Point",
                "coordinates": [
                    2.6467131,
                    39.574298
                ]
            },
            "properties": {
                "name": "Hospital General"
            }
        },
        {
            "type": "Feature",
            "geometry": {
                "type": "Point",
                "coordinates": [
                    -7.2333235,
                    43.5412763
                ]
            },
            "properties": {
                "name": "Centro de Salud San Cosme"
            }
        },
        {
            "type": "Feature",
            "geometry": {
                "type": "Point",
                "coordinates": [
                    -0.6733951,
                    38.0068521
                ]
            },
            "properties": {
                "name": "Hospital Quir\u00f3n/USP Hospital San Jaime"
            }
        },
        {
            "type": "Feature",
            "geometry": {
                "type": "Point",
                "coordinates": [
                    2.1948113,
                    41.3841101
                ]
            },
            "properties": {
                "name": "Hospital del Mar"
            }
        },
        {
            "type": "Feature",
            "geometry": {
                "type": "Point",
                "coordinates": [
                    -5.3862946,
                    43.0440714
                ]
            },
            "properties": {
                "name": "Primeros Auxilios"
            }
        },
        {
            "type": "Feature",
            "geometry": {
                "type": "Point",
                "coordinates": [
                    -16.7286961,
                    28.065859
                ]
            },
            "properties": {
                "name": "Asepeyo"
            }
        },
        {
            "type": "Feature",
            "geometry": {
                "type": "Point",
                "coordinates": [
                    0.8973612,
                    42.1644941
                ]
            },
            "properties": {
                "name": "Hospital Comarcal del Pallars"
            }
        },
        {
            "type": "Feature",
            "geometry": {
                "type": "Point",
                "coordinates": [
                    -8.5328874,
                    42.8819841
                ]
            },
            "properties": {
                "name": "Cruz Roja"
            }
        },
        {
            "type": "Feature",
            "geometry": {
                "type": "Point",
                "coordinates": [
                    -4.0139837,
                    39.8603465
                ]
            },
            "properties": {
                "name": "Hospital Provincial de la Misericordia"
            }
        },
        {
            "type": "Feature",
            "geometry": {
                "type": "Point",
                "coordinates": [
                    -16.5371002,
                    28.0468893
                ]
            },
            "properties": {
                "name": "Consultorio El M\u00e9dano"
            }
        },
        {
            "type": "Feature",
            "geometry": {
                "type": "Point",
                "coordinates": [
                    -3.4728958,
                    40.4645362
                ]
            },
            "properties": {
                "name": "Centro de Especialidades"
            }
        },
        {
            "type": "Feature",
            "geometry": {
                "type": "Point",
                "coordinates": [
                    -3.5415516,
                    41.0439903
                ]
            },
            "properties": {
                "name": "Consultorio local"
            }
        },
        {
            "type": "Feature",
            "geometry": {
                "type": "Point",
                "coordinates": [
                    -3.5461609,
                    41.0605718
                ]
            },
            "properties": {
                "name": "Consultorio local"
            }
        },
        {
            "type": "Feature",
            "geometry": {
                "type": "Point",
                "coordinates": [
                    -6.5414934,
                    43.1658752
                ]
            },
            "properties": {
                "name": "Hospital Comarcal de Narcea"
            }
        },
        {
            "type": "Feature",
            "geometry": {
                "type": "Point",
                "coordinates": [
                    -3.8082113,
                    40.3567929
                ]
            },
            "properties": {
                "name": "Centro M\u00e9dico Los Castillos"
            }
        },
        {
            "type": "Feature",
            "geometry": {
                "type": "Point",
                "coordinates": [
                    -3.8290251,
                    40.3480977
                ]
            },
            "properties": {
                "name": "Centro de Salud Doctor Trueta"
            }
        },
        {
            "type": "Feature",
            "geometry": {
                "type": "Point",
                "coordinates": [
                    -0.563469,
                    38.3500732
                ]
            },
            "properties": {
                "name": "Hospital Psiqui\u00e1trico Penitenciario de Alicante"
            }
        },
        {
            "type": "Feature",
            "geometry": {
                "type": "Point",
                "coordinates": [
                    1.7218977,
                    41.2286101
                ]
            },
            "properties": {
                "name": "Hospital de Sant Antoni Abat"
            }
        },
        {
            "type": "Feature",
            "geometry": {
                "type": "Point",
                "coordinates": [
                    -0.4161927,
                    38.4844659
                ]
            },
            "properties": {
                "name": "Consultori M\u00e8dic"
            }
        },
        {
            "type": "Feature",
            "geometry": {
                "type": "Point",
                "coordinates": [
                    -3.8223711,
                    40.3496825
                ]
            },
            "properties": {
                "name": "Centro de Salud Ram\u00f3n y Cajal"
            }
        },
        {
            "type": "Feature",
            "geometry": {
                "type": "Point",
                "coordinates": [
                    -2.14506,
                    40.0670278
                ]
            },
            "properties": {
                "name": "Hospital Recoletas"
            }
        },
        {
            "type": "Feature",
            "geometry": {
                "type": "Point",
                "coordinates": [
                    -4.8267214,
                    36.507275
                ]
            },
            "properties": {
                "name": "Hospital Costa del Sol  Marbella"
            }
        },
        {
            "type": "Feature",
            "geometry": {
                "type": "Point",
                "coordinates": [
                    -16.5488231,
                    28.4150315
                ]
            },
            "properties": {
                "name": "HOSPITEN Tamaragua"
            }
        },
        {
            "type": "Feature",
            "geometry": {
                "type": "Point",
                "coordinates": [
                    -7.8535804,
                    43.4538496
                ]
            },
            "properties": {
                "name": "Centro de sa\u00fade das Pontes"
            }
        },
        {
            "type": "Feature",
            "geometry": {
                "type": "Point",
                "coordinates": [
                    -15.3972871,
                    27.9937776
                ]
            },
            "properties": {
                "name": "Centro de Salud El Calero"
            }
        },
        {
            "type": "Feature",
            "geometry": {
                "type": "Point",
                "coordinates": [
                    -7.6766633,
                    43.7337584
                ]
            },
            "properties": {
                "name": "Centro de Sa\u00fade do Vicedo"
            }
        },
        {
            "type": "Feature",
            "geometry": {
                "type": "Point",
                "coordinates": [
                    -15.4006422,
                    27.9124252
                ]
            }
        },
        {
            "type": "Feature",
            "geometry": {
                "type": "Point",
                "coordinates": [
                    -6.0134174,
                    38.2429328
                ]
            },
            "properties": {
                "name": "Hospital de Llerena"
            }
        },
        {
            "type": "Feature",
            "geometry": {
                "type": "Point",
                "coordinates": [
                    -3.7160926,
                    40.3224865
                ]
            },
            "properties": {
                "name": "Centro de Salud Getafe Norte"
            }
        },
        {
            "type": "Feature",
            "geometry": {
                "type": "Point",
                "coordinates": [
                    -16.3134674,
                    28.4420258
                ]
            },
            "properties": {
                "name": "Debtista"
            }
        },
        {
            "type": "Feature",
            "geometry": {
                "type": "Point",
                "coordinates": [
                    -0.748856,
                    41.6313661
                ]
            },
            "properties": {
                "name": "Centro de atenci\u00f3n primaria"
            }
        },
        {
            "type": "Feature",
            "geometry": {
                "type": "Point",
                "coordinates": [
                    2.1765803,
                    41.4109133
                ]
            },
            "properties": {
                "name": "Dos de Maig"
            }
        },
        {
            "type": "Feature",
            "geometry": {
                "type": "Point",
                "coordinates": [
                    -3.7456727,
                    40.3880739
                ]
            }
        },
        {
            "type": "Feature",
            "geometry": {
                "type": "Point",
                "coordinates": [
                    -0.7892575,
                    41.867301
                ]
            },
            "properties": {
                "name": "Farmacia"
            }
        },
        {
            "type": "Feature",
            "geometry": {
                "type": "Point",
                "coordinates": [
                    2.1590499,
                    41.4111635
                ]
            },
            "properties": {
                "name": "Hospital Evang\u00e8lic"
            }
        },
        {
            "type": "Feature",
            "geometry": {
                "type": "Point",
                "coordinates": [
                    -5.4544576,
                    37.1174154
                ]
            },
            "properties": {
                "name": "Residencia San Francisco"
            }
        },
        {
            "type": "Feature",
            "geometry": {
                "type": "Point",
                "coordinates": [
                    -3.6849473,
                    42.3623092
                ]
            },
            "properties": {
                "name": "Hospital Universitario de Burgos"
            }
        },
        {
            "type": "Feature",
            "geometry": {
                "type": "Point",
                "coordinates": [
                    -5.8193269,
                    43.382143
                ]
            },
            "properties": {
                "name": "C.S. La Corredoria"
            }
        },
        {
            "type": "Feature",
            "geometry": {
                "type": "Point",
                "coordinates": [
                    -5.4442906,
                    36.1110707
                ]
            },
            "properties": {
                "name": "Hospital Punta Europa"
            }
        },
        {
            "type": "Feature",
            "geometry": {
                "type": "Point",
                "coordinates": [
                    -13.47046,
                    29.0930144
                ]
            },
            "properties": {
                "name": "Consultorio Local de Mala"
            }
        },
        {
            "type": "Feature",
            "geometry": {
                "type": "Point",
                "coordinates": [
                    -3.5830635,
                    40.4514552
                ]
            }
        },
        {
            "type": "Feature",
            "geometry": {
                "type": "Point",
                "coordinates": [
                    -4.5579098,
                    36.5991554
                ]
            },
            "properties": {
                "name": "Hospital Alta Resolucion de Benalmadena"
            }
        },
        {
            "type": "Feature",
            "geometry": {
                "type": "Point",
                "coordinates": [
                    0.5782931,
                    40.7089313
                ]
            },
            "properties": {
                "name": "Hospital Comarcal d'Amposta"
            }
        },
        {
            "type": "Feature",
            "geometry": {
                "type": "Point",
                "coordinates": [
                    -1.9736338,
                    43.3152458
                ]
            },
            "properties": {
                "name": "Quiron clinic"
            }
        },
        {
            "type": "Feature",
            "geometry": {
                "type": "Point",
                "coordinates": [
                    -13.6589737,
                    28.9301176
                ]
            }
        },
        {
            "type": "Feature",
            "geometry": {
                "type": "Point",
                "coordinates": [
                    -8.2165378,
                    43.5101269
                ]
            },
            "properties": {
                "name": "Centro de Especialidades Arquitecto-Marcide"
            }
        },
        {
            "type": "Feature",
            "geometry": {
                "type": "Point",
                "coordinates": [
                    -8.4152848,
                    43.3646048
                ]
            },
            "properties": {
                "name": "Centro de Especialidades Pedi\u00e1tricas"
            }
        },
        {
            "type": "Feature",
            "geometry": {
                "type": "Point",
                "coordinates": [
                    -8.2189536,
                    43.515566
                ]
            },
            "properties": {
                "name": "Hospital Profesor Novoa Santos"
            }
        },
        {
            "type": "Feature",
            "geometry": {
                "type": "Point",
                "coordinates": [
                    -8.7588214,
                    42.5944737
                ]
            },
            "properties": {
                "name": "Ambulatorio San Roque"
            }
        },
        {
            "type": "Feature",
            "geometry": {
                "type": "Point",
                "coordinates": [
                    -8.5464835,
                    42.871938
                ]
            },
            "properties": {
                "name": "C.M. La Rosaleda S.A."
            }
        },
        {
            "type": "Feature",
            "geometry": {
                "type": "Point",
                "coordinates": [
                    -7.4925478,
                    43.1432054
                ]
            },
            "properties": {
                "name": "C.R.R. San Rafael"
            }
        },
        {
            "type": "Feature",
            "geometry": {
                "type": "Point",
                "coordinates": [
                    -8.7664347,
                    42.597901
                ]
            },
            "properties": {
                "name": "Centro Esp. Casa do Mar Vilagarc\u00eda"
            }
        },
        {
            "type": "Feature",
            "geometry": {
                "type": "Point",
                "coordinates": [
                    -8.1084479,
                    42.6589154
                ]
            },
            "properties": {
                "name": "Centro Espec. Ambulatorio Lal\u00edn"
            }
        },
        {
            "type": "Feature",
            "geometry": {
                "type": "Point",
                "coordinates": [
                    -7.5570245,
                    43.0139562
                ]
            },
            "properties": {
                "name": "Centro de Especialidades Praza do Ferrol"
            }
        },
        {
            "type": "Feature",
            "geometry": {
                "type": "Point",
                "coordinates": [
                    -7.5193173,
                    42.5272662
                ]
            },
            "properties": {
                "name": "Hopital Comarcal de Monforte de Lemos"
            }
        },
        {
            "type": "Feature",
            "geometry": {
                "type": "Point",
                "coordinates": [
                    -8.5662965,
                    42.8698833
                ]
            },
            "properties": {
                "name": "Hospital Cl\u00ednico Universitario"
            }
        },
        {
            "type": "Feature",
            "geometry": {
                "type": "Point",
                "coordinates": [
                    -7.8930938,
                    42.3312473
                ]
            },
            "properties": {
                "name": "Hospital Pi\u00f1or"
            }
        },
        {
            "type": "Feature",
            "geometry": {
                "type": "Point",
                "coordinates": [
                    -7.9403219,
                    42.2944625
                ]
            },
            "properties": {
                "name": "Hospital Psiq. Cabaleiro Goas"
            }
        },
        {
            "type": "Feature",
            "geometry": {
                "type": "Point",
                "coordinates": [
                    -8.5557209,
                    42.8622074
                ]
            },
            "properties": {
                "name": "Hospital Psiqui\u00e1trico de Conxo"
            }
        },
        {
            "type": "Feature",
            "geometry": {
                "type": "Point",
                "coordinates": [
                    -7.4302915,
                    41.9541059
                ]
            },
            "properties": {
                "name": "Hospital de Ver\u00edn"
            }
        },
        {
            "type": "Feature",
            "geometry": {
                "type": "Point",
                "coordinates": [
                    -8.5465399,
                    42.8717989
                ]
            },
            "properties": {
                "name": "I.P. La Rosaleda S.A."
            }
        },
        {
            "type": "Feature",
            "geometry": {
                "type": "Point",
                "coordinates": [
                    -7.5680404,
                    42.9979754
                ]
            },
            "properties": {
                "name": "Policl\u00ednico Lucense S.A."
            }
        },
        {
            "type": "Feature",
            "geometry": {
                "type": "Point",
                "coordinates": [
                    -7.5620249,
                    43.0118382
                ]
            },
            "properties": {
                "name": "Sanatorio Nosa Se\u00f1ora dos Ollos Grandes"
            }
        },
        {
            "type": "Feature",
            "geometry": {
                "type": "Point",
                "coordinates": [
                    -8.5580971,
                    42.8792702
                ]
            },
            "properties": {
                "name": "Sanatorio Psiqui\u00e1trico La Robleda"
            }
        },
        {
            "type": "Feature",
            "geometry": {
                "type": "Point",
                "coordinates": [
                    -7.866117,
                    42.3418074
                ]
            },
            "properties": {
                "name": "Unidade Sa\u00fade Mental I"
            }
        },
        {
            "type": "Feature",
            "geometry": {
                "type": "Point",
                "coordinates": [
                    -7.8682639,
                    42.3467787
                ]
            },
            "properties": {
                "name": "Unidade de Sa\u00fade Mental II"
            }
        },
        {
            "type": "Feature",
            "geometry": {
                "type": "Point",
                "coordinates": [
                    -8.6534567,
                    42.4247805
                ]
            },
            "properties": {
                "name": "Centro Especialidades Mollabao"
            }
        },
        {
            "type": "Feature",
            "geometry": {
                "type": "Point",
                "coordinates": [
                    -8.8222442,
                    42.3998437
                ]
            },
            "properties": {
                "name": "Centro Sa\u00fade Baltar-Portonovo"
            }
        },
        {
            "type": "Feature",
            "geometry": {
                "type": "Point",
                "coordinates": [
                    -8.785506,
                    42.321089
                ]
            },
            "properties": {
                "name": "Centro de Sa\u00fade Bueu"
            }
        },
        {
            "type": "Feature",
            "geometry": {
                "type": "Point",
                "coordinates": [
                    -8.6348031,
                    42.4486699
                ]
            },
            "properties": {
                "name": "Centro de Sa\u00fade de L\u00e9rez"
            }
        },
        {
            "type": "Feature",
            "geometry": {
                "type": "Point",
                "coordinates": [
                    -8.642168,
                    42.429278
                ]
            },
            "properties": {
                "name": "Hospital Miguel Dom\u00ednguez"
            }
        },
        {
            "type": "Feature",
            "geometry": {
                "type": "Point",
                "coordinates": [
                    -8.6145974,
                    42.4286849
                ]
            },
            "properties": {
                "name": "Hospital Montecelo"
            }
        },
        {
            "type": "Feature",
            "geometry": {
                "type": "Point",
                "coordinates": [
                    -8.6627658,
                    42.4317608
                ]
            },
            "properties": {
                "name": "S. Ntra. Sra. Merced S.L."
            }
        },
        {
            "type": "Feature",
            "geometry": {
                "type": "Point",
                "coordinates": [
                    -3.5822944,
                    40.7380673
                ]
            },
            "properties": {
                "name": "Urgencias"
            }
        },
        {
            "type": "Feature",
            "geometry": {
                "type": "Point",
                "coordinates": [
                    1.8295464,
                    41.7257147
                ]
            },
            "properties": {
                "name": "Hospital de Sant Andreu"
            }
        },
        {
            "type": "Feature",
            "geometry": {
                "type": "Point",
                "coordinates": [
                    -13.8629375,
                    28.4990311
                ]
            },
            "properties": {
                "name": "Cruz Roja Espa\u00f1ola"
            }
        },
        {
            "type": "Feature",
            "geometry": {
                "type": "Point",
                "coordinates": [
                    -4.4246365,
                    37.4685126
                ]
            },
            "properties": {
                "name": "Hospital Infanta Margarita"
            }
        },
        {
            "type": "Feature",
            "geometry": {
                "type": "Point",
                "coordinates": [
                    -14.3449011,
                    28.0488966
                ]
            },
            "properties": {
                "name": "Cem"
            }
        },
        {
            "type": "Feature",
            "geometry": {
                "type": "Point",
                "coordinates": [
                    -8.1405971,
                    42.2948578
                ]
            }
        },
        {
            "type": "Feature",
            "geometry": {
                "type": "Point",
                "coordinates": [
                    -4.2660616,
                    36.7126226
                ]
            },
            "properties": {
                "name": "Clinica Rincon"
            }
        },
        {
            "type": "Feature",
            "geometry": {
                "type": "Point",
                "coordinates": [
                    -7.4348987,
                    41.9369558
                ]
            },
            "properties": {
                "name": "P.A.C. (Ambulatorio Ver\u00edn)"
            }
        },
        {
            "type": "Feature",
            "geometry": {
                "type": "Point",
                "coordinates": [
                    -13.6113511,
                    29.0004792
                ]
            },
            "properties": {
                "name": "Centro de Salud de San Bartolom\u00e9"
            }
        },
        {
            "type": "Feature",
            "geometry": {
                "type": "Point",
                "coordinates": [
                    -0.7842386,
                    38.7815553
                ]
            },
            "properties": {
                "name": "Metge"
            }
        },
        {
            "type": "Feature",
            "geometry": {
                "type": "Point",
                "coordinates": [
                    -1.1078943,
                    38.6160655
                ]
            },
            "properties": {
                "name": "Hospital Virgen del Castillo"
            }
        },
        {
            "type": "Feature",
            "geometry": {
                "type": "Point",
                "coordinates": [
                    -16.5651772,
                    28.2952655
                ]
            },
            "properties": {
                "name": "BASE DEL SUC (112)"
            }
        },
        {
            "type": "Feature",
            "geometry": {
                "type": "Point",
                "coordinates": [
                    -8.6577462,
                    42.7084732
                ]
            },
            "properties": {
                "name": "Centro de Salud de Valga"
            }
        },
        {
            "type": "Feature",
            "geometry": {
                "type": "Point",
                "coordinates": [
                    -3.4839964,
                    40.3687011
                ]
            },
            "properties": {
                "name": "Atenci\u00f3n m\u00e9dica"
            }
        },
        {
            "type": "Feature",
            "geometry": {
                "type": "Point",
                "coordinates": [
                    3.8418321,
                    40.0048071
                ]
            },
            "properties": {
                "name": "Cl\u00ednica Juaneda Menorca"
            }
        },
        {
            "type": "Feature",
            "geometry": {
                "type": "Point",
                "coordinates": [
                    -15.4347932,
                    28.1158068
                ]
            },
            "properties": {
                "name": "Centro de Salud de Schamann"
            }
        },
        {
            "type": "Feature",
            "geometry": {
                "type": "Point",
                "coordinates": [
                    -1.9418494,
                    37.4010775
                ]
            },
            "properties": {
                "name": "Hospital Comarcal La Inmaculada"
            }
        },
        {
            "type": "Feature",
            "geometry": {
                "type": "Point",
                "coordinates": [
                    -15.3958721,
                    28.0087606
                ]
            },
            "properties": {
                "name": "Centro de Salud de Las Remudas"
            }
        },
        {
            "type": "Feature",
            "geometry": {
                "type": "Point",
                "coordinates": [
                    -16.2405176,
                    28.4819061
                ]
            },
            "properties": {
                "name": "Centro de Salud. Casa del Mar"
            }
        },
        {
            "type": "Feature",
            "geometry": {
                "type": "Point",
                "coordinates": [
                    -5.9810517,
                    37.3618571
                ]
            },
            "properties": {
                "name": "Ciudad Sanitaria Virgen del Roc\u00edo"
            }
        },
        {
            "type": "Feature",
            "geometry": {
                "type": "Point",
                "coordinates": [
                    0.0593036,
                    38.8342236
                ]
            },
            "properties": {
                "name": "Urgencia"
            }
        },
        {
            "type": "Feature",
            "geometry": {
                "type": "Point",
                "coordinates": [
                    0.5759553,
                    40.7090381
                ]
            },
            "properties": {
                "name": "Unitat Polivalent d'Amposta"
            }
        },
        {
            "type": "Feature",
            "geometry": {
                "type": "Point",
                "coordinates": [
                    -5.0638666,
                    43.4635162
                ]
            },
            "properties": {
                "name": "Cruz Roja"
            }
        },
        {
            "type": "Feature",
            "geometry": {
                "type": "Point",
                "coordinates": [
                    -4.0210553,
                    39.8434999
                ]
            },
            "properties": {
                "name": "Virgen del Valle"
            }
        },
        {
            "type": "Feature",
            "geometry": {
                "type": "Point",
                "coordinates": [
                    2.1455452,
                    41.3886529
                ]
            },
            "properties": {
                "name": "Capio Hospital Universitari Sagrat Cor"
            }
        },
        {
            "type": "Feature",
            "geometry": {
                "type": "Point",
                "coordinates": [
                    -5.7297589,
                    41.4532747
                ]
            },
            "properties": {
                "name": "ASPROSUB"
            }
        },
        {
            "type": "Feature",
            "geometry": {
                "type": "Point",
                "coordinates": [
                    -5.4314488,
                    43.4817206
                ]
            },
            "properties": {
                "name": "Urgencias"
            }
        },
        {
            "type": "Feature",
            "geometry": {
                "type": "Point",
                "coordinates": [
                    2.1234237,
                    41.3851576
                ]
            },
            "properties": {
                "name": "Hospital Casa Maternitat"
            }
        },
        {
            "type": "Feature",
            "geometry": {
                "type": "Point",
                "coordinates": [
                    -3.3759529,
                    40.4491236
                ]
            },
            "properties": {
                "name": "Centro de salud primaria El Zulema"
            }
        },
        {
            "type": "Feature",
            "geometry": {
                "type": "Point",
                "coordinates": [
                    -4.7512012,
                    37.3993967
                ]
            },
            "properties": {
                "name": "CHARE"
            }
        },
        {
            "type": "Feature",
            "geometry": {
                "type": "Point",
                "coordinates": [
                    -5.0983012,
                    42.2689599
                ]
            },
            "properties": {
                "name": "Consultorio M\u00e9dico"
            }
        },
        {
            "type": "Feature",
            "geometry": {
                "type": "Point",
                "coordinates": [
                    -5.0581931,
                    42.2794111
                ]
            },
            "properties": {
                "name": "Consultorio Medico"
            }
        },
        {
            "type": "Feature",
            "geometry": {
                "type": "Point",
                "coordinates": [
                    -5.2188782,
                    42.4234862
                ]
            },
            "properties": {
                "name": "Consulterio Medico"
            }
        },
        {
            "type": "Feature",
            "geometry": {
                "type": "Point",
                "coordinates": [
                    1.2513744,
                    41.2830927
                ]
            },
            "properties": {
                "name": "Pius Hospital de Valls"
            }
        },
        {
            "type": "Feature",
            "geometry": {
                "type": "Point",
                "coordinates": [
                    -0.4652211,
                    38.7058074
                ]
            },
            "properties": {
                "name": "Urgencias Hospital Alcoy"
            }
        },
        {
            "type": "Feature",
            "geometry": {
                "type": "Point",
                "coordinates": [
                    -2.3130193,
                    43.0835953
                ]
            },
            "properties": {
                "name": "Hospital de Zum\u00e1rraga"
            }
        },
        {
            "type": "Feature",
            "geometry": {
                "type": "Point",
                "coordinates": [
                    -15.4300417,
                    28.1371104
                ]
            },
            "properties": {
                "name": "Hospital Perpetuo Socorro"
            }
        },
        {
            "type": "Feature",
            "geometry": {
                "type": "Point",
                "coordinates": [
                    -8.7636088,
                    42.1127137
                ]
            },
            "properties": {
                "name": "Clinica Dental Novapraxis"
            }
        },
        {
            "type": "Feature",
            "geometry": {
                "type": "Point",
                "coordinates": [
                    -16.6847071,
                    28.3848128
                ]
            },
            "properties": {
                "name": "Hospital Norte"
            }
        },
        {
            "type": "Feature",
            "geometry": {
                "type": "Point",
                "coordinates": [
                    -3.5204433,
                    36.7552465
                ]
            },
            "properties": {
                "name": "Hospital General Santa Ana"
            }
        },
        {
            "type": "Feature",
            "geometry": {
                "type": "Point",
                "coordinates": [
                    -4.4278493,
                    37.471781
                ]
            },
            "properties": {
                "name": "Hospital de D\u00eda de Salud Mental"
            }
        },
        {
            "type": "Feature",
            "geometry": {
                "type": "Point",
                "coordinates": [
                    -8.4410891,
                    42.9698738
                ]
            },
            "properties": {
                "name": "Centro de Sa\u00fade de Oroso"
            }
        },
        {
            "type": "Feature",
            "geometry": {
                "type": "Point",
                "coordinates": [
                    -3.0259824,
                    43.325043
                ]
            },
            "properties": {
                "name": "San Juan de Dios"
            }
        },
        {
            "type": "Feature",
            "geometry": {
                "type": "Point",
                "coordinates": [
                    -8.2068801,
                    43.4839334
                ]
            }
        },
        {
            "type": "Feature",
            "geometry": {
                "type": "Point",
                "coordinates": [
                    0.4499678,
                    40.4638585
                ]
            },
            "properties": {
                "name": "Hospital Comarcal de Vinaros"
            }
        },
        {
            "type": "Feature",
            "geometry": {
                "type": "Point",
                "coordinates": [
                    -0.8351543,
                    41.7191519
                ]
            },
            "properties": {
                "name": "Prisma: Finca El Cantal: Centro Hospitalario de Recuperaci\u00f3n Psiqui\u00e1trica"
            }
        },
        {
            "type": "Feature",
            "geometry": {
                "type": "Point",
                "coordinates": [
                    -1.1334564,
                    37.9927511
                ]
            },
            "properties": {
                "name": "Hospital La Vega"
            }
        },
        {
            "type": "Feature",
            "geometry": {
                "type": "Point",
                "coordinates": [
                    -3.750848,
                    40.4123734
                ]
            }
        },
        {
            "type": "Feature",
            "geometry": {
                "type": "Point",
                "coordinates": [
                    -1.7991345,
                    38.0965193
                ]
            },
            "properties": {
                "name": "Hospital de la Real Piedad"
            }
        },
        {
            "type": "Feature",
            "geometry": {
                "type": "Point",
                "coordinates": [
                    -1.8557075,
                    39.0002577
                ]
            },
            "properties": {
                "name": "Ibermutua"
            }
        },
        {
            "type": "Feature",
            "geometry": {
                "type": "Point",
                "coordinates": [
                    -5.5579701,
                    43.4105081
                ]
            },
            "properties": {
                "name": "Ambulatorio de Sariego"
            }
        },
        {
            "type": "Feature",
            "geometry": {
                "type": "Point",
                "coordinates": [
                    -5.8404105,
                    43.3653948
                ]
            },
            "properties": {
                "name": "Cruz Roja"
            }
        },
        {
            "type": "Feature",
            "geometry": {
                "type": "Point",
                "coordinates": [
                    -5.971533,
                    43.3451238
                ]
            },
            "properties": {
                "name": "Consultorio de Trubia"
            }
        },
        {
            "type": "Feature",
            "geometry": {
                "type": "Point",
                "coordinates": [
                    -0.4917584,
                    39.8482269
                ]
            },
            "properties": {
                "name": "Hospital Complementario de Segorbe"
            }
        },
        {
            "type": "Feature",
            "geometry": {
                "type": "Point",
                "coordinates": [
                    -7.8359125,
                    43.4434201
                ]
            },
            "properties": {
                "name": "Cruz Vermella - As Pontes"
            }
        },
        {
            "type": "Feature",
            "geometry": {
                "type": "Point",
                "coordinates": [
                    -16.1811398,
                    28.5109593
                ]
            },
            "properties": {
                "name": "Cruz Roja. Playa"
            }
        },
        {
            "type": "Feature",
            "geometry": {
                "type": "Point",
                "coordinates": [
                    -8.5647855,
                    42.8698439
                ]
            },
            "properties": {
                "name": "Consultas Externas"
            }
        },
        {
            "type": "Feature",
            "geometry": {
                "type": "Point",
                "coordinates": [
                    -16.53276,
                    28.3860642
                ]
            },
            "properties": {
                "name": "Cl\u00ednica Vida"
            }
        },
        {
            "type": "Feature",
            "geometry": {
                "type": "Point",
                "coordinates": [
                    -15.4979773,
                    27.9918071
                ]
            },
            "properties": {
                "name": "C.S. Valsequillo"
            }
        },
        {
            "type": "Feature",
            "geometry": {
                "type": "Point",
                "coordinates": [
                    -6.8182053,
                    43.4306743
                ]
            },
            "properties": {
                "name": "Consultorio perif\u00e9rico de Boal"
            }
        },
        {
            "type": "Feature",
            "geometry": {
                "type": "Point",
                "coordinates": [
                    -0.2410303,
                    40.8344255
                ]
            },
            "properties": {
                "name": "Centro de Dia"
            }
        },
        {
            "type": "Feature",
            "geometry": {
                "type": "Point",
                "coordinates": [
                    -0.2402221,
                    40.8351385
                ]
            },
            "properties": {
                "name": "Residencia 3\u00aa Edad"
            }
        },
        {
            "type": "Feature",
            "geometry": {
                "type": "Point",
                "coordinates": [
                    -3.7267737,
                    40.4681204
                ]
            },
            "properties": {
                "name": "Gerencia SERMAS"
            }
        },
        {
            "type": "Feature",
            "geometry": {
                "type": "Point",
                "coordinates": [
                    -3.6889198,
                    40.4290209
                ]
            },
            "properties": {
                "name": "Cl\u00ednica Baviera"
            }
        },
        {
            "type": "Feature",
            "geometry": {
                "type": "Point",
                "coordinates": [
                    -4.0024797,
                    40.6299044
                ]
            },
            "properties": {
                "name": "Fremap"
            }
        },
        {
            "type": "Feature",
            "geometry": {
                "type": "Point",
                "coordinates": [
                    -17.1979616,
                    28.0295914
                ]
            },
            "properties": {
                "name": "Centro de Salud Playa de Santiago"
            }
        },
        {
            "type": "Feature",
            "geometry": {
                "type": "Point",
                "coordinates": [
                    -8.7364386,
                    41.9897623
                ]
            },
            "properties": {
                "name": "Centro de Sa\u00fade de Tomi\u00f1o"
            }
        },
        {
            "type": "Feature",
            "geometry": {
                "type": "Point",
                "coordinates": [
                    -16.8509603,
                    28.3739772
                ]
            },
            "properties": {
                "name": "Centro m\u00e9dico Isla Baja"
            }
        },
        {
            "type": "Feature",
            "geometry": {
                "type": "Point",
                "coordinates": [
                    -3.5319024,
                    40.4266013
                ]
            },
            "properties": {
                "name": "Centro de est\u00e9tica"
            }
        },
        {
            "type": "Feature",
            "geometry": {
                "type": "Point",
                "coordinates": [
                    -0.901725,
                    41.6334886
                ]
            },
            "properties": {
                "name": "Consultas Externas Miguel Servet"
            }
        },
        {
            "type": "Feature",
            "geometry": {
                "type": "Point",
                "coordinates": [
                    -2.4140921,
                    36.8577567
                ]
            },
            "properties": {
                "name": "Hospital Psiqui\u00e1trico"
            }
        },
        {
            "type": "Feature",
            "geometry": {
                "type": "Point",
                "coordinates": [
                    -4.021124,
                    39.8605074
                ]
            },
            "properties": {
                "name": "Cl\u00ednica Dental Dionisio"
            }
        },
        {
            "type": "Feature",
            "geometry": {
                "type": "Point",
                "coordinates": [
                    -2.9363533,
                    43.2643051
                ]
            },
            "properties": {
                "name": "IMQ"
            }
        },
        {
            "type": "Feature",
            "geometry": {
                "type": "Point",
                "coordinates": [
                    -15.4300826,
                    28.1380748
                ]
            },
            "properties": {
                "name": "Centro Ambulatorio de Especialidades del Instituto Social de la Marina Casa del Mar"
            }
        },
        {
            "type": "Feature",
            "geometry": {
                "type": "Point",
                "coordinates": [
                    -15.4387678,
                    28.1116602
                ]
            },
            "properties": {
                "name": "Centro de Salud de Escaleritas"
            }
        },
        {
            "type": "Feature",
            "geometry": {
                "type": "Point",
                "coordinates": [
                    -15.4236788,
                    28.1487142
                ]
            },
            "properties": {
                "name": "Centro de Salud de La Isleta"
            }
        },
        {
            "type": "Feature",
            "geometry": {
                "type": "Point",
                "coordinates": [
                    -15.4487572,
                    28.0999896
                ]
            },
            "properties": {
                "name": "Centro de Salud de Cuevas Torres"
            }
        },
        {
            "type": "Feature",
            "geometry": {
                "type": "Point",
                "coordinates": [
                    -15.4181784,
                    28.1018143
                ]
            },
            "properties": {
                "name": "Centro de Salud Mental de El Lasso"
            }
        },
        {
            "type": "Feature",
            "geometry": {
                "type": "Point",
                "coordinates": [
                    -15.4142962,
                    28.0929007
                ]
            },
            "properties": {
                "name": "Centro de Salud de San Jos\u00e9"
            }
        },
        {
            "type": "Feature",
            "geometry": {
                "type": "Point",
                "coordinates": [
                    -15.426055,
                    28.0962607
                ]
            },
            "properties": {
                "name": "Centro de Salud de San Roque"
            }
        },
        {
            "type": "Feature",
            "geometry": {
                "type": "Point",
                "coordinates": [
                    -15.4196802,
                    28.0766207
                ]
            },
            "properties": {
                "name": "Centro de Salud del Cono Sur"
            }
        },
        {
            "type": "Feature",
            "geometry": {
                "type": "Point",
                "coordinates": [
                    -15.4281954,
                    28.0416223
                ]
            },
            "properties": {
                "name": "Consultorio Local de Marzag\u00e1n"
            }
        },
        {
            "type": "Feature",
            "geometry": {
                "type": "Point",
                "coordinates": [
                    -15.4604302,
                    28.0606966
                ]
            },
            "properties": {
                "name": "Consultorio Local de Tafira"
            }
        },
        {
            "type": "Feature",
            "geometry": {
                "type": "Point",
                "coordinates": [
                    -15.4749034,
                    28.0758295
                ]
            },
            "properties": {
                "name": "Consultorio Local de San Lorenzo"
            }
        },
        {
            "type": "Feature",
            "geometry": {
                "type": "Point",
                "coordinates": [
                    -15.4754774,
                    28.0991662
                ]
            },
            "properties": {
                "name": "Centro de Salud de Tamaraceite"
            }
        },
        {
            "type": "Feature",
            "geometry": {
                "type": "Point",
                "coordinates": [
                    -3.4727526,
                    40.4648143
                ]
            },
            "properties": {
                "name": "Urgencias"
            }
        },
        {
            "type": "Feature",
            "geometry": {
                "type": "Point",
                "coordinates": [
                    -0.4547097,
                    39.0520071
                ]
            },
            "properties": {
                "name": "Consultorio auxiliar"
            }
        },
        {
            "type": "Feature",
            "geometry": {
                "type": "Point",
                "coordinates": [
                    -15.4267653,
                    27.9177014
                ]
            },
            "properties": {
                "name": "Centro de Salud de Ingenio"
            }
        },
        {
            "type": "Feature",
            "geometry": {
                "type": "Point",
                "coordinates": [
                    -4.0262037,
                    39.8723822
                ]
            },
            "properties": {
                "name": "Cl\u00ednica Forma"
            }
        },
        {
            "type": "Feature",
            "geometry": {
                "type": "Point",
                "coordinates": [
                    -13.8695691,
                    28.7369996
                ]
            },
            "properties": {
                "name": "Cruz Roja"
            }
        },
        {
            "type": "Feature",
            "geometry": {
                "type": "Point",
                "coordinates": [
                    -3.6689294,
                    40.4592666
                ]
            },
            "properties": {
                "name": "Centro m\u00e9dico Costa Rica"
            }
        },
        {
            "type": "Feature",
            "geometry": {
                "type": "Point",
                "coordinates": [
                    -8.3897842,
                    43.3683076
                ]
            },
            "properties": {
                "name": "Hospital Abente y Lago"
            }
        },
        {
            "type": "Feature",
            "geometry": {
                "type": "Point",
                "coordinates": [
                    -3.7229335,
                    40.4437878
                ]
            },
            "properties": {
                "name": "Instituto Anat\u00f3mico Forense"
            }
        },
        {
            "type": "Feature",
            "geometry": {
                "type": "Point",
                "coordinates": [
                    -3.367335,
                    40.4829946
                ]
            },
            "properties": {
                "name": "Sanatorio Vall\u00e9s"
            }
        },
        {
            "type": "Feature",
            "geometry": {
                "type": "Point",
                "coordinates": [
                    -7.1941839,
                    37.2604607
                ]
            },
            "properties": {
                "name": "Hospital Virgen de la Bella"
            }
        },
        {
            "type": "Feature",
            "geometry": {
                "type": "Point",
                "coordinates": [
                    -0.8110565,
                    40.1422517
                ]
            },
            "properties": {
                "name": "Residencia de ancianos"
            }
        },
        {
            "type": "Feature",
            "geometry": {
                "type": "Point",
                "coordinates": [
                    -15.418703,
                    28.0775195
                ]
            },
            "properties": {
                "name": "Centro Atenci\u00f3n Especializada Minusv\u00e1lidos Ps\u00edquicos profundos Reina Sof\u00eda"
            }
        },
        {
            "type": "Feature",
            "geometry": {
                "type": "Point",
                "coordinates": [
                    -15.4260114,
                    28.0801055
                ]
            },
            "properties": {
                "name": "Ciudad de San Juan de Dios"
            }
        },
        {
            "type": "Feature",
            "geometry": {
                "type": "Point",
                "coordinates": [
                    -16.7065845,
                    28.0680615
                ]
            },
            "properties": {
                "name": "El Moj\u00f3n"
            }
        },
        {
            "type": "Feature",
            "geometry": {
                "type": "Point",
                "coordinates": [
                    -7.5527501,
                    43.0002194
                ]
            },
            "properties": {
                "name": "Centro de Sa\u00fade Fingoi"
            }
        },
        {
            "type": "Feature",
            "geometry": {
                "type": "Point",
                "coordinates": [
                    -7.7892828,
                    43.0301852
                ]
            },
            "properties": {
                "name": "Centro de Saude"
            }
        },
        {
            "type": "Feature",
            "geometry": {
                "type": "Point",
                "coordinates": [
                    -6.2698079,
                    36.5072484
                ]
            },
            "properties": {
                "name": "Cl\u00ednica Astart\u00e9"
            }
        },
        {
            "type": "Feature",
            "geometry": {
                "type": "Point",
                "coordinates": [
                    -8.6580906,
                    42.8590731
                ]
            },
            "properties": {
                "name": "Centro de Sa\u00fade de Bertamir\u00e1ns"
            }
        },
        {
            "type": "Feature",
            "geometry": {
                "type": "Point",
                "coordinates": [
                    -5.8479749,
                    43.3650313
                ]
            },
            "properties": {
                "name": "Ambulatorio de La Lila"
            }
        },
        {
            "type": "Feature",
            "geometry": {
                "type": "Point",
                "coordinates": [
                    -5.8562182,
                    43.367823
                ]
            },
            "properties": {
                "name": "Cl\u00ednica Asturias"
            }
        },
        {
            "type": "Feature",
            "geometry": {
                "type": "Point",
                "coordinates": [
                    -8.4831312,
                    42.7756533
                ]
            },
            "properties": {
                "name": "Centro de Sa\u00fade Vedra"
            }
        },
        {
            "type": "Feature",
            "geometry": {
                "type": "Point",
                "coordinates": [
                    -5.7940008,
                    42.3853969
                ]
            },
            "properties": {
                "name": "Consultorio M\u00e9dico"
            }
        },
        {
            "type": "Feature",
            "geometry": {
                "type": "Point",
                "coordinates": [
                    2.4675162,
                    42.1874622
                ]
            },
            "properties": {
                "name": "Hospital d'Olot"
            }
        },
        {
            "type": "Feature",
            "geometry": {
                "type": "Point",
                "coordinates": [
                    -3.0067687,
                    42.9947128
                ]
            },
            "properties": {
                "name": "Consultorio de Ordu\u00f1a"
            }
        },
        {
            "type": "Feature",
            "geometry": {
                "type": "Point",
                "coordinates": [
                    -6.944702,
                    43.5722255
                ]
            },
            "properties": {
                "name": "Cruz Roja"
            }
        },
        {
            "type": "Feature",
            "geometry": {
                "type": "Point",
                "coordinates": [
                    -3.7937843,
                    37.7760467
                ]
            },
            "properties": {
                "name": "Hospital Ciudad de Ja\u00e9n"
            }
        },
        {
            "type": "Feature",
            "geometry": {
                "type": "Point",
                "coordinates": [
                    -2.9235912,
                    43.2656162
                ]
            },
            "properties": {
                "name": "C. S. Matiko-Tiboli"
            }
        },
        {
            "type": "Feature",
            "geometry": {
                "type": "Point",
                "coordinates": [
                    0.5093689,
                    40.8276312
                ]
            },
            "properties": {
                "name": "Hospital de la Santa Creu"
            }
        },
        {
            "type": "Feature",
            "geometry": {
                "type": "Point",
                "coordinates": [
                    -15.568962,
                    27.760782
                ]
            }
        },
        {
            "type": "Feature",
            "geometry": {
                "type": "Point",
                "coordinates": [
                    -15.5697816,
                    27.7607531
                ]
            }
        },
        {
            "type": "Feature",
            "geometry": {
                "type": "Point",
                "coordinates": [
                    -15.5690007,
                    27.762193
                ]
            }
        },
        {
            "type": "Feature",
            "geometry": {
                "type": "Point",
                "coordinates": [
                    -15.565943,
                    27.762251
                ]
            }
        },
        {
            "type": "Feature",
            "geometry": {
                "type": "Point",
                "coordinates": [
                    -8.2192858,
                    43.3311409
                ]
            },
            "properties": {
                "name": "CPAP Bergondo"
            }
        },
        {
            "type": "Feature",
            "geometry": {
                "type": "Point",
                "coordinates": [
                    -6.5977943,
                    37.6936914
                ]
            },
            "properties": {
                "name": "Urgencias Hospital de Riotinto"
            }
        },
        {
            "type": "Feature",
            "geometry": {
                "type": "Point",
                "coordinates": [
                    -0.0854137,
                    38.9223669
                ]
            },
            "properties": {
                "name": "Cruz roja"
            }
        },
        {
            "type": "Feature",
            "geometry": {
                "type": "Point",
                "coordinates": [
                    -0.1158764,
                    38.922623
                ]
            },
            "properties": {
                "name": "Cruz roja de Oliva"
            }
        },
        {
            "type": "Feature",
            "geometry": {
                "type": "Point",
                "coordinates": [
                    1.0574966,
                    41.0715397
                ]
            },
            "properties": {
                "name": "Hospital Lleuger"
            }
        },
        {
            "type": "Feature",
            "geometry": {
                "type": "Point",
                "coordinates": [
                    -4.0303425,
                    38.0397805
                ]
            },
            "properties": {
                "name": "Entrada a urgencias"
            }
        },
        {
            "type": "Feature",
            "geometry": {
                "type": "Point",
                "coordinates": [
                    -2.9827609,
                    43.3000006
                ]
            },
            "properties": {
                "name": "Salud Mental Urban Infanto-Juvenil"
            }
        },
        {
            "type": "Feature",
            "geometry": {
                "type": "Point",
                "coordinates": [
                    -5.9711913,
                    37.318874
                ]
            },
            "properties": {
                "name": "Hospital Valme"
            }
        },
        {
            "type": "Feature",
            "geometry": {
                "type": "Point",
                "coordinates": [
                    -3.7618358,
                    40.6603825
                ]
            },
            "properties": {
                "name": "SUMMA112 - SUAP Colmenar Viejo Sur."
            }
        },
        {
            "type": "Feature",
            "geometry": {
                "type": "Point",
                "coordinates": [
                    2.1046368,
                    41.3452829
                ]
            },
            "properties": {
                "name": "Hospital Universitari de Bellvitge"
            }
        },
        {
            "type": "Feature",
            "geometry": {
                "type": "Point",
                "coordinates": [
                    -3.5030269,
                    40.5976222
                ]
            },
            "properties": {
                "name": "centro de salud algete"
            }
        },
        {
            "type": "Feature",
            "geometry": {
                "type": "Point",
                "coordinates": [
                    -4.0732472,
                    40.7606856
                ]
            },
            "properties": {
                "name": "LA FUENFRIA"
            }
        },
        {
            "type": "Feature",
            "geometry": {
                "type": "Point",
                "coordinates": [
                    -5.5738175,
                    42.6238335
                ]
            },
            "properties": {
                "name": "Cl\u00ednica Altollano"
            }
        },
        {
            "type": "Feature",
            "geometry": {
                "type": "Point",
                "coordinates": [
                    -3.0211004,
                    43.3156481
                ]
            },
            "properties": {
                "name": "Zunzunegui"
            }
        },
        {
            "type": "Feature",
            "geometry": {
                "type": "Point",
                "coordinates": [
                    -0.4346949,
                    38.3886753
                ]
            },
            "properties": {
                "name": "Hospital Universitario de San Juan. Alicante"
            }
        },
        {
            "type": "Feature",
            "geometry": {
                "type": "Point",
                "coordinates": [
                    -17.9173724,
                    28.6581755
                ]
            },
            "properties": {
                "name": "Centro de salud P\u00fablico de Los Llanos de Aridane"
            }
        },
        {
            "type": "Feature",
            "geometry": {
                "type": "Point",
                "coordinates": [
                    1.7227277,
                    41.228802
                ]
            },
            "properties": {
                "name": "Hospital Comarcal de Sant Antoni Abat"
            }
        },
        {
            "type": "Feature",
            "geometry": {
                "type": "Point",
                "coordinates": [
                    -1.6473749,
                    40.0411412
                ]
            },
            "properties": {
                "name": "Hospital Intercultural Kallvu Llanka (Ca\u00f1ete)"
            }
        },
        {
            "type": "Feature",
            "geometry": {
                "type": "Point",
                "coordinates": [
                    -3.9093444,
                    40.2840623
                ]
            },
            "properties": {
                "name": "Hermanas Hospitalarias"
            }
        },
        {
            "type": "Feature",
            "geometry": {
                "type": "Point",
                "coordinates": [
                    2.1732671,
                    41.3729854
                ]
            },
            "properties": {
                "name": "Fundaci\u00f3 sanitaria Sant Pere Claver"
            }
        },
        {
            "type": "Feature",
            "geometry": {
                "type": "Point",
                "coordinates": [
                    -4.1990574,
                    36.7157623
                ]
            },
            "properties": {
                "name": "Clinica El Seranil-Hospital de Salud Mental"
            }
        },
        {
            "type": "Feature",
            "geometry": {
                "type": "Point",
                "coordinates": [
                    -15.7009381,
                    28.1031603
                ]
            },
            "properties": {
                "name": "Centro de Salud de Agaete"
            }
        },
        {
            "type": "Feature",
            "geometry": {
                "type": "Point",
                "coordinates": [
                    -2.0014576,
                    43.30375
                ]
            },
            "properties": {
                "name": "Centro M\u00e9dico Matia"
            }
        },
        {
            "type": "Feature",
            "geometry": {
                "type": "Point",
                "coordinates": [
                    -13.8664341,
                    28.506814
                ]
            }
        },
        {
            "type": "Feature",
            "geometry": {
                "type": "Point",
                "coordinates": [
                    2.1733003,
                    41.3970879
                ]
            },
            "properties": {
                "name": "Hospital de Nens de Barcelona"
            }
        },
        {
            "type": "Feature",
            "geometry": {
                "type": "Point",
                "coordinates": [
                    -0.350731,
                    39.4651856
                ]
            },
            "properties": {
                "name": "Clinica Dental Nord"
            }
        },
        {
            "type": "Feature",
            "geometry": {
                "type": "Point",
                "coordinates": [
                    2.1102528,
                    41.5571175
                ]
            },
            "properties": {
                "name": "Tauli"
            }
        },
        {
            "type": "Feature",
            "geometry": {
                "type": "Point",
                "coordinates": [
                    -4.0454558,
                    40.666456
                ]
            },
            "properties": {
                "name": "Residencia de ancianos Ntra.Sra.del Pilar"
            }
        },
        {
            "type": "Feature",
            "geometry": {
                "type": "Point",
                "coordinates": [
                    -7.8602277,
                    42.3353652
                ]
            },
            "properties": {
                "name": "Clinica Podolog\u00eda"
            }
        },
        {
            "type": "Feature",
            "geometry": {
                "type": "Point",
                "coordinates": [
                    -0.3870217,
                    39.460709
                ]
            },
            "properties": {
                "name": "Hospital Virgen del Consuelo"
            }
        },
        {
            "type": "Feature",
            "geometry": {
                "type": "Point",
                "coordinates": [
                    -4.8265699,
                    36.5085679
                ]
            },
            "properties": {
                "name": "Hospital Costa del Sol Marbella Accidents and Emergencies"
            }
        },
        {
            "type": "Feature",
            "geometry": {
                "type": "Point",
                "coordinates": [
                    -0.6545014,
                    38.0836082
                ]
            },
            "properties": {
                "name": "Nurse Assistance"
            }
        },
        {
            "type": "Feature",
            "geometry": {
                "type": "Point",
                "coordinates": [
                    -4.0356029,
                    39.8717318
                ]
            },
            "properties": {
                "name": "Maternidad"
            }
        },
        {
            "type": "Feature",
            "geometry": {
                "type": "Point",
                "coordinates": [
                    -0.1228166,
                    38.6194973
                ]
            },
            "properties": {
                "name": "Urgencias"
            }
        },
        {
            "type": "Feature",
            "geometry": {
                "type": "Point",
                "coordinates": [
                    -5.1538362,
                    40.9838939
                ]
            },
            "properties": {
                "name": "Consultorio M\u00e9dico"
            }
        },
        {
            "type": "Feature",
            "geometry": {
                "type": "Point",
                "coordinates": [
                    -15.431818,
                    28.1339714
                ]
            },
            "properties": {
                "name": "Hospitales San Roque Consultas Externas"
            }
        },
        {
            "type": "Feature",
            "geometry": {
                "type": "Point",
                "coordinates": [
                    -2.8922714,
                    43.4325769
                ]
            },
            "properties": {
                "name": "Sorosleak"
            }
        },
        {
            "type": "Feature",
            "geometry": {
                "type": "Point",
                "coordinates": [
                    -0.3736275,
                    39.4438587
                ]
            },
            "properties": {
                "name": "Torre A - La Fe"
            }
        },
        {
            "type": "Feature",
            "geometry": {
                "type": "Point",
                "coordinates": [
                    -0.3741683,
                    39.4439352
                ]
            },
            "properties": {
                "name": "Torre B - La Fe"
            }
        },
        {
            "type": "Feature",
            "geometry": {
                "type": "Point",
                "coordinates": [
                    -0.3746949,
                    39.4440088
                ]
            },
            "properties": {
                "name": "Torre C - La Fe"
            }
        },
        {
            "type": "Feature",
            "geometry": {
                "type": "Point",
                "coordinates": [
                    -0.3752267,
                    39.4436942
                ]
            },
            "properties": {
                "name": "Torre D - La Fe"
            }
        },
        {
            "type": "Feature",
            "geometry": {
                "type": "Point",
                "coordinates": [
                    -0.3757362,
                    39.44375
                ]
            },
            "properties": {
                "name": "Torre E - La Fe"
            }
        },
        {
            "type": "Feature",
            "geometry": {
                "type": "Point",
                "coordinates": [
                    -0.3762663,
                    39.4438032
                ]
            },
            "properties": {
                "name": "Torre F - La Fe"
            }
        },
        {
            "type": "Feature",
            "geometry": {
                "type": "Point",
                "coordinates": [
                    -0.3767586,
                    39.4438617
                ]
            },
            "properties": {
                "name": "Torre G - La Fe"
            }
        },
        {
            "type": "Feature",
            "geometry": {
                "type": "Point",
                "coordinates": [
                    -15.7082012,
                    27.7903972
                ]
            },
            "properties": {
                "name": "farmacia"
            }
        },
        {
            "type": "Feature",
            "geometry": {
                "type": "Point",
                "coordinates": [
                    -5.0008399,
                    41.4962676
                ]
            },
            "properties": {
                "name": "Cruz Roja"
            }
        },
        {
            "type": "Feature",
            "geometry": {
                "type": "Point",
                "coordinates": [
                    0.7973108,
                    42.7022996
                ]
            },
            "properties": {
                "name": "Espitau Val d'Aran"
            }
        },
        {
            "type": "Feature",
            "geometry": {
                "type": "Point",
                "coordinates": [
                    -5.8300616,
                    43.3763235
                ]
            },
            "properties": {
                "name": "Entrada Oncolog\u00eda Radioter\u00e1pica"
            }
        },
        {
            "type": "Feature",
            "geometry": {
                "type": "Point",
                "coordinates": [
                    -7.8601009,
                    42.3422385
                ]
            },
            "properties": {
                "name": "Centro de sa\u00fade Valle Incl\u00e1n"
            }
        },
        {
            "type": "Feature",
            "geometry": {
                "type": "Point",
                "coordinates": [
                    -7.9975437,
                    42.4485409
                ]
            },
            "properties": {
                "name": "CSR\u00e9f"
            }
        },
        {
            "type": "Feature",
            "geometry": {
                "type": "Point",
                "coordinates": [
                    -3.6271467,
                    40.4234652
                ]
            },
            "properties": {
                "name": "Centro de Especialidades Gonz\u00e1lez Bueno"
            }
        },
        {
            "type": "Feature",
            "geometry": {
                "type": "Point",
                "coordinates": [
                    2.2677722,
                    41.4797891
                ]
            },
            "properties": {
                "name": "CENTRO DE ATENCION PRIMARIA"
            }
        },
        {
            "type": "Feature",
            "geometry": {
                "type": "Point",
                "coordinates": [
                    2.1261254,
                    41.3851657
                ]
            },
            "properties": {
                "name": "Hospital Quiron Salud"
            }
        },
        {
            "type": "Feature",
            "geometry": {
                "type": "Point",
                "coordinates": [
                    -0.6918137,
                    38.0138889
                ]
            },
            "properties": {
                "name": "Centro de Salud San Luis"
            }
        },
        {
            "type": "Feature",
            "geometry": {
                "type": "Point",
                "coordinates": [
                    3.33555,
                    39.542635
                ]
            },
            "properties": {
                "name": "centre de Salut Porto cristo"
            }
        },
        {
            "type": "Feature",
            "geometry": {
                "type": "Point",
                "coordinates": [
                    -3.5666648,
                    36.9924757
                ]
            },
            "properties": {
                "name": "Centro de Salud"
            }
        },
        {
            "type": "Feature",
            "geometry": {
                "type": "Point",
                "coordinates": [
                    0.0441347,
                    38.6467604
                ]
            },
            "properties": {
                "name": "Hospital Cl\u00ednica Benidorm"
            }
        },
        {
            "type": "Feature",
            "geometry": {
                "type": "Point",
                "coordinates": [
                    -4.0991131,
                    40.9303938
                ]
            },
            "properties": {
                "name": "Centro De Reconocimiento Medico Nueva Segovia"
            }
        },
        {
            "type": "Feature",
            "geometry": {
                "type": "Point",
                "coordinates": [
                    2.4245217,
                    42.1502798
                ]
            },
            "properties": {
                "name": "Consultori Sant Privat d'en Bas"
            }
        },
        {
            "type": "Feature",
            "geometry": {
                "type": "Point",
                "coordinates": [
                    -4.6809131,
                    36.9310821
                ]
            },
            "properties": {
                "name": "CENTRO DE SALUD"
            }
        },
        {
            "type": "Feature",
            "geometry": {
                "type": "Point",
                "coordinates": [
                    -4.6825749,
                    36.9310446
                ]
            },
            "properties": {
                "name": "Farmacia"
            }
        },
        {
            "type": "Feature",
            "geometry": {
                "type": "Point",
                "coordinates": [
                    -2.875319,
                    38.7451809
                ]
            }
        },
        {
            "type": "Feature",
            "geometry": {
                "type": "Point",
                "coordinates": [
                    -0.7850238,
                    39.4259996
                ]
            },
            "properties": {
                "name": "Centro de Salud"
            }
        },