{
    "type": "FeatureCollection",
    "features": [
        {
            "type": "Feature",
            "geometry": {
                "type": "Point",
                "coordinates": [
                    6.1170923,
                    49.5919988
                ]
            },
            "properties": {
                "name": "Luxembourg School of Finance"
            }
        },
        {
            "type": "Feature",
            "geometry": {
                "type": "Point",
                "coordinates": [
                    6.1688516,
                    49.6323498
                ]
            },
            "properties": {
                "name": "University of Luxembourg - SnT"
            }
        },
        {
            "type": "Feature",
            "geometry": {
                "type": "Point",
                "coordinates": [
                    6.1592566,
                    49.6265241
                ]
            },
            "properties": {
                "name": "Universit\u00e9 du Luxembourg - Campus Kirchberg"
            }
        },
        {
            "type": "Feature",
            "geometry": {
                "type": "Point",
                "coordinates": [
                    6.2751888,
                    49.5048477
                ]
            }
        },
        {
            "type": "Feature",
            "geometry": {
                "type": "Point",
                "coordinates": [
                    6.1162923,
                    49.6233091
                ]
            },
            "properties": {
                "name": "Universit\u00e9 de Luxembourg, R\u00e9sidence des Dominicaines"
            }
        },
        {
            "type": "Feature",
            "geometry": {
                "type": "Point",
                "coordinates": [
                    5.9469636,
                    49.5042597
                ]
            },
            "properties": {
                "name": "Maison des Sciences Humaines"
            }
        },
        {
            "type": "Feature",
            "geometry": {
                "type": "Point",
                "coordinates": [
                    6.1124582,
                    49.6231694
                ]
            },
            "properties": {
                "name": "Universit\u00e9 du Luxembourg - Campus Limpertsberg"
            }
        },
        {
            "type": "Feature",
            "geometry": {
                "type": "Point",
                "coordinates": [
                    5.9482252,
                    49.5036214
                ]
            }
        },
        {
            "type": "Feature",
            "geometry": {
                "type": "Point",
                "coordinates": [
                    5.9421376,
                    49.5021938
                ]
            }
        },
        {
            "type": "Feature",
            "geometry": {
                "type": "Point",
                "coordinates": [
                    5.9453102,
                    49.5044946
                ]
            }
        }
    ],
    "crs": {
        "type": "name",
        "properties": {
            "name": "urn:ogc:def:crs:OGC:1.3:CRS84"
        }
    }
}