{
    "type": "FeatureCollection",
    "features": [
        {
            "type": "Feature",
            "geometry": {
                "type": "Point",
                "coordinates": [
                    17.9929753,
                    59.2998238
                ]
            },
            "properties": {
                "name": "Konstfack"
            }
        },
        {
            "type": "Feature",
            "geometry": {
                "type": "Point",
                "coordinates": [
                    18.2892397,
                    57.6396402
                ]
            },
            "properties": {
                "name": "Uppsala universitet"
            }
        },
        {
            "type": "Feature",
            "geometry": {
                "type": "Point",
                "coordinates": [
                    18.0310658,
                    59.3515453
                ]
            },
            "properties": {
                "name": "Karolinska Institutet"
            }
        },
        {
            "type": "Feature",
            "geometry": {
                "type": "Point",
                "coordinates": [
                    15.6536399,
                    60.6138884
                ]
            },
            "properties": {
                "name": "H\u00f6gskolan Dalarna"
            }
        },
        {
            "type": "Feature",
            "geometry": {
                "type": "Point",
                "coordinates": [
                    18.2912291,
                    57.6396123
                ]
            },
            "properties": {
                "name": "Gotlands Studentk\u00e5r Rindi"
            }
        },
        {
            "type": "Feature",
            "geometry": {
                "type": "Point",
                "coordinates": [
                    18.0731948,
                    59.3501954
                ]
            },
            "properties": {
                "name": "Operah\u00f6gskolan"
            }
        },
        {
            "type": "Feature",
            "geometry": {
                "type": "Point",
                "coordinates": [
                    17.6194317,
                    59.859947
                ]
            },
            "properties": {
                "name": "Department of business studies"
            }
        },
        {
            "type": "Feature",
            "geometry": {
                "type": "Point",
                "coordinates": [
                    13.9331614,
                    56.83242
                ]
            },
            "properties": {
                "name": "Centrum f\u00f6r Informationslogistik"
            }
        },
        {
            "type": "Feature",
            "geometry": {
                "type": "Point",
                "coordinates": [
                    11.9851923,
                    57.6944534
                ]
            },
            "properties": {
                "name": "Humanistiska fakulteten"
            }
        },
        {
            "type": "Feature",
            "geometry": {
                "type": "Point",
                "coordinates": [
                    18.1010728,
                    59.3394108
                ]
            },
            "properties": {
                "name": "Stockholms dramatiska h\u00f6gskola"
            }
        },
        {
            "type": "Feature",
            "geometry": {
                "type": "Point",
                "coordinates": [
                    17.946963,
                    62.6311188
                ]
            },
            "properties": {
                "name": "Mittuniversitetet Campus H\u00e4rn\u00f6sand"
            }
        },
        {
            "type": "Feature",
            "geometry": {
                "type": "Point",
                "coordinates": [
                    17.9513688,
                    62.6323195
                ]
            }
        },
        {
            "type": "Feature",
            "geometry": {
                "type": "Point",
                "coordinates": [
                    15.679929,
                    59.8285499
                ]
            },
            "properties": {
                "name": "Skogsm\u00e4starskolan"
            }
        },
        {
            "type": "Feature",
            "geometry": {
                "type": "Point",
                "coordinates": [
                    17.9452899,
                    62.6317432
                ]
            }
        },
        {
            "type": "Feature",
            "geometry": {
                "type": "Point",
                "coordinates": [
                    17.9493462,
                    59.4051478
                ]
            },
            "properties": {
                "name": "EIT ICT Labs Stockholm"
            }
        },
        {
            "type": "Feature",
            "geometry": {
                "type": "Point",
                "coordinates": [
                    11.9743211,
                    57.699292
                ]
            },
            "properties": {
                "name": "Academy of Design and Crafts (HDK)"
            }
        },
        {
            "type": "Feature",
            "geometry": {
                "type": "Point",
                "coordinates": [
                    17.7883676,
                    62.9128696
                ]
            },
            "properties": {
                "name": "Tr\u00e4akademien"
            }
        },
        {
            "type": "Feature",
            "geometry": {
                "type": "Point",
                "coordinates": [
                    18.0951963,
                    59.3348349
                ]
            },
            "properties": {
                "name": "Stockholms konstn\u00e4rliga h\u00f6gskola"
            }
        },
        {
            "type": "Feature",
            "geometry": {
                "type": "Point",
                "coordinates": [
                    18.0691412,
                    59.3490702
                ]
            },
            "properties": {
                "name": "F\u00f6rsvarsh\u00f6gskolan"
            }
        },
        {
            "type": "Feature",
            "geometry": {
                "type": "Point",
                "coordinates": [
                    18.0715775,
                    59.3495294
                ]
            },
            "properties": {
                "name": "R\u00f6da Korsets h\u00f6gskola"
            }
        },
        {
            "type": "Feature",
            "geometry": {
                "type": "Point",
                "coordinates": [
                    18.0770881,
                    59.3463221
                ]
            },
            "properties": {
                "name": "Sophiahemmet H\u00f6gskola"
            }
        },
        {
            "type": "Feature",
            "geometry": {
                "type": "Point",
                "coordinates": [
                    13.4663543,
                    55.7249426
                ]
            },
            "properties": {
                "name": "R\u00e4ddningsverkets skola"
            }
        },
        {
            "type": "Feature",
            "geometry": {
                "type": "Point",
                "coordinates": [
                    13.2153156,
                    55.7116114
                ]
            },
            "properties": {
                "name": "Centrum f\u00f6r \u00f6st- och syd\u00f6stasienstudier"
            }
        },
        {
            "type": "Feature",
            "geometry": {
                "type": "Point",
                "coordinates": [
                    17.6366551,
                    59.8593087
                ]
            },
            "properties": {
                "name": "Uppsala Universitet Gamla Torget"
            }
        },
        {
            "type": "Feature",
            "geometry": {
                "type": "Point",
                "coordinates": [
                    17.663355,
                    59.8559511
                ]
            },
            "properties": {
                "name": "Uppsala universitets tentamenslokal Bergsbrunnagatan"
            }
        },
        {
            "type": "Feature",
            "geometry": {
                "type": "Point",
                "coordinates": [
                    12.5923088,
                    59.6299471
                ]
            },
            "properties": {
                "name": "Ingesunds folkh\u00f6gskola"
            }
        },
        {
            "type": "Feature",
            "geometry": {
                "type": "Point",
                "coordinates": [
                    14.1678081,
                    56.1068432
                ]
            },
            "properties": {
                "name": "SLU Balsg\u00e5rd"
            }
        },
        {
            "type": "Feature",
            "geometry": {
                "type": "Point",
                "coordinates": [
                    17.6301676,
                    59.8566048
                ]
            },
            "properties": {
                "name": "Studenth\u00e4lsan"
            }
        },
        {
            "type": "Feature",
            "geometry": {
                "type": "Point",
                "coordinates": [
                    13.22836,
                    56.0773732
                ]
            },
            "properties": {
                "name": "Trafikflygh\u00f6gskolan"
            }
        },
        {
            "type": "Feature",
            "geometry": {
                "type": "Point",
                "coordinates": [
                    17.6956985,
                    59.8519424
                ]
            },
            "properties": {
                "name": "Uppsala universitets tentamenslokal Fyrislundsgatan"
            }
        },
        {
            "type": "Feature",
            "geometry": {
                "type": "Point",
                "coordinates": [
                    11.9712616,
                    57.698546
                ]
            },
            "properties": {
                "name": "G\u00f6teborgs Universitet"
            }
        },
        {
            "type": "Feature",
            "geometry": {
                "type": "Point",
                "coordinates": [
                    17.6472813,
                    59.8383725
                ]
            },
            "properties": {
                "name": "\u00c5ngstr\u00f6mlaboratoriet"
            }
        },
        {
            "type": "Feature",
            "geometry": {
                "type": "Point",
                "coordinates": [
                    11.9592643,
                    57.6884163
                ]
            },
            "properties": {
                "name": "Zoologiska Instutitionen"
            }
        },
        {
            "type": "Feature",
            "geometry": {
                "type": "Point",
                "coordinates": [
                    11.965054,
                    57.6851453
                ]
            },
            "properties": {
                "name": "Medicinsk Mikrobiologi"
            }
        },
        {
            "type": "Feature",
            "geometry": {
                "type": "Point",
                "coordinates": [
                    17.6631747,
                    59.8151541
                ]
            },
            "properties": {
                "name": "Undervisningshus"
            }
        },
        {
            "type": "Feature",
            "geometry": {
                "type": "Point",
                "coordinates": [
                    17.6636742,
                    59.8144697
                ]
            }
        },
        {
            "type": "Feature",
            "geometry": {
                "type": "Point",
                "coordinates": [
                    17.6627988,
                    59.8141632
                ]
            },
            "properties": {
                "name": "Ultuna Studentk\u00e5r"
            }
        },
        {
            "type": "Feature",
            "geometry": {
                "type": "Point",
                "coordinates": [
                    17.6641345,
                    59.8147989
                ]
            }
        },
        {
            "type": "Feature",
            "geometry": {
                "type": "Point",
                "coordinates": [
                    17.6637685,
                    59.8154647
                ]
            }
        },
        {
            "type": "Feature",
            "geometry": {
                "type": "Point",
                "coordinates": [
                    17.6649358,
                    59.8148408
                ]
            }
        },
        {
            "type": "Feature",
            "geometry": {
                "type": "Point",
                "coordinates": [
                    17.6604656,
                    59.8176428
                ]
            }
        },
        {
            "type": "Feature",
            "geometry": {
                "type": "Point",
                "coordinates": [
                    17.6586048,
                    59.8138396
                ]
            }
        },
        {
            "type": "Feature",
            "geometry": {
                "type": "Point",
                "coordinates": [
                    17.6295514,
                    59.8576152
                ]
            },
            "properties": {
                "name": "Universitetshuset"
            }
        },
        {
            "type": "Feature",
            "geometry": {
                "type": "Point",
                "coordinates": [
                    14.9819088,
                    60.7408044
                ]
            }
        },
        {
            "type": "Feature",
            "geometry": {
                "type": "Point",
                "coordinates": [
                    17.1193783,
                    60.6681652
                ]
            },
            "properties": {
                "name": "H\u00f6gskolan i G\u00e4vle"
            }
        },
        {
            "type": "Feature",
            "geometry": {
                "type": "Point",
                "coordinates": [
                    18.133994,
                    59.163033
                ]
            },
            "properties": {
                "name": "Riks\u00e4pplet"
            }
        },
        {
            "type": "Feature",
            "geometry": {
                "type": "Point",
                "coordinates": [
                    17.9396025,
                    59.2177724
                ]
            },
            "properties": {
                "name": "Karolinska Institutet"
            }
        },
        {
            "type": "Feature",
            "geometry": {
                "type": "Point",
                "coordinates": [
                    17.938873,
                    59.2184138
                ]
            }
        },
        {
            "type": "Feature",
            "geometry": {
                "type": "Point",
                "coordinates": [
                    17.9394137,
                    59.2188179
                ]
            }
        },
        {
            "type": "Feature",
            "geometry": {
                "type": "Point",
                "coordinates": [
                    11.9663611,
                    57.6883917
                ]
            },
            "properties": {
                "name": "Geovetarcentrum"
            }
        },
        {
            "type": "Feature",
            "geometry": {
                "type": "Point",
                "coordinates": [
                    11.9768911,
                    57.6922595
                ]
            },
            "properties": {
                "name": "Imego"
            }
        },
        {
            "type": "Feature",
            "geometry": {
                "type": "Point",
                "coordinates": [
                    11.9761426,
                    57.6907798
                ]
            }
        },
        {
            "type": "Feature",
            "geometry": {
                "type": "Point",
                "coordinates": [
                    11.9726451,
                    57.6903789
                ]
            },
            "properties": {
                "name": "Chalmers Innovation"
            }
        },
        {
            "type": "Feature",
            "geometry": {
                "type": "Point",
                "coordinates": [
                    11.9715015,
                    57.6906923
                ]
            }
        },
        {
            "type": "Feature",
            "geometry": {
                "type": "Point",
                "coordinates": [
                    11.9722961,
                    57.6902448
                ]
            }
        },
        {
            "type": "Feature",
            "geometry": {
                "type": "Point",
                "coordinates": [
                    11.9766331,
                    57.6928262
                ]
            }
        },
        {
            "type": "Feature",
            "geometry": {
                "type": "Point",
                "coordinates": [
                    11.9761371,
                    57.6931458
                ]
            }
        },
        {
            "type": "Feature",
            "geometry": {
                "type": "Point",
                "coordinates": [
                    11.9776457,
                    57.6897297
                ]
            },
            "properties": {
                "name": "Chalmers Tekniska H\u00f6gskola"
            }
        },
        {
            "type": "Feature",
            "geometry": {
                "type": "Point",
                "coordinates": [
                    11.9753836,
                    57.6925238
                ]
            }
        },
        {
            "type": "Feature",
            "geometry": {
                "type": "Point",
                "coordinates": [
                    11.974336,
                    57.6922374
                ]
            }
        },
        {
            "type": "Feature",
            "geometry": {
                "type": "Point",
                "coordinates": [
                    11.9752141,
                    57.692105
                ]
            }
        },
        {
            "type": "Feature",
            "geometry": {
                "type": "Point",
                "coordinates": [
                    11.974597,
                    57.6919553
                ]
            }
        },
        {
            "type": "Feature",
            "geometry": {
                "type": "Point",
                "coordinates": [
                    11.9760428,
                    57.6923474
                ]
            }
        },
        {
            "type": "Feature",
            "geometry": {
                "type": "Point",
                "coordinates": [
                    18.0692256,
                    59.3436825
                ]
            },
            "properties": {
                "name": "KTH: Arkitekturskolan"
            }
        },
        {
            "type": "Feature",
            "geometry": {
                "type": "Point",
                "coordinates": [
                    18.0569219,
                    59.3416107
                ]
            },
            "properties": {
                "name": "Handelsh\u00f6gskolan"
            }
        },
        {
            "type": "Feature",
            "geometry": {
                "type": "Point",
                "coordinates": [
                    13.8549108,
                    58.3942794
                ]
            },
            "properties": {
                "name": "H\u00f6gskolan i Sk\u00f6vde"
            }
        },
        {
            "type": "Feature",
            "geometry": {
                "type": "Point",
                "coordinates": [
                    11.9585834,
                    57.6878156
                ]
            },
            "properties": {
                "name": "Milj\u00f6- och yrkesmedicin"
            }
        },
        {
            "type": "Feature",
            "geometry": {
                "type": "Point",
                "coordinates": [
                    11.9542417,
                    57.6898845
                ]
            },
            "properties": {
                "name": "Psykologiska institutionen"
            }
        },
        {
            "type": "Feature",
            "geometry": {
                "type": "Point",
                "coordinates": [
                    18.0585004,
                    59.3523659
                ]
            }
        },
        {
            "type": "Feature",
            "geometry": {
                "type": "Point",
                "coordinates": [
                    17.9497287,
                    62.6315593
                ]
            }
        },
        {
            "type": "Feature",
            "geometry": {
                "type": "Point",
                "coordinates": [
                    17.9498218,
                    62.6304997
                ]
            },
            "properties": {
                "name": "Maskinhallen"
            }
        },
        {
            "type": "Feature",
            "geometry": {
                "type": "Point",
                "coordinates": [
                    13.1932496,
                    55.7058313
                ]
            },
            "properties": {
                "name": "Universitetshuset"
            }
        },
        {
            "type": "Feature",
            "geometry": {
                "type": "Point",
                "coordinates": [
                    14.6509109,
                    63.1765963
                ]
            },
            "properties": {
                "name": "Mittuniversitetet"
            }
        },
        {
            "type": "Feature",
            "geometry": {
                "type": "Point",
                "coordinates": [
                    17.9461598,
                    62.6314603
                ]
            },
            "properties": {
                "name": "\u00c4delstenen"
            }
        },
        {
            "type": "Feature",
            "geometry": {
                "type": "Point",
                "coordinates": [
                    17.9492551,
                    62.6306984
                ]
            }
        },
        {
            "type": "Feature",
            "geometry": {
                "type": "Point",
                "coordinates": [
                    17.5901534,
                    59.8654553
                ]
            }
        },
        {
            "type": "Feature",
            "geometry": {
                "type": "Point",
                "coordinates": [
                    18.7127972,
                    63.2888619
                ]
            }
        },
        {
            "type": "Feature",
            "geometry": {
                "type": "Point",
                "coordinates": [
                    22.1378245,
                    65.6168637
                ]
            },
            "properties": {
                "name": "Alfa-huset"
            }
        },
        {
            "type": "Feature",
            "geometry": {
                "type": "Point",
                "coordinates": [
                    22.1410701,
                    65.6199127
                ]
            },
            "properties": {
                "name": "K-huset"
            }
        },
        {
            "type": "Feature",
            "geometry": {
                "type": "Point",
                "coordinates": [
                    15.5764556,
                    58.3978496
                ]
            },
            "properties": {
                "name": "Link\u00f6pings universitet"
            }
        },
        {
            "type": "Feature",
            "geometry": {
                "type": "Point",
                "coordinates": [
                    18.0595533,
                    59.3661977
                ]
            },
            "properties": {
                "name": "Stockholms universitet"
            }
        },
        {
            "type": "Feature",
            "geometry": {
                "type": "Point",
                "coordinates": [
                    11.9504228,
                    57.6817907
                ]
            },
            "properties": {
                "name": "Institutionen f\u00f6r biologi och milj\u00f6vetenskaper"
            }
        },
        {
            "type": "Feature",
            "geometry": {
                "type": "Point",
                "coordinates": [
                    15.250488,
                    59.2540429
                ]
            },
            "properties": {
                "name": "\u00d6rebro universitet"
            }
        },
        {
            "type": "Feature",
            "geometry": {
                "type": "Point",
                "coordinates": [
                    13.1992409,
                    55.7087604
                ]
            },
            "properties": {
                "name": "Spr\u00e5k- och litteraturcentrum"
            }
        },
        {
            "type": "Feature",
            "geometry": {
                "type": "Point",
                "coordinates": [
                    11.9616205,
                    57.6969475
                ]
            },
            "properties": {
                "name": "Handelsh\u00f6gskolan"
            }
        },
        {
            "type": "Feature",
            "geometry": {
                "type": "Point",
                "coordinates": [
                    16.1821837,
                    58.5883845
                ]
            },
            "properties": {
                "name": "Campus Norrk\u00f6ping, Bomullsspinneriet"
            }
        },
        {
            "type": "Feature",
            "geometry": {
                "type": "Point",
                "coordinates": [
                    17.6262621,
                    59.1884271
                ]
            },
            "properties": {
                "name": "Campus Telge"
            }
        },
        {
            "type": "Feature",
            "geometry": {
                "type": "Point",
                "coordinates": [
                    16.1771999,
                    58.5886971
                ]
            }
        },
        {
            "type": "Feature",
            "geometry": {
                "type": "Point",
                "coordinates": [
                    18.7131451,
                    63.2882772
                ]
            },
            "properties": {
                "name": "Stadsbiblioteket"
            }
        },
        {
            "type": "Feature",
            "geometry": {
                "type": "Point",
                "coordinates": [
                    18.7105036,
                    63.2879963
                ]
            }
        },
        {
            "type": "Feature",
            "geometry": {
                "type": "Point",
                "coordinates": [
                    13.19484,
                    55.7059417
                ]
            }
        },
        {
            "type": "Feature",
            "geometry": {
                "type": "Point",
                "coordinates": [
                    15.6237648,
                    58.403258
                ]
            },
            "properties": {
                "name": "Link\u00f6pings universitet, Campus US"
            }
        },
        {
            "type": "Feature",
            "geometry": {
                "type": "Point",
                "coordinates": [
                    16.5420813,
                    59.6175244
                ]
            },
            "properties": {
                "name": "M\u00e4lardalens H\u00f6gskola"
            }
        },
        {
            "type": "Feature",
            "geometry": {
                "type": "Point",
                "coordinates": [
                    16.5413409,
                    59.6182015
                ]
            },
            "properties": {
                "name": "M\u00e4lardalens H\u00f6gskola"
            }
        },
        {
            "type": "Feature",
            "geometry": {
                "type": "Point",
                "coordinates": [
                    20.3081072,
                    63.8217978
                ]
            },
            "properties": {
                "name": "Ume\u00e5 universitet"
            }
        },
        {
            "type": "Feature",
            "geometry": {
                "type": "Point",
                "coordinates": [
                    17.6488416,
                    59.8394579
                ]
            },
            "properties": {
                "name": "Campus Polacksbacken"
            }
        },
        {
            "type": "Feature",
            "geometry": {
                "type": "Point",
                "coordinates": [
                    16.1776083,
                    58.5903675
                ]
            },
            "properties": {
                "name": "Campus Norrk\u00f6ping, Spetsen"
            }
        },
        {
            "type": "Feature",
            "geometry": {
                "type": "Point",
                "coordinates": [
                    13.2134352,
                    55.7100879
                ]
            },
            "properties": {
                "name": "Ekonomih\u00f6gskolan vid Lunds universitet"
            }
        },
        {
            "type": "Feature",
            "geometry": {
                "type": "Point",
                "coordinates": [
                    17.9403256,
                    59.2206908
                ]
            },
            "properties": {
                "name": "Novum"
            }
        },
        {
            "type": "Feature",
            "geometry": {
                "type": "Point",
                "coordinates": [
                    17.9422869,
                    59.2186004
                ]
            }
        },
        {
            "type": "Feature",
            "geometry": {
                "type": "Point",
                "coordinates": [
                    11.9766524,
                    57.6899298
                ]
            }
        },
        {
            "type": "Feature",
            "geometry": {
                "type": "Point",
                "coordinates": [
                    11.9769974,
                    57.6894094
                ]
            },
            "properties": {
                "name": "Maskinteknik"
            }
        },
        {
            "type": "Feature",
            "geometry": {
                "type": "Point",
                "coordinates": [
                    11.9719793,
                    57.6904625
                ]
            },
            "properties": {
                "name": "Chalmers Innovation"
            }
        },
        {
            "type": "Feature",
            "geometry": {
                "type": "Point",
                "coordinates": [
                    11.9717173,
                    57.6904479
                ]
            },
            "properties": {
                "name": "Chalmers Innovation"
            }
        },
        {
            "type": "Feature",
            "geometry": {
                "type": "Point",
                "coordinates": [
                    11.9720829,
                    57.6908135
                ]
            },
            "properties": {
                "name": "Chalmers Innovation"
            }
        },
        {
            "type": "Feature",
            "geometry": {
                "type": "Point",
                "coordinates": [
                    11.972267,
                    57.6905803
                ]
            },
            "properties": {
                "name": "Chalmers Innovation"
            }
        },
        {
            "type": "Feature",
            "geometry": {
                "type": "Point",
                "coordinates": [
                    11.9798259,
                    57.6877587
                ]
            },
            "properties": {
                "name": "Elektro-, Data- och IT-teknik"
            }
        },
        {
            "type": "Feature",
            "geometry": {
                "type": "Point",
                "coordinates": [
                    11.9788596,
                    57.688934
                ]
            },
            "properties": {
                "name": "Maskinteknik"
            }
        },
        {
            "type": "Feature",
            "geometry": {
                "type": "Point",
                "coordinates": [
                    15.5915341,
                    56.1820418
                ]
            },
            "properties": {
                "name": "Blekinge Tekniska H\u00f6gskola"
            }
        },
        {
            "type": "Feature",
            "geometry": {
                "type": "Point",
                "coordinates": [
                    13.2018204,
                    55.7094038
                ]
            }
        },
        {
            "type": "Feature",
            "geometry": {
                "type": "Point",
                "coordinates": [
                    13.2005952,
                    55.7087619
                ]
            },
            "properties": {
                "name": "Institutionen f\u00f6r kulturgeografi och ekonomisk geografi"
            }
        },
        {
            "type": "Feature",
            "geometry": {
                "type": "Point",
                "coordinates": [
                    13.2042549,
                    55.7117172
                ]
            },
            "properties": {
                "name": "Institutionen f\u00f6r astronomi och teoretisk fysik"
            }
        },
        {
            "type": "Feature",
            "geometry": {
                "type": "Point",
                "coordinates": [
                    13.2002322,
                    55.7098007
                ]
            },
            "properties": {
                "name": "LUX"
            }
        },
        {
            "type": "Feature",
            "geometry": {
                "type": "Point",
                "coordinates": [
                    13.1914381,
                    55.7052628
                ]
            },
            "properties": {
                "name": "Juridicum"
            }
        },
        {
            "type": "Feature",
            "geometry": {
                "type": "Point",
                "coordinates": [
                    12.9403512,
                    57.7251502
                ]
            },
            "properties": {
                "name": "H\u00f6gskolan i Bor\u00e5s"
            }
        },
        {
            "type": "Feature",
            "geometry": {
                "type": "Point",
                "coordinates": [
                    20.9572564,
                    64.7454524
                ]
            }
        },
        {
            "type": "Feature",
            "geometry": {
                "type": "Point",
                "coordinates": [
                    20.9564479,
                    64.7443835
                ]
            }
        },
        {
            "type": "Feature",
            "geometry": {
                "type": "Point",
                "coordinates": [
                    14.8298515,
                    56.8540916
                ]
            },
            "properties": {
                "name": "Linn\u00e9universitetet"
            }
        },
        {
            "type": "Feature",
            "geometry": {
                "type": "Point",
                "coordinates": [
                    15.9236272,
                    56.7325111
                ]
            },
            "properties": {
                "name": "Linn\u00e9universitetet"
            }
        },
        {
            "type": "Feature",
            "geometry": {
                "type": "Point",
                "coordinates": [
                    16.3493069,
                    56.6637301
                ]
            },
            "properties": {
                "name": "Linn\u00e9universitetet"
            }
        },
        {
            "type": "Feature",
            "geometry": {
                "type": "Point",
                "coordinates": [
                    16.3487038,
                    56.6652917
                ]
            },
            "properties": {
                "name": "Linn\u00e9universitetet"
            }
        },
        {
            "type": "Feature",
            "geometry": {
                "type": "Point",
                "coordinates": [
                    20.4107116,
                    67.8411313
                ]
            },
            "properties": {
                "name": "Rymdcampus"
            }
        },
        {
            "type": "Feature",
            "geometry": {
                "type": "Point",
                "coordinates": [
                    11.9385074,
                    57.706271
                ]
            },
            "properties": {
                "name": "Chalmers Lindholmen - Jupiter"
            }
        },
        {
            "type": "Feature",
            "geometry": {
                "type": "Point",
                "coordinates": [
                    11.9372481,
                    57.7060786
                ]
            },
            "properties": {
                "name": "Chalmers Lindholmen - Saga"
            }
        },
        {
            "type": "Feature",
            "geometry": {
                "type": "Point",
                "coordinates": [
                    11.9364619,
                    57.7062823
                ]
            },
            "properties": {
                "name": "Chalmers Lindholmen - Svea"
            }
        },
        {
            "type": "Feature",
            "geometry": {
                "type": "Point",
                "coordinates": [
                    11.9368453,
                    57.7067115
                ]
            },
            "properties": {
                "name": "IT-universitetet - Patricia"
            }
        },
        {
            "type": "Feature",
            "geometry": {
                "type": "Point",
                "coordinates": [
                    11.9366499,
                    57.7064989
                ]
            }
        },
        {
            "type": "Feature",
            "geometry": {
                "type": "Point",
                "coordinates": [
                    13.2074487,
                    55.7132417
                ]
            },
            "properties": {
                "name": "Biologicentrum"
            }
        },
        {
            "type": "Feature",
            "geometry": {
                "type": "Point",
                "coordinates": [
                    22.1401788,
                    65.6176076
                ]
            },
            "properties": {
                "name": "B-huset"
            }
        },
        {
            "type": "Feature",
            "geometry": {
                "type": "Point",
                "coordinates": [
                    15.6057853,
                    56.1851969
                ]
            },
            "properties": {
                "name": "Campus Annebo"
            }
        },
        {
            "type": "Feature",
            "geometry": {
                "type": "Point",
                "coordinates": [
                    20.2753237,
                    63.8207924
                ]
            },
            "properties": {
                "name": "Konstn\u00e4rligt campus"
            }
        },
        {
            "type": "Feature",
            "geometry": {
                "type": "Point",
                "coordinates": [
                    17.997239,
                    59.395328
                ]
            },
            "properties": {
                "name": "Polish\u00f6gskolan"
            }
        },
        {
            "type": "Feature",
            "geometry": {
                "type": "Point",
                "coordinates": [
                    12.698876,
                    56.0384614
                ]
            },
            "properties": {
                "name": "Lunds universitet Campus Helsingborg"
            }
        },
        {
            "type": "Feature",
            "geometry": {
                "type": "Point",
                "coordinates": [
                    16.3623545,
                    56.6591376
                ]
            }
        },
        {
            "type": "Feature",
            "geometry": {
                "type": "Point",
                "coordinates": [
                    18.0576898,
                    59.3532181
                ]
            },
            "properties": {
                "name": "AlbaNova"
            }
        },
        {
            "type": "Feature",
            "geometry": {
                "type": "Point",
                "coordinates": [
                    17.6301638,
                    59.851038
                ]
            },
            "properties": {
                "name": "Bl\u00e5senhus"
            }
        },
        {
            "type": "Feature",
            "geometry": {
                "type": "Point",
                "coordinates": [
                    17.6241095,
                    59.8495492
                ]
            },
            "properties": {
                "name": "Evolutionsbiologiskt Centrum"
            }
        },
        {
            "type": "Feature",
            "geometry": {
                "type": "Point",
                "coordinates": [
                    17.6262925,
                    59.8535629
                ]
            },
            "properties": {
                "name": "Campus Engelska parken"
            }
        },
        {
            "type": "Feature",
            "geometry": {
                "type": "Point",
                "coordinates": [
                    17.6344424,
                    59.8419178
                ]
            },
            "properties": {
                "name": "Biomedicinskt centrum"
            }
        },
        {
            "type": "Feature",
            "geometry": {
                "type": "Point",
                "coordinates": [
                    12.2924023,
                    58.282617
                ]
            },
            "properties": {
                "name": "H\u00f6gskolan V\u00e4st"
            }
        },
        {
            "type": "Feature",
            "geometry": {
                "type": "Point",
                "coordinates": [
                    17.2817345,
                    62.396673
                ]
            },
            "properties": {
                "name": "Mittuniversitetet"
            }
        },
        {
            "type": "Feature",
            "geometry": {
                "type": "Point",
                "coordinates": [
                    11.9724755,
                    57.7006274
                ]
            },
            "properties": {
                "name": "Akademin Valand"
            }
        },
        {
            "type": "Feature",
            "geometry": {
                "type": "Point",
                "coordinates": [
                    13.0814545,
                    55.6587209
                ]
            },
            "properties": {
                "name": "Sveriges lantbruksuniversitet"
            }
        },
        {
            "type": "Feature",
            "geometry": {
                "type": "Point",
                "coordinates": [
                    18.610277,
                    67.9112863
                ]
            },
            "properties": {
                "name": "Tarfala forskningsstation"
            }
        },
        {
            "type": "Feature",
            "geometry": {
                "type": "Point",
                "coordinates": [
                    16.5077904,
                    59.3712493
                ]
            },
            "properties": {
                "name": "M\u00e4lardalens h\u00f6gskola"
            }
        },
        {
            "type": "Feature",
            "geometry": {
                "type": "Point",
                "coordinates": [
                    16.5036748,
                    59.3707936
                ]
            },
            "properties": {
                "name": "M\u00e4lardalens h\u00f6gskola"
            }
        },
        {
            "type": "Feature",
            "geometry": {
                "type": "Point",
                "coordinates": [
                    18.0489264,
                    59.3655105
                ]
            },
            "properties": {
                "name": "Lilla Frescati"
            }
        },
        {
            "type": "Feature",
            "geometry": {
                "type": "Point",
                "coordinates": [
                    18.0528031,
                    59.3613143
                ]
            },
            "properties": {
                "name": "Frescati Hage"
            }
        },
        {
            "type": "Feature",
            "geometry": {
                "type": "Point",
                "coordinates": [
                    20.9567378,
                    64.7451641
                ]
            },
            "properties": {
                "name": "Campus Skellefte\u00e5"
            }
        },
        {
            "type": "Feature",
            "geometry": {
                "type": "Point",
                "coordinates": [
                    18.0541158,
                    59.3572812
                ]
            },
            "properties": {
                "name": "Kr\u00e4ftriket"
            }
        },
        {
            "type": "Feature",
            "geometry": {
                "type": "Point",
                "coordinates": [
                    18.0518403,
                    59.3509044
                ]
            },
            "properties": {
                "name": "Socialh\u00f6gskolan"
            }
        },
        {
            "type": "Feature",
            "geometry": {
                "type": "Point",
                "coordinates": [
                    17.6622291,
                    59.8170003
                ]
            },
            "properties": {
                "name": "MVM"
            }
        },
        {
            "type": "Feature",
            "geometry": {
                "type": "Point",
                "coordinates": [
                    11.9603391,
                    57.6977039
                ]
            },
            "properties": {
                "name": "Campus Haga"
            }
        },
        {
            "type": "Feature",
            "geometry": {
                "type": "Point",
                "coordinates": [
                    14.1617054,
                    57.7780008
                ]
            },
            "properties": {
                "name": "J\u00f6nk\u00f6ping University - Campus J\u00f6nk\u00f6ping"
            }
        },
        {
            "type": "Feature",
            "geometry": {
                "type": "Point",
                "coordinates": [
                    11.1464514,
                    58.8758498
                ]
            },
            "properties": {
                "name": "Lov\u00e9ncentret Tj\u00e4rn\u00f6"
            }
        },
        {
            "type": "Feature",
            "geometry": {
                "type": "Point",
                "coordinates": [
                    14.1582155,
                    59.7111114
                ]
            },
            "properties": {
                "name": "Bergskolan"
            }
        },
        {
            "type": "Feature",
            "geometry": {
                "type": "Point",
                "coordinates": [
                    13.0135672,
                    55.6001032
                ]
            },
            "properties": {
                "name": "Konsth\u00f6gskolan"
            }
        },
        {
            "type": "Feature",
            "geometry": {
                "type": "Point",
                "coordinates": [
                    16.1763842,
                    58.5887393
                ]
            }
        },
        {
            "type": "Feature",
            "geometry": {
                "type": "Point",
                "coordinates": [
                    16.1757587,
                    58.5887682
                ]
            }
        },
        {
            "type": "Feature",
            "geometry": {
                "type": "Point",
                "coordinates": [
                    16.1774142,
                    58.589132
                ]
            }
        },
        {
            "type": "Feature",
            "geometry": {
                "type": "Point",
                "coordinates": [
                    16.1768619,
                    58.5899054
                ]
            },
            "properties": {
                "name": "Campus Norrk\u00f6ping, K\u00e5kenhus"
            }
        },
        {
            "type": "Feature",
            "geometry": {
                "type": "Point",
                "coordinates": [
                    13.5823703,
                    59.4065759
                ]
            },
            "properties": {
                "name": "Karlstads universitet"
            }
        },
        {
            "type": "Feature",
            "geometry": {
                "type": "Point",
                "coordinates": [
                    18.0689832,
                    59.3498511
                ]
            },
            "properties": {
                "name": "Kungliga Tekniska h\u00f6gskolan"
            }
        },
        {
            "type": "Feature",
            "geometry": {
                "type": "Point",
                "coordinates": [
                    18.0804477,
                    59.3466631
                ]
            },
            "properties": {
                "name": "Gymnastik- och idrottsh\u00f6gskolan"
            }
        },
        {
            "type": "Feature",
            "geometry": {
                "type": "Point",
                "coordinates": [
                    14.3819808,
                    62.0258786
                ]
            },
            "properties": {
                "name": "B\u00e4ckedals Folkh\u00f6gskola"
            }
        },
        {
            "type": "Feature",
            "geometry": {
                "type": "Point",
                "coordinates": [
                    12.8803614,
                    56.6633585
                ]
            },
            "properties": {
                "name": "H\u00f6gskolan i Halmstad"
            }
        },
        {
            "type": "Feature",
            "geometry": {
                "type": "Point",
                "coordinates": [
                    17.9431697,
                    59.2194881
                ]
            },
            "properties": {
                "name": "S\u00f6dert\u00f6rns h\u00f6gskola"
            }
        },
        {
            "type": "Feature",
            "geometry": {
                "type": "Point",
                "coordinates": [
                    15.599332,
                    59.4290554
                ]
            },
            "properties": {
                "name": "Fellingsbro folkh\u00f6gskola"
            }
        },
        {
            "type": "Feature",
            "geometry": {
                "type": "Point",
                "coordinates": [
                    11.4451097,
                    58.2497934
                ]
            },
            "properties": {
                "name": "Lov\u00e9ncentret Kristineberg"
            }
        },
        {
            "type": "Feature",
            "geometry": {
                "type": "Point",
                "coordinates": [
                    11.4644547,
                    58.2510981
                ]
            }
        },
        {
            "type": "Feature",
            "geometry": {
                "type": "Point",
                "coordinates": [
                    11.4648746,
                    58.2513963
                ]
            },
            "properties": {
                "name": "Klubbans Biologiska Station"
            }
        },
        {
            "type": "Feature",
            "geometry": {
                "type": "Point",
                "coordinates": [
                    11.4311019,
                    58.2683489
                ]
            },
            "properties": {
                "name": "Havsfiskelaboratoriet"
            }
        },
        {
            "type": "Feature",
            "geometry": {
                "type": "Point",
                "coordinates": [
                    14.1457143,
                    56.0489224
                ]
            },
            "properties": {
                "name": "H\u00f6gskolan Kristianstad"
            }
        },
        {
            "type": "Feature",
            "geometry": {
                "type": "Point",
                "coordinates": [
                    17.6579115,
                    59.817779
                ]
            },
            "properties": {
                "name": "Ekologicentrum"
            }
        },
        {
            "type": "Feature",
            "geometry": {
                "type": "Point",
                "coordinates": [
                    11.9747244,
                    57.6932764
                ]
            },
            "properties": {
                "name": "Teknikens ekonomi och organisation"
            }
        },
        {
            "type": "Feature",
            "geometry": {
                "type": "Point",
                "coordinates": [
                    17.2833138,
                    62.3931219
                ]
            },
            "properties": {
                "name": "Mittuniversitetet"
            }
        },
        {
            "type": "Feature",
            "geometry": {
                "type": "Point",
                "coordinates": [
                    15.123055,
                    56.2252259
                ]
            },
            "properties": {
                "name": "Br\u00e4kne-Hoby Folkh\u00f6gskola"
            }
        },
        {
            "type": "Feature",
            "geometry": {
                "type": "Point",
                "coordinates": [
                    14.8664356,
                    56.164062
                ]
            },
            "properties": {
                "name": "Blekinge Tekniska H\u00f6gskola"
            }
        },
        {
            "type": "Feature",
            "geometry": {
                "type": "Point",
                "coordinates": [
                    20.3146842,
                    63.8203015
                ]
            },
            "properties": {
                "name": "Sveriges lantbruksuniversitet"
            }
        },
        {
            "type": "Feature",
            "geometry": {
                "type": "Point",
                "coordinates": [
                    13.3500544,
                    57.4858218
                ]
            },
            "properties": {
                "name": "Tranemo Gymnasieskola"
            }
        },
        {
            "type": "Feature",
            "geometry": {
                "type": "Point",
                "coordinates": [
                    18.0810667,
                    59.3440541
                ]
            },
            "properties": {
                "name": "Kungliga Musikh\u00f6gskolan"
            }
        },
        {
            "type": "Feature",
            "geometry": {
                "type": "Point",
                "coordinates": [
                    11.9616249,
                    57.6969315
                ]
            },
            "properties": {
                "name": "Handelsh\u00f6gskolan"
            }
        },
        {
            "type": "Feature",
            "geometry": {
                "type": "Point",
                "coordinates": [
                    14.4688557,
                    58.0226885
                ]
            },
            "properties": {
                "name": "H\u00e4lsoh\u00f6gskolan - Campus Gr\u00e4nna"
            }
        },
        {
            "type": "Feature",
            "geometry": {
                "type": "Point",
                "coordinates": [
                    18.0587043,
                    59.3633258
                ]
            },
            "properties": {
                "name": "Stockholms universitet"
            }
        },
        {
            "type": "Feature",
            "geometry": {
                "type": "Point",
                "coordinates": [
                    12.9429647,
                    57.716643
                ]
            },
            "properties": {
                "name": "Textilh\u00f6gskolan"
            }
        },
        {
            "type": "Feature",
            "geometry": {
                "type": "Point",
                "coordinates": [
                    13.2004119,
                    55.7066226
                ]
            }
        },
        {
            "type": "Feature",
            "geometry": {
                "type": "Point",
                "coordinates": [
                    13.1951361,
                    55.7074696
                ]
            },
            "properties": {
                "name": "S\u00f6dra lasarettsomr\u00e5det"
            }
        },
        {
            "type": "Feature",
            "geometry": {
                "type": "Point",
                "coordinates": [
                    13.2043826,
                    55.7102962
                ]
            },
            "properties": {
                "name": "Fysicum"
            }
        },
        {
            "type": "Feature",
            "geometry": {
                "type": "Point",
                "coordinates": [
                    13.2099019,
                    55.7126887
                ]
            },
            "properties": {
                "name": "Lunds Tekniska H\u00f6gskola"
            }
        },
        {
            "type": "Feature",
            "geometry": {
                "type": "Point",
                "coordinates": [
                    16.361567,
                    56.6593582
                ]
            },
            "properties": {
                "name": "Sj\u00f6fartsh\u00f6gskolan"
            }
        },
        {
            "type": "Feature",
            "geometry": {
                "type": "Point",
                "coordinates": [
                    18.0829966,
                    59.3242769
                ]
            },
            "properties": {
                "name": "Kungliga Konsth\u00f6gskolan"
            }
        },
        {
            "type": "Feature",
            "geometry": {
                "type": "Point",
                "coordinates": [
                    16.3570911,
                    56.6784586
                ]
            },
            "properties": {
                "name": "Linn\u00e9universitetet"
            }
        },
        {
            "type": "Feature",
            "geometry": {
                "type": "Point",
                "coordinates": [
                    16.3460208,
                    56.6692038
                ]
            },
            "properties": {
                "name": "V\u00e5rdh\u00f6gskolan"
            }
        },
        {
            "type": "Feature",
            "geometry": {
                "type": "Point",
                "coordinates": [
                    16.1761477,
                    58.5904508
                ]
            },
            "properties": {
                "name": "Campus Norrk\u00f6ping, T\u00e4ppan"
            }
        },
        {
            "type": "Feature",
            "geometry": {
                "type": "Point",
                "coordinates": [
                    17.9401182,
                    59.2195618
                ]
            }
        },
        {
            "type": "Feature",
            "geometry": {
                "type": "Point",
                "coordinates": [
                    22.1442909,
                    65.6182412
                ]
            },
            "properties": {
                "name": "C-huset"
            }
        },
        {
            "type": "Feature",
            "geometry": {
                "type": "Point",
                "coordinates": [
                    22.1396776,
                    65.6187446
                ]
            },
            "properties": {
                "name": "E-huset"
            }
        },
        {
            "type": "Feature",
            "geometry": {
                "type": "Point",
                "coordinates": [
                    22.1428939,
                    65.6193432
                ]
            },
            "properties": {
                "name": "F-huset"
            }
        },
        {
            "type": "Feature",
            "geometry": {
                "type": "Point",
                "coordinates": [
                    22.1358621,
                    65.6181408
                ]
            },
            "properties": {
                "name": "D-huset"
            }
        },
        {
            "type": "Feature",
            "geometry": {
                "type": "Point",
                "coordinates": [
                    16.3512979,
                    56.6689948
                ]
            },
            "properties": {
                "name": "Linn\u00e9universitetet, Norrg\u00e5rd"
            }
        },
        {
            "type": "Feature",
            "geometry": {
                "type": "Point",
                "coordinates": [
                    15.4095201,
                    60.4873784
                ]
            },
            "properties": {
                "name": "H\u00f6gskolan Dalarna"
            }
        },
        {
            "type": "Feature",
            "geometry": {
                "type": "Point",
                "coordinates": [
                    12.9936885,
                    55.6027325
                ]
            },
            "properties": {
                "name": "Malm\u00f6 universitet"
            }
        },
        {
            "type": "Feature",
            "geometry": {
                "type": "Point",
                "coordinates": [
                    17.6348082,
                    59.8572085
                ]
            },
            "properties": {
                "name": "Gamla Juridicum"
            }
        },
        {
            "type": "Feature",
            "geometry": {
                "type": "Point",
                "coordinates": [
                    13.2101439,
                    55.715834
                ]
            },
            "properties": {
                "name": "Kemicentrum"
            }
        },
        {
            "type": "Feature",
            "geometry": {
                "type": "Point",
                "coordinates": [
                    17.6605422,
                    59.8160834
                ]
            },
            "properties": {
                "name": "Biocentrum"
            }
        },
        {
            "type": "Feature",
            "geometry": {
                "type": "Point",
                "coordinates": [
                    22.1374477,
                    65.6170307
                ]
            },
            "properties": {
                "name": "A-huset"
            }
        },
        {
            "type": "Feature",
            "geometry": {
                "type": "Point",
                "coordinates": [
                    17.6605039,
                    59.8144355
                ]
            },
            "properties": {
                "name": "Ulls hus"
            }
        },
        {
            "type": "Feature",
            "geometry": {
                "type": "Point",
                "coordinates": [
                    17.6201609,
                    59.8594094
                ]
            },
            "properties": {
                "name": "Ekonomikum"
            }
        },
        {
            "type": "Feature",
            "geometry": {
                "type": "Point",
                "coordinates": [
                    13.192973,
                    55.7080344
                ]
            },
            "properties": {
                "name": "Socialh\u00f6gskolan"
            }
        },
        {
            "type": "Feature",
            "geometry": {
                "type": "Point",
                "coordinates": [
                    21.4660532,
                    65.3285708
                ]
            },
            "properties": {
                "name": "Musikh\u00f6gskolan i Pite\u00e5"
            }
        },
        {
            "type": "Feature",
            "geometry": {
                "type": "Point",
                "coordinates": [
                    17.6397532,
                    59.8553076
                ]
            },
            "properties": {
                "name": "Kvarteret Munken"
            }
        },
        {
            "type": "Feature",
            "geometry": {
                "type": "Point",
                "coordinates": [
                    17.6495636,
                    59.8409036
                ]
            },
            "properties": {
                "name": "Informationsteknologiskt centrum"
            }
        },
        {
            "type": "Feature",
            "geometry": {
                "type": "Point",
                "coordinates": [
                    12.9963836,
                    55.6078056
                ]
            },
            "properties": {
                "name": "World Maritime University"
            }
        },
        {
            "type": "Feature",
            "geometry": {
                "type": "Point",
                "coordinates": [
                    22.1383955,
                    65.6183606
                ]
            },
            "properties": {
                "name": "Lule\u00e5 tekniska universitet"
            }
        }
    ],
    "crs": {
        "type": "name",
        "properties": {
            "name": "urn:ogc:def:crs:OGC:1.3:CRS84"
        }
    }
}