{
    "type": "FeatureCollection",
    "features": [
        {
            "type": "Feature",
            "geometry": {
                "type": "Point",
                "coordinates": [
                    4.9115429,
                    52.3637734
                ]
            },
            "properties": {
                "name": "UvA Faculteit der Economische Wetenschappen en Econometrie"
            }
        },
        {
            "type": "Feature",
            "geometry": {
                "type": "Point",
                "coordinates": [
                    4.8960412,
                    52.3693745
                ]
            },
            "properties": {
                "name": "Oudemanhuispoort (UvA)"
            }
        },
        {
            "type": "Feature",
            "geometry": {
                "type": "Point",
                "coordinates": [
                    5.6874182,
                    50.8471314
                ]
            },
            "properties": {
                "name": "Department of Knowledge Engineering"
            }
        },
        {
            "type": "Feature",
            "geometry": {
                "type": "Point",
                "coordinates": [
                    -68.9603092,
                    12.1570631
                ]
            },
            "properties": {
                "name": "University of Cura\u00e7ao"
            }
        },
        {
            "type": "Feature",
            "geometry": {
                "type": "Point",
                "coordinates": [
                    4.4867847,
                    52.1566008
                ]
            },
            "properties": {
                "name": "Oude Universiteitsbibliotheek"
            }
        },
        {
            "type": "Feature",
            "geometry": {
                "type": "Point",
                "coordinates": [
                    4.8896879,
                    52.3685931
                ]
            },
            "properties": {
                "name": "Spui25"
            }
        },
        {
            "type": "Feature",
            "geometry": {
                "type": "Point",
                "coordinates": [
                    4.4756584,
                    52.1683951
                ]
            },
            "properties": {
                "name": "Universiteit Leiden, Willem Einthovengebouw"
            }
        },
        {
            "type": "Feature",
            "geometry": {
                "type": "Point",
                "coordinates": [
                    4.9123502,
                    52.364207
                ]
            },
            "properties": {
                "name": "Ruimtelijke Wetenschappen (FMG)"
            }
        },
        {
            "type": "Feature",
            "geometry": {
                "type": "Point",
                "coordinates": [
                    4.9116802,
                    52.3627042
                ]
            },
            "properties": {
                "name": "UvA Faculteit der Maatschappij-en Gedragswetenschappen"
            }
        },
        {
            "type": "Feature",
            "geometry": {
                "type": "Point",
                "coordinates": [
                    5.130284,
                    52.0941811
                ]
            },
            "properties": {
                "name": "Universiteit Utrecht - Parnassos Cultuurcentrum"
            }
        },
        {
            "type": "Feature",
            "geometry": {
                "type": "Point",
                "coordinates": [
                    4.8891865,
                    52.3682807
                ]
            },
            "properties": {
                "name": "Aula UvA"
            }
        },
        {
            "type": "Feature",
            "geometry": {
                "type": "Point",
                "coordinates": [
                    5.115635,
                    52.0779211
                ]
            },
            "properties": {
                "name": "Open Universiteit Nederland"
            }
        },
        {
            "type": "Feature",
            "geometry": {
                "type": "Point",
                "coordinates": [
                    5.1233895,
                    52.0904604
                ]
            },
            "properties": {
                "name": "Universiteit Utrecht"
            }
        },
        {
            "type": "Feature",
            "geometry": {
                "type": "Point",
                "coordinates": [
                    5.1231525,
                    52.0906639
                ]
            },
            "properties": {
                "name": "Universiteit Utrecht"
            }
        },
        {
            "type": "Feature",
            "geometry": {
                "type": "Point",
                "coordinates": [
                    5.1232736,
                    52.0905682
                ]
            },
            "properties": {
                "name": "Universiteit Utrecht"
            }
        },
        {
            "type": "Feature",
            "geometry": {
                "type": "Point",
                "coordinates": [
                    5.1127847,
                    52.0969853
                ]
            },
            "properties": {
                "name": "TIO - University for applied sciences"
            }
        },
        {
            "type": "Feature",
            "geometry": {
                "type": "Point",
                "coordinates": [
                    4.455566,
                    51.911682
                ]
            },
            "properties": {
                "name": "Volksuniversiteit"
            }
        },
        {
            "type": "Feature",
            "geometry": {
                "type": "Point",
                "coordinates": [
                    4.8863911,
                    52.0848991
                ]
            },
            "properties": {
                "name": "Volksuniversiteit Het Groene Hart"
            }
        },
        {
            "type": "Feature",
            "geometry": {
                "type": "Point",
                "coordinates": [
                    5.0849215,
                    51.5534014
                ]
            },
            "properties": {
                "name": "Fontys Hogeschool voor de Kunsten"
            }
        },
        {
            "type": "Feature",
            "geometry": {
                "type": "Point",
                "coordinates": [
                    5.1756637,
                    52.0852978
                ]
            },
            "properties": {
                "name": "Utrecht Science Park"
            }
        },
        {
            "type": "Feature",
            "geometry": {
                "type": "Point",
                "coordinates": [
                    4.9557771,
                    52.3544945
                ]
            },
            "properties": {
                "name": "UvA: FNWI"
            }
        },
        {
            "type": "Feature",
            "geometry": {
                "type": "Point",
                "coordinates": [
                    -68.9367491,
                    12.1069608
                ]
            },
            "properties": {
                "name": "Inter-Continental University of the Carribean"
            }
        },
        {
            "type": "Feature",
            "geometry": {
                "type": "Point",
                "coordinates": [
                    6.0869873,
                    52.5031811
                ]
            },
            "properties": {
                "name": "Open Universiteit Studiecentrum"
            }
        },
        {
            "type": "Feature",
            "geometry": {
                "type": "Point",
                "coordinates": [
                    5.6585929,
                    51.9822334
                ]
            },
            "properties": {
                "name": "WUR RIKILT"
            }
        },
        {
            "type": "Feature",
            "geometry": {
                "type": "Point",
                "coordinates": [
                    4.3567749,
                    52.0089436
                ]
            },
            "properties": {
                "name": "IHE Delft Institute for Water Education"
            }
        },
        {
            "type": "Feature",
            "geometry": {
                "type": "Point",
                "coordinates": [
                    5.9717767,
                    52.2100106
                ]
            },
            "properties": {
                "name": "Wittenborg University"
            }
        },
        {
            "type": "Feature",
            "geometry": {
                "type": "Point",
                "coordinates": [
                    5.9725457,
                    52.2099695
                ]
            },
            "properties": {
                "name": "Fotovakschool"
            }
        },
        {
            "type": "Feature",
            "geometry": {
                "type": "Point",
                "coordinates": [
                    5.9728464,
                    52.2096635
                ]
            },
            "properties": {
                "name": "Saxion"
            }
        },
        {
            "type": "Feature",
            "geometry": {
                "type": "Point",
                "coordinates": [
                    4.7843872,
                    51.5868543
                ]
            },
            "properties": {
                "name": "NHTV internationaal hoger onderwijs Breda"
            }
        },
        {
            "type": "Feature",
            "geometry": {
                "type": "Point",
                "coordinates": [
                    6.5329088,
                    53.2399765
                ]
            },
            "properties": {
                "name": "BrugsmaBorg"
            }
        },
        {
            "type": "Feature",
            "geometry": {
                "type": "Point",
                "coordinates": [
                    6.5339544,
                    53.2402002
                ]
            },
            "properties": {
                "name": "Kapteynborg"
            }
        },
        {
            "type": "Feature",
            "geometry": {
                "type": "Point",
                "coordinates": [
                    6.5576401,
                    53.227523
                ]
            },
            "properties": {
                "name": "Dansacademie Lucia Marthas"
            }
        },
        {
            "type": "Feature",
            "geometry": {
                "type": "Point",
                "coordinates": [
                    5.6637249,
                    52.0195503
                ]
            }
        },
        {
            "type": "Feature",
            "geometry": {
                "type": "Point",
                "coordinates": [
                    5.666007,
                    52.018727
                ]
            }
        },
        {
            "type": "Feature",
            "geometry": {
                "type": "Point",
                "coordinates": [
                    6.5700468,
                    53.0045343
                ]
            },
            "properties": {
                "name": "Hanzehogeschool"
            }
        },
        {
            "type": "Feature",
            "geometry": {
                "type": "Point",
                "coordinates": [
                    4.6662878,
                    51.8117762
                ]
            },
            "properties": {
                "name": "HBO Drechtsteden"
            }
        },
        {
            "type": "Feature",
            "geometry": {
                "type": "Point",
                "coordinates": [
                    5.71589,
                    50.8336712
                ]
            },
            "properties": {
                "name": "UNS60"
            }
        },
        {
            "type": "Feature",
            "geometry": {
                "type": "Point",
                "coordinates": [
                    5.7165617,
                    50.8352755
                ]
            },
            "properties": {
                "name": "Universiteit Maastricht"
            }
        },
        {
            "type": "Feature",
            "geometry": {
                "type": "Point",
                "coordinates": [
                    5.711748,
                    50.8351844
                ]
            }
        },
        {
            "type": "Feature",
            "geometry": {
                "type": "Point",
                "coordinates": [
                    5.6884711,
                    50.8444528
                ]
            },
            "properties": {
                "name": "University College Maastricht"
            }
        },
        {
            "type": "Feature",
            "geometry": {
                "type": "Point",
                "coordinates": [
                    5.6848994,
                    50.8451455
                ]
            },
            "properties": {
                "name": "University Maastricht, School of Business and Economics"
            }
        },
        {
            "type": "Feature",
            "geometry": {
                "type": "Point",
                "coordinates": [
                    5.5622811,
                    51.6208724
                ]
            },
            "properties": {
                "name": "PABO Veghel"
            }
        },
        {
            "type": "Feature",
            "geometry": {
                "type": "Point",
                "coordinates": [
                    4.9087323,
                    52.359038
                ]
            },
            "properties": {
                "name": "Kohnstammhuis"
            }
        },
        {
            "type": "Feature",
            "geometry": {
                "type": "Point",
                "coordinates": [
                    4.9077339,
                    52.3591005
                ]
            },
            "properties": {
                "name": "Theo Thijssenhuis"
            }
        },
        {
            "type": "Feature",
            "geometry": {
                "type": "Point",
                "coordinates": [
                    6.1062811,
                    52.5142998
                ]
            },
            "properties": {
                "name": "ArtEZ hogeschool voor de Kunsten"
            }
        },
        {
            "type": "Feature",
            "geometry": {
                "type": "Point",
                "coordinates": [
                    5.6594722,
                    51.9859093
                ]
            },
            "properties": {
                "name": "Axis-Y"
            }
        },
        {
            "type": "Feature",
            "geometry": {
                "type": "Point",
                "coordinates": [
                    6.1695833,
                    51.366726
                ]
            },
            "properties": {
                "name": "HAS Hogeschool"
            }
        },
        {
            "type": "Feature",
            "geometry": {
                "type": "Point",
                "coordinates": [
                    5.6621597,
                    51.9824278
                ]
            },
            "properties": {
                "name": "Actio"
            }
        },
        {
            "type": "Feature",
            "geometry": {
                "type": "Point",
                "coordinates": [
                    5.6626253,
                    51.9829776
                ]
            },
            "properties": {
                "name": "Nexus"
            }
        },
        {
            "type": "Feature",
            "geometry": {
                "type": "Point",
                "coordinates": [
                    5.6620378,
                    51.9840385
                ]
            },
            "properties": {
                "name": "WUR - Futurum"
            }
        },
        {
            "type": "Feature",
            "geometry": {
                "type": "Point",
                "coordinates": [
                    5.6627208,
                    51.9881259
                ]
            },
            "properties": {
                "name": "WUR Agros"
            }
        },
        {
            "type": "Feature",
            "geometry": {
                "type": "Point",
                "coordinates": [
                    5.6679915,
                    51.9863264
                ]
            },
            "properties": {
                "name": "WUR Atlas"
            }
        },
        {
            "type": "Feature",
            "geometry": {
                "type": "Point",
                "coordinates": [
                    5.659997,
                    51.9856228
                ]
            },
            "properties": {
                "name": "WUR Axis X"
            }
        },
        {
            "type": "Feature",
            "geometry": {
                "type": "Point",
                "coordinates": [
                    5.6592726,
                    51.9860766
                ]
            },
            "properties": {
                "name": "WUR Axis-Z"
            }
        },
        {
            "type": "Feature",
            "geometry": {
                "type": "Point",
                "coordinates": [
                    5.6636073,
                    51.9852345
                ]
            },
            "properties": {
                "name": "WUR Forum"
            }
        },
        {
            "type": "Feature",
            "geometry": {
                "type": "Point",
                "coordinates": [
                    5.665682,
                    51.987471
                ]
            },
            "properties": {
                "name": "WUR Gaia"
            }
        },
        {
            "type": "Feature",
            "geometry": {
                "type": "Point",
                "coordinates": [
                    5.6615519,
                    51.9846758
                ]
            },
            "properties": {
                "name": "WUR Helix"
            }
        },
        {
            "type": "Feature",
            "geometry": {
                "type": "Point",
                "coordinates": [
                    5.6619243,
                    51.986991
                ]
            },
            "properties": {
                "name": "WUR Kima"
            }
        },
        {
            "type": "Feature",
            "geometry": {
                "type": "Point",
                "coordinates": [
                    5.6672512,
                    51.9876964
                ]
            },
            "properties": {
                "name": "WUR Lumen"
            }
        },
        {
            "type": "Feature",
            "geometry": {
                "type": "Point",
                "coordinates": [
                    5.6665323,
                    51.9851739
                ]
            },
            "properties": {
                "name": "WUR Orion"
            }
        },
        {
            "type": "Feature",
            "geometry": {
                "type": "Point",
                "coordinates": [
                    5.6646559,
                    51.9871367
                ]
            },
            "properties": {
                "name": "WUR Radix-east"
            }
        },
        {
            "type": "Feature",
            "geometry": {
                "type": "Point",
                "coordinates": [
                    5.663622,
                    51.9867719
                ]
            },
            "properties": {
                "name": "WUR Radix-mid"
            }
        },
        {
            "type": "Feature",
            "geometry": {
                "type": "Point",
                "coordinates": [
                    5.6627327,
                    51.9864035
                ]
            },
            "properties": {
                "name": "WUR Radix-west"
            }
        },
        {
            "type": "Feature",
            "geometry": {
                "type": "Point",
                "coordinates": [
                    5.6637412,
                    51.9871313
                ]
            },
            "properties": {
                "name": "WUR Tempora"
            }
        },
        {
            "type": "Feature",
            "geometry": {
                "type": "Point",
                "coordinates": [
                    5.6641671,
                    51.9880554
                ]
            },
            "properties": {
                "name": "WUR Unifarm"
            }
        },
        {
            "type": "Feature",
            "geometry": {
                "type": "Point",
                "coordinates": [
                    5.6607971,
                    51.9876524
                ]
            }
        },
        {
            "type": "Feature",
            "geometry": {
                "type": "Point",
                "coordinates": [
                    5.6612459,
                    51.9877316
                ]
            }
        },
        {
            "type": "Feature",
            "geometry": {
                "type": "Point",
                "coordinates": [
                    5.6644872,
                    51.9876224
                ]
            }
        },
        {
            "type": "Feature",
            "geometry": {
                "type": "Point",
                "coordinates": [
                    5.661829,
                    51.987897
                ]
            }
        },
        {
            "type": "Feature",
            "geometry": {
                "type": "Point",
                "coordinates": [
                    5.6654104,
                    51.9879287
                ]
            }
        },
        {
            "type": "Feature",
            "geometry": {
                "type": "Point",
                "coordinates": [
                    5.6526922,
                    51.9695998
                ]
            }
        },
        {
            "type": "Feature",
            "geometry": {
                "type": "Point",
                "coordinates": [
                    5.6735298,
                    51.9804308
                ]
            },
            "properties": {
                "name": "WUR Leeuwenborch"
            }
        },
        {
            "type": "Feature",
            "geometry": {
                "type": "Point",
                "coordinates": [
                    5.6819058,
                    51.9690236
                ]
            },
            "properties": {
                "name": "Agrotechnion"
            }
        },
        {
            "type": "Feature",
            "geometry": {
                "type": "Point",
                "coordinates": [
                    5.6808145,
                    51.9695025
                ]
            },
            "properties": {
                "name": "Chemistry building"
            }
        },
        {
            "type": "Feature",
            "geometry": {
                "type": "Point",
                "coordinates": [
                    5.6808351,
                    51.9685955
                ]
            },
            "properties": {
                "name": "Computechnion"
            }
        },
        {
            "type": "Feature",
            "geometry": {
                "type": "Point",
                "coordinates": [
                    5.681005,
                    51.9680913
                ]
            },
            "properties": {
                "name": "Previously: WU-Mathematics"
            }
        },
        {
            "type": "Feature",
            "geometry": {
                "type": "Point",
                "coordinates": [
                    5.6799189,
                    51.9682308
                ]
            },
            "properties": {
                "name": "Transitorium"
            }
        },
        {
            "type": "Feature",
            "geometry": {
                "type": "Point",
                "coordinates": [
                    5.6809895,
                    51.9674571
                ]
            },
            "properties": {
                "name": "de Valk"
            }
        },
        {
            "type": "Feature",
            "geometry": {
                "type": "Point",
                "coordinates": [
                    5.6806292,
                    51.9698196
                ]
            }
        },
        {
            "type": "Feature",
            "geometry": {
                "type": "Point",
                "coordinates": [
                    5.8040473,
                    53.194032
                ]
            },
            "properties": {
                "name": "Hogeschool Van Hall Larenstein"
            }
        },
        {
            "type": "Feature",
            "geometry": {
                "type": "Point",
                "coordinates": [
                    4.3157262,
                    52.0811085
                ]
            },
            "properties": {
                "name": "Open Universiteit Nederland"
            }
        },
        {
            "type": "Feature",
            "geometry": {
                "type": "Point",
                "coordinates": [
                    5.6581006,
                    51.9827893
                ]
            },
            "properties": {
                "name": "WUR Triton"
            }
        },
        {
            "type": "Feature",
            "geometry": {
                "type": "Point",
                "coordinates": [
                    5.6645854,
                    52.0198585
                ]
            }
        },
        {
            "type": "Feature",
            "geometry": {
                "type": "Point",
                "coordinates": [
                    5.6591724,
                    51.9838617
                ]
            },
            "properties": {
                "name": "WUR - Zodiac"
            }
        },
        {
            "type": "Feature",
            "geometry": {
                "type": "Point",
                "coordinates": [
                    4.8902006,
                    52.3685848
                ]
            },
            "properties": {
                "name": "UvA"
            }
        },
        {
            "type": "Feature",
            "geometry": {
                "type": "Point",
                "coordinates": [
                    4.9501644,
                    52.3553655
                ]
            },
            "properties": {
                "name": "ILLC"
            }
        },
        {
            "type": "Feature",
            "geometry": {
                "type": "Point",
                "coordinates": [
                    4.4643667,
                    52.1649304
                ]
            },
            "properties": {
                "name": "Van Steenisgebouw"
            }
        },
        {
            "type": "Feature",
            "geometry": {
                "type": "Point",
                "coordinates": [
                    4.6662799,
                    51.8117439
                ]
            },
            "properties": {
                "name": "InHolland Pabo"
            }
        },
        {
            "type": "Feature",
            "geometry": {
                "type": "Point",
                "coordinates": [
                    6.5642052,
                    53.1883079
                ]
            },
            "properties": {
                "name": "Hanzehogeschool (Meerwold)"
            }
        },
        {
            "type": "Feature",
            "geometry": {
                "type": "Point",
                "coordinates": [
                    4.8881929,
                    52.3511887
                ]
            },
            "properties": {
                "name": "Dansacademie Lucia Marthas"
            }
        },
        {
            "type": "Feature",
            "geometry": {
                "type": "Point",
                "coordinates": [
                    5.8015472,
                    53.1984035
                ]
            },
            "properties": {
                "name": "Minerva Academie voor Popcultuur"
            }
        },
        {
            "type": "Feature",
            "geometry": {
                "type": "Point",
                "coordinates": [
                    5.1684392,
                    52.0840626
                ]
            },
            "properties": {
                "name": "Faculteit Natuur & Techniek (HU)"
            }
        },
        {
            "type": "Feature",
            "geometry": {
                "type": "Point",
                "coordinates": [
                    5.1223339,
                    52.0902439
                ]
            },
            "properties": {
                "name": "Academiegebouw"
            }
        },
        {
            "type": "Feature",
            "geometry": {
                "type": "Point",
                "coordinates": [
                    4.524859,
                    51.916949
                ]
            },
            "properties": {
                "name": "Polak Building"
            }
        },
        {
            "type": "Feature",
            "geometry": {
                "type": "Point",
                "coordinates": [
                    4.523145,
                    51.916169
                ]
            },
            "properties": {
                "name": "Bayle Building"
            }
        },
        {
            "type": "Feature",
            "geometry": {
                "type": "Point",
                "coordinates": [
                    4.524427,
                    51.915973
                ]
            },
            "properties": {
                "name": "Van der Groot Building"
            }
        },
        {
            "type": "Feature",
            "geometry": {
                "type": "Point",
                "coordinates": [
                    4.527021,
                    51.917371
                ]
            },
            "properties": {
                "name": "E-Building"
            }
        },
        {
            "type": "Feature",
            "geometry": {
                "type": "Point",
                "coordinates": [
                    4.526179,
                    51.918199
                ]
            },
            "properties": {
                "name": "Tinbergen Building"
            }
        },
        {
            "type": "Feature",
            "geometry": {
                "type": "Point",
                "coordinates": [
                    4.526351,
                    51.918691
                ]
            },
            "properties": {
                "name": "Theil"
            }
        },
        {
            "type": "Feature",
            "geometry": {
                "type": "Point",
                "coordinates": [
                    5.8659298,
                    51.8214821
                ]
            },
            "properties": {
                "name": "Radboud Universiteit Nijmegen"
            }
        },
        {
            "type": "Feature",
            "geometry": {
                "type": "Point",
                "coordinates": [
                    6.535672,
                    53.2397915
                ]
            },
            "properties": {
                "name": "Zernike Campus"
            }
        },
        {
            "type": "Feature",
            "geometry": {
                "type": "Point",
                "coordinates": [
                    5.4902033,
                    51.4488018
                ]
            },
            "properties": {
                "name": "Technische Universiteit Eindhoven"
            }
        },
        {
            "type": "Feature",
            "geometry": {
                "type": "Point",
                "coordinates": [
                    5.4907405,
                    51.4535899
                ]
            },
            "properties": {
                "name": "Fontys Hogeschool Eindhoven"
            }
        },
        {
            "type": "Feature",
            "geometry": {
                "type": "Point",
                "coordinates": [
                    4.8652092,
                    52.3336451
                ]
            },
            "properties": {
                "name": "Vrije Universiteit"
            }
        },
        {
            "type": "Feature",
            "geometry": {
                "type": "Point",
                "coordinates": [
                    4.4829727,
                    52.1589222
                ]
            },
            "properties": {
                "name": "Het Arsenaal"
            }
        },
        {
            "type": "Feature",
            "geometry": {
                "type": "Point",
                "coordinates": [
                    4.525682,
                    51.9175116
                ]
            },
            "properties": {
                "name": "Erasmus Universiteit Rotterdam"
            }
        },
        {
            "type": "Feature",
            "geometry": {
                "type": "Point",
                "coordinates": [
                    4.9554839,
                    52.3543704
                ]
            },
            "properties": {
                "name": "Science Park Amsterdam"
            }
        },
        {
            "type": "Feature",
            "geometry": {
                "type": "Point",
                "coordinates": [
                    4.9132159,
                    52.3637778
                ]
            },
            "properties": {
                "name": "Roeterseiland (UvA)"
            }
        },
        {
            "type": "Feature",
            "geometry": {
                "type": "Point",
                "coordinates": [
                    5.0446818,
                    51.5630648
                ]
            },
            "properties": {
                "name": "Tilburg University"
            }
        },
        {
            "type": "Feature",
            "geometry": {
                "type": "Point",
                "coordinates": [
                    6.5261693,
                    53.2499686
                ]
            },
            "properties": {
                "name": "Kernfysisch Versneller Instituut"
            }
        },
        {
            "type": "Feature",
            "geometry": {
                "type": "Point",
                "coordinates": [
                    -63.0440095,
                    18.0265897
                ]
            },
            "properties": {
                "name": "University of Sint Maarten"
            }
        },
        {
            "type": "Feature",
            "geometry": {
                "type": "Point",
                "coordinates": [
                    4.3704088,
                    52.005734
                ]
            },
            "properties": {
                "name": "Faculty of Architecture"
            }
        },
        {
            "type": "Feature",
            "geometry": {
                "type": "Point",
                "coordinates": [
                    4.3716379,
                    52.0064845
                ]
            },
            "properties": {
                "name": "Bouwpub"
            }
        },
        {
            "type": "Feature",
            "geometry": {
                "type": "Point",
                "coordinates": [
                    4.3711569,
                    52.0053607
                ]
            },
            "properties": {
                "name": "Ketelhuis"
            }
        },
        {
            "type": "Feature",
            "geometry": {
                "type": "Point",
                "coordinates": [
                    4.3734932,
                    52.0022173
                ]
            },
            "properties": {
                "name": "TU Aula Congrescentrum"
            }
        },
        {
            "type": "Feature",
            "geometry": {
                "type": "Point",
                "coordinates": [
                    4.374659,
                    52.0010503
                ]
            },
            "properties": {
                "name": "Faculty of Applied Sciences"
            }
        },
        {
            "type": "Feature",
            "geometry": {
                "type": "Point",
                "coordinates": [
                    4.370472,
                    51.9980764
                ]
            },
            "properties": {
                "name": "Process & Energy Lab"
            }
        },
        {
            "type": "Feature",
            "geometry": {
                "type": "Point",
                "coordinates": [
                    4.3772812,
                    51.9982669
                ]
            },
            "properties": {
                "name": "Stevin III"
            }
        },
        {
            "type": "Feature",
            "geometry": {
                "type": "Point",
                "coordinates": [
                    4.9147376,
                    52.3640671
                ]
            },
            "properties": {
                "name": "P"
            }
        },
        {
            "type": "Feature",
            "geometry": {
                "type": "Point",
                "coordinates": [
                    6.5677461,
                    53.2274523
                ]
            },
            "properties": {
                "name": "Wiebingacomplex"
            }
        },
        {
            "type": "Feature",
            "geometry": {
                "type": "Point",
                "coordinates": [
                    6.5597513,
                    53.2151808
                ]
            },
            "properties": {
                "name": "Academie Minerva"
            }
        },
        {
            "type": "Feature",
            "geometry": {
                "type": "Point",
                "coordinates": [
                    6.5612474,
                    53.2147621
                ]
            },
            "properties": {
                "name": "Academie Minerva"
            }
        },
        {
            "type": "Feature",
            "geometry": {
                "type": "Point",
                "coordinates": [
                    5.1479947,
                    52.0833496
                ]
            },
            "properties": {
                "name": "University College Utrecht 'Babel'"
            }
        },
        {
            "type": "Feature",
            "geometry": {
                "type": "Point",
                "coordinates": [
                    4.3760053,
                    51.9986415
                ]
            },
            "properties": {
                "name": "Faculty of Civil Engineering and Geosciences"
            }
        },
        {
            "type": "Feature",
            "geometry": {
                "type": "Point",
                "coordinates": [
                    4.4846341,
                    52.1568101
                ]
            },
            "properties": {
                "name": "P.J. Veth"
            }
        },
        {
            "type": "Feature",
            "geometry": {
                "type": "Point",
                "coordinates": [
                    4.4825542,
                    52.1584511
                ]
            },
            "properties": {
                "name": "Reuvensgebouw"
            }
        },
        {
            "type": "Feature",
            "geometry": {
                "type": "Point",
                "coordinates": [
                    4.4852443,
                    52.1572083
                ]
            },
            "properties": {
                "name": "Academiegebouw"
            }
        },
        {
            "type": "Feature",
            "geometry": {
                "type": "Point",
                "coordinates": [
                    4.4827167,
                    52.1577147
                ]
            },
            "properties": {
                "name": "Lipsiusgebouw"
            }
        },
        {
            "type": "Feature",
            "geometry": {
                "type": "Point",
                "coordinates": [
                    5.2850247,
                    51.6867343
                ]
            },
            "properties": {
                "name": "HAS Hogeschool"
            }
        },
        {
            "type": "Feature",
            "geometry": {
                "type": "Point",
                "coordinates": [
                    4.9578609,
                    52.3551109
                ]
            },
            "properties": {
                "name": "E"
            }
        },
        {
            "type": "Feature",
            "geometry": {
                "type": "Point",
                "coordinates": [
                    4.8955347,
                    52.3690614
                ]
            },
            "properties": {
                "name": "UvA BG5"
            }
        },
        {
            "type": "Feature",
            "geometry": {
                "type": "Point",
                "coordinates": [
                    4.9580215,
                    52.3566057
                ]
            },
            "properties": {
                "name": "UvA: FNWI - Matrix IV"
            }
        },
        {
            "type": "Feature",
            "geometry": {
                "type": "Point",
                "coordinates": [
                    4.8948453,
                    52.3689495
                ]
            },
            "properties": {
                "name": "Service & Informatiecentrum UvA"
            }
        },
        {
            "type": "Feature",
            "geometry": {
                "type": "Point",
                "coordinates": [
                    4.9586131,
                    52.3555193
                ]
            },
            "properties": {
                "name": "F"
            }
        },
        {
            "type": "Feature",
            "geometry": {
                "type": "Point",
                "coordinates": [
                    4.9590218,
                    52.3560242
                ]
            },
            "properties": {
                "name": "G"
            }
        },
        {
            "type": "Feature",
            "geometry": {
                "type": "Point",
                "coordinates": [
                    4.3774358,
                    51.9907431
                ]
            },
            "properties": {
                "name": "The Fellowship"
            }
        },
        {
            "type": "Feature",
            "geometry": {
                "type": "Point",
                "coordinates": [
                    4.9562472,
                    52.3542014
                ]
            },
            "properties": {
                "name": "B"
            }
        },
        {
            "type": "Feature",
            "geometry": {
                "type": "Point",
                "coordinates": [
                    4.9554589,
                    52.3547079
                ]
            },
            "properties": {
                "name": "A"
            }
        },
        {
            "type": "Feature",
            "geometry": {
                "type": "Point",
                "coordinates": [
                    4.8681671,
                    52.3337119
                ]
            }
        },
        {
            "type": "Feature",
            "geometry": {
                "type": "Point",
                "coordinates": [
                    4.8678611,
                    52.3334931
                ]
            },
            "properties": {
                "name": "Initium"
            }
        },
        {
            "type": "Feature",
            "geometry": {
                "type": "Point",
                "coordinates": [
                    4.867736,
                    52.333771
                ]
            }
        },
        {
            "type": "Feature",
            "geometry": {
                "type": "Point",
                "coordinates": [
                    4.8674321,
                    52.3335522
                ]
            }
        },
        {
            "type": "Feature",
            "geometry": {
                "type": "Point",
                "coordinates": [
                    6.5577,
                    53.2226794
                ]
            },
            "properties": {
                "name": "Faculteit Gedrags- en Maatschappijwetenschappen"
            }
        },
        {
            "type": "Feature",
            "geometry": {
                "type": "Point",
                "coordinates": [
                    6.5629854,
                    53.2194444
                ]
            }
        },
        {
            "type": "Feature",
            "geometry": {
                "type": "Point",
                "coordinates": [
                    6.5605529,
                    53.2190345
                ]
            }
        },
        {
            "type": "Feature",
            "geometry": {
                "type": "Point",
                "coordinates": [
                    4.7937518,
                    51.5858595
                ]
            },
            "properties": {
                "name": "Avans Hogeschool | Lovensdijkstraat"
            }
        },
        {
            "type": "Feature",
            "geometry": {
                "type": "Point",
                "coordinates": [
                    4.3710137,
                    51.9977765
                ]
            },
            "properties": {
                "name": "TNO"
            }
        },
        {
            "type": "Feature",
            "geometry": {
                "type": "Point",
                "coordinates": [
                    4.3705573,
                    52.0026284
                ]
            },
            "properties": {
                "name": "OTB Research Institute"
            }
        },
        {
            "type": "Feature",
            "geometry": {
                "type": "Point",
                "coordinates": [
                    6.8546013,
                    52.2427121
                ]
            },
            "properties": {
                "name": "Universiteit Twente"
            }
        },
        {
            "type": "Feature",
            "geometry": {
                "type": "Point",
                "coordinates": [
                    5.4809535,
                    51.4517089
                ]
            },
            "properties": {
                "name": "Fontys Hogeschool Eindhoven"
            }
        },
        {
            "type": "Feature",
            "geometry": {
                "type": "Point",
                "coordinates": [
                    4.3753487,
                    51.9899023
                ]
            },
            "properties": {
                "name": "Aerospace Engineering"
            }
        },
        {
            "type": "Feature",
            "geometry": {
                "type": "Point",
                "coordinates": [
                    4.8897062,
                    52.373851
                ]
            },
            "properties": {
                "name": "UvA PC Hoofthuis"
            }
        },
        {
            "type": "Feature",
            "geometry": {
                "type": "Point",
                "coordinates": [
                    4.8890512,
                    52.3719648
                ]
            },
            "properties": {
                "name": "UvA Bungehuis"
            }
        },
        {
            "type": "Feature",
            "geometry": {
                "type": "Point",
                "coordinates": [
                    4.8944136,
                    52.3688623
                ]
            },
            "properties": {
                "name": "UvA Binnengasthuisterrein"
            }
        },
        {
            "type": "Feature",
            "geometry": {
                "type": "Point",
                "coordinates": [
                    4.3766672,
                    51.9905847
                ]
            },
            "properties": {
                "name": "Vliegtuighal"
            }
        },
        {
            "type": "Feature",
            "geometry": {
                "type": "Point",
                "coordinates": [
                    4.3757277,
                    51.9906585
                ]
            },
            "properties": {
                "name": "SIMONA"
            }
        },
        {
            "type": "Feature",
            "geometry": {
                "type": "Point",
                "coordinates": [
                    4.3764379,
                    51.9905082
                ]
            }
        },
        {
            "type": "Feature",
            "geometry": {
                "type": "Point",
                "coordinates": [
                    4.3769427,
                    51.9906277
                ]
            }
        },
        {
            "type": "Feature",
            "geometry": {
                "type": "Point",
                "coordinates": [
                    4.3760673,
                    51.9902602
                ]
            }
        },
        {
            "type": "Feature",
            "geometry": {
                "type": "Point",
                "coordinates": [
                    4.376508,
                    51.9901456
                ]
            }
        },
        {
            "type": "Feature",
            "geometry": {
                "type": "Point",
                "coordinates": [
                    4.3754513,
                    51.9903194
                ]
            },
            "properties": {
                "name": "Aerospace Engineering"
            }
        },
        {
            "type": "Feature",
            "geometry": {
                "type": "Point",
                "coordinates": [
                    -63.126971,
                    18.0504381
                ]
            },
            "properties": {
                "name": "American University of the Carribean"
            }
        },
        {
            "type": "Feature",
            "geometry": {
                "type": "Point",
                "coordinates": [
                    4.9509783,
                    52.3550532
                ]
            }
        },
        {
            "type": "Feature",
            "geometry": {
                "type": "Point",
                "coordinates": [
                    4.6124181,
                    52.3889152
                ]
            },
            "properties": {
                "name": "Hogeschool Inholland Haarlem"
            }
        },
        {
            "type": "Feature",
            "geometry": {
                "type": "Point",
                "coordinates": [
                    4.3705972,
                    52.0026333
                ]
            },
            "properties": {
                "name": "OTB Research Institute"
            }
        },
        {
            "type": "Feature",
            "geometry": {
                "type": "Point",
                "coordinates": [
                    4.3692054,
                    52.0022931
                ]
            },
            "properties": {
                "name": "Faculty of Technology Policy and Management"
            }
        },
        {
            "type": "Feature",
            "geometry": {
                "type": "Point",
                "coordinates": [
                    4.3766059,
                    51.998623
                ]
            },
            "properties": {
                "name": "Technische Universiteit Delft"
            }
        },
        {
            "type": "Feature",
            "geometry": {
                "type": "Point",
                "coordinates": [
                    4.3714554,
                    51.9990848
                ]
            },
            "properties": {
                "name": "Gebouw 35"
            }
        },
        {
            "type": "Feature",
            "geometry": {
                "type": "Point",
                "coordinates": [
                    5.176602,
                    52.0860431
                ]
            },
            "properties": {
                "name": "De\u00a0Uithof (Universiteit Utrecht & Hogeschool Utrecht)"
            }
        },
        {
            "type": "Feature",
            "geometry": {
                "type": "Point",
                "coordinates": [
                    5.6648092,
                    52.0183516
                ]
            }
        },
        {
            "type": "Feature",
            "geometry": {
                "type": "Point",
                "coordinates": [
                    5.6617916,
                    52.0207813
                ]
            }
        },
        {
            "type": "Feature",
            "geometry": {
                "type": "Point",
                "coordinates": [
                    5.6667333,
                    52.0185037
                ]
            }
        },
        {
            "type": "Feature",
            "geometry": {
                "type": "Point",
                "coordinates": [
                    4.8609814,
                    52.3356509
                ]
            },
            "properties": {
                "name": "Lab O|2"
            }
        },
        {
            "type": "Feature",
            "geometry": {
                "type": "Point",
                "coordinates": [
                    4.3755669,
                    51.9988977
                ]
            },
            "properties": {
                "name": "Faculty of Civil Engineering and Geosciences"
            }
        },
        {
            "type": "Feature",
            "geometry": {
                "type": "Point",
                "coordinates": [
                    4.3697257,
                    52.0014929
                ]
            },
            "properties": {
                "name": "Faculty of Industrial Design Engineering"
            }
        },
        {
            "type": "Feature",
            "geometry": {
                "type": "Point",
                "coordinates": [
                    4.369198,
                    52.0021918
                ]
            },
            "properties": {
                "name": "Faculty of Technology Policy and Management"
            }
        },
        {
            "type": "Feature",
            "geometry": {
                "type": "Point",
                "coordinates": [
                    4.3764891,
                    51.9987743
                ]
            },
            "properties": {
                "name": "Stevin II"
            }
        },
        {
            "type": "Feature",
            "geometry": {
                "type": "Point",
                "coordinates": [
                    4.3781208,
                    51.9989536
                ]
            },
            "properties": {
                "name": "TU Delft - Wiskunde en Informatica"
            }
        },
        {
            "type": "Feature",
            "geometry": {
                "type": "Point",
                "coordinates": [
                    4.4694236,
                    51.910455
                ]
            },
            "properties": {
                "name": "Erasmus MC - Faculty"
            }
        },
        {
            "type": "Feature",
            "geometry": {
                "type": "Point",
                "coordinates": [
                    5.0792176,
                    51.538871
                ]
            },
            "properties": {
                "name": "Fontys"
            }
        },
        {
            "type": "Feature",
            "geometry": {
                "type": "Point",
                "coordinates": [
                    4.3259573,
                    52.0816406
                ]
            },
            "properties": {
                "name": "Universiteit Leiden (locatie Anna van Bueren)"
            }
        },
        {
            "type": "Feature",
            "geometry": {
                "type": "Point",
                "coordinates": [
                    4.3248595,
                    52.0669232
                ]
            }
        },
        {
            "type": "Feature",
            "geometry": {
                "type": "Point",
                "coordinates": [
                    6.199329,
                    52.7034059
                ]
            },
            "properties": {
                "name": "NHL Stenden Hogeschool"
            }
        },
        {
            "type": "Feature",
            "geometry": {
                "type": "Point",
                "coordinates": [
                    6.5329965,
                    53.2434069
                ]
            },
            "properties": {
                "name": "Hanzehogeschool"
            }
        },
        {
            "type": "Feature",
            "geometry": {
                "type": "Point",
                "coordinates": [
                    6.5336545,
                    53.2436824
                ]
            },
            "properties": {
                "name": "Hanzehogeschool"
            }
        },
        {
            "type": "Feature",
            "geometry": {
                "type": "Point",
                "coordinates": [
                    4.8113937,
                    51.5789265
                ]
            },
            "properties": {
                "name": "AKV | St. Joost (Avans Hogeschool)"
            }
        },
        {
            "type": "Feature",
            "geometry": {
                "type": "Point",
                "coordinates": [
                    5.2981307,
                    51.692105
                ]
            },
            "properties": {
                "name": "Volksuniversiteit"
            }
        },
        {
            "type": "Feature",
            "geometry": {
                "type": "Point",
                "coordinates": [
                    6.5608407,
                    53.2152238
                ]
            },
            "properties": {
                "name": "Academie van Bouwkunst"
            }
        },
        {
            "type": "Feature",
            "geometry": {
                "type": "Point",
                "coordinates": [
                    6.5733831,
                    53.2150327
                ]
            },
            "properties": {
                "name": "Prins Claus Conservatorium"
            }
        },
        {
            "type": "Feature",
            "geometry": {
                "type": "Point",
                "coordinates": [
                    6.5680273,
                    53.2135382
                ]
            },
            "properties": {
                "name": "NHL Stenden Hogeschool"
            }
        },
        {
            "type": "Feature",
            "geometry": {
                "type": "Point",
                "coordinates": [
                    6.1914655,
                    53.4773243
                ]
            },
            "properties": {
                "name": "De Herdershut"
            }
        },
        {
            "type": "Feature",
            "geometry": {
                "type": "Point",
                "coordinates": [
                    5.6636891,
                    52.0197783
                ]
            },
            "properties": {
                "name": "Christelijke Hogeschool Ede"
            }
        },
        {
            "type": "Feature",
            "geometry": {
                "type": "Point",
                "coordinates": [
                    4.6995518,
                    52.0189391
                ]
            },
            "properties": {
                "name": "Driestar Educatief"
            }
        },
        {
            "type": "Feature",
            "geometry": {
                "type": "Point",
                "coordinates": [
                    6.5497667,
                    52.995805
                ]
            },
            "properties": {
                "name": "NHL Stenden Hogeschool"
            }
        },
        {
            "type": "Feature",
            "geometry": {
                "type": "Point",
                "coordinates": [
                    5.8629954,
                    51.826228
                ]
            },
            "properties": {
                "name": "Trigon / Donders Institute for Brain, Cognition and Behaviour"
            }
        },
        {
            "type": "Feature",
            "geometry": {
                "type": "Point",
                "coordinates": [
                    5.8688514,
                    51.8273132
                ]
            },
            "properties": {
                "name": "Technovium"
            }
        },
        {
            "type": "Feature",
            "geometry": {
                "type": "Point",
                "coordinates": [
                    5.9590222,
                    50.8810378
                ]
            },
            "properties": {
                "name": "Hogeschool Zuyd"
            }
        },
        {
            "type": "Feature",
            "geometry": {
                "type": "Point",
                "coordinates": [
                    5.0062708,
                    52.1607765
                ]
            },
            "properties": {
                "name": "Nyenrode Business Universiteit"
            }
        },
        {
            "type": "Feature",
            "geometry": {
                "type": "Point",
                "coordinates": [
                    5.8606346,
                    50.9982696
                ]
            },
            "properties": {
                "name": "Fontys Hogeschool"
            }
        },
        {
            "type": "Feature",
            "geometry": {
                "type": "Point",
                "coordinates": [
                    5.8505342,
                    51.0034127
                ]
            },
            "properties": {
                "name": "ROC Leeuwenborgh"
            }
        },
        {
            "type": "Feature",
            "geometry": {
                "type": "Point",
                "coordinates": [
                    4.4781395,
                    52.1696862
                ]
            },
            "properties": {
                "name": "Universiteit Leiden, Pieter de la Courtgebouw"
            }
        },
        {
            "type": "Feature",
            "geometry": {
                "type": "Point",
                "coordinates": [
                    4.4566279,
                    52.1695199
                ]
            },
            "properties": {
                "name": "Universiteit Leiden, Snelliusgebouw"
            }
        },
        {
            "type": "Feature",
            "geometry": {
                "type": "Point",
                "coordinates": [
                    5.3222873,
                    51.7019137
                ]
            },
            "properties": {
                "name": "Avans Hogeschool"
            }
        },
        {
            "type": "Feature",
            "geometry": {
                "type": "Point",
                "coordinates": [
                    6.8851342,
                    52.223374
                ]
            },
            "properties": {
                "name": "ITC - Faculty of Geo-Information Science and Earth Observation"
            }
        },
        {
            "type": "Feature",
            "geometry": {
                "type": "Point",
                "coordinates": [
                    4.889793,
                    52.3681431
                ]
            },
            "properties": {
                "name": "Universiteit van Amsterdam"
            }
        },
        {
            "type": "Feature",
            "geometry": {
                "type": "Point",
                "coordinates": [
                    4.3125616,
                    52.083578
                ]
            },
            "properties": {
                "name": "Universiteit Leiden, Campus Den Haag"
            }
        },
        {
            "type": "Feature",
            "geometry": {
                "type": "Point",
                "coordinates": [
                    5.0408363,
                    51.5636669
                ]
            }
        },
        {
            "type": "Feature",
            "geometry": {
                "type": "Point",
                "coordinates": [
                    4.9090884,
                    52.359122
                ]
            },
            "properties": {
                "name": "Amstelcampus"
            }
        },
        {
            "type": "Feature",
            "geometry": {
                "type": "Point",
                "coordinates": [
                    -70.0372871,
                    12.5310972
                ]
            },
            "properties": {
                "name": "Xavier University School of Medecine"
            }
        },
        {
            "type": "Feature",
            "geometry": {
                "type": "Point",
                "coordinates": [
                    4.3294396,
                    52.0837782
                ]
            },
            "properties": {
                "name": "InHolland"
            }
        },
        {
            "type": "Feature",
            "geometry": {
                "type": "Point",
                "coordinates": [
                    4.3710267,
                    52.0014975
                ]
            },
            "properties": {
                "name": "Pulse"
            }
        },
        {
            "type": "Feature",
            "geometry": {
                "type": "Point",
                "coordinates": [
                    6.5305848,
                    53.2474452
                ]
            },
            "properties": {
                "name": "EnTranCe"
            }
        },
        {
            "type": "Feature",
            "geometry": {
                "type": "Point",
                "coordinates": [
                    4.3734811,
                    51.9988313
                ]
            },
            "properties": {
                "name": "EWI hoogbouw"
            }
        },
        {
            "type": "Feature",
            "geometry": {
                "type": "Point",
                "coordinates": [
                    4.3744273,
                    51.997912
                ]
            },
            "properties": {
                "name": "EWI laagbouw"
            }
        },
        {
            "type": "Feature",
            "geometry": {
                "type": "Point",
                "coordinates": [
                    4.3729992,
                    51.9987983
                ]
            }
        },
        {
            "type": "Feature",
            "geometry": {
                "type": "Point",
                "coordinates": [
                    4.374735,
                    51.9970388
                ]
            },
            "properties": {
                "name": "High Voltage Laboratory"
            }
        },
        {
            "type": "Feature",
            "geometry": {
                "type": "Point",
                "coordinates": [
                    -63.2463279,
                    17.6259551
                ]
            },
            "properties": {
                "name": "Saba University School of Medicine"
            }
        },
        {
            "type": "Feature",
            "geometry": {
                "type": "Point",
                "coordinates": [
                    4.7963154,
                    51.5899426
                ]
            },
            "properties": {
                "name": "NHTV internationaal hoger onderwijs Breda"
            }
        },
        {
            "type": "Feature",
            "geometry": {
                "type": "Point",
                "coordinates": [
                    4.7726673,
                    51.5665298
                ]
            },
            "properties": {
                "name": "NHTV internationaal hoger onderwijs Breda"
            }
        },
        {
            "type": "Feature",
            "geometry": {
                "type": "Point",
                "coordinates": [
                    4.7843007,
                    51.5986537
                ]
            },
            "properties": {
                "name": "NHTV internationaal hoger onderwijs Breda"
            }
        },
        {
            "type": "Feature",
            "geometry": {
                "type": "Point",
                "coordinates": [
                    4.725432,
                    52.6418104
                ]
            },
            "properties": {
                "name": "Hogeschool Inholland"
            }
        },
        {
            "type": "Feature",
            "geometry": {
                "type": "Point",
                "coordinates": [
                    5.8522937,
                    51.8266397
                ]
            }
        },
        {
            "type": "Feature",
            "geometry": {
                "type": "Point",
                "coordinates": [
                    5.2861466,
                    51.6883599
                ]
            },
            "properties": {
                "name": "Avans Hogeschool"
            }
        },
        {
            "type": "Feature",
            "geometry": {
                "type": "Point",
                "coordinates": [
                    4.4814614,
                    52.1574912
                ]
            },
            "properties": {
                "name": "Witte Singel-Doelencomplex"
            }
        },
        {
            "type": "Feature",
            "geometry": {
                "type": "Point",
                "coordinates": [
                    4.4830843,
                    52.1581442
                ]
            },
            "properties": {
                "name": "Witte Singel-Doelencomplex"
            }
        },
        {
            "type": "Feature",
            "geometry": {
                "type": "Point",
                "coordinates": [
                    4.489817,
                    52.1564715
                ]
            },
            "properties": {
                "name": "Kamerlingh Onnes Gebouw"
            }
        },
        {
            "type": "Feature",
            "geometry": {
                "type": "Point",
                "coordinates": [
                    4.471245,
                    52.1675288
                ]
            }
        },
        {
            "type": "Feature",
            "geometry": {
                "type": "Point",
                "coordinates": [
                    4.4637932,
                    52.1655659
                ]
            }
        },
        {
            "type": "Feature",
            "geometry": {
                "type": "Point",
                "coordinates": [
                    5.2219222,
                    53.366006
                ]
            },
            "properties": {
                "name": "Maritiem Instituut Willem Barentsz"
            }
        },
        {
            "type": "Feature",
            "geometry": {
                "type": "Point",
                "coordinates": [
                    -70.0342328,
                    12.5236714
                ]
            },
            "properties": {
                "name": "University Of Aruba.  UA"
            }
        },
        {
            "type": "Feature",
            "geometry": {
                "type": "Point",
                "coordinates": [
                    6.0800378,
                    52.4996742
                ]
            },
            "properties": {
                "name": "Hogeschool Windesheim"
            }
        },
        {
            "type": "Feature",
            "geometry": {
                "type": "Point",
                "coordinates": [
                    5.7982759,
                    53.210992
                ]
            },
            "properties": {
                "name": "NHL Stenden Hogeschool"
            }
        },
        {
            "type": "Feature",
            "geometry": {
                "type": "Point",
                "coordinates": [
                    6.1064999,
                    52.5139705
                ]
            },
            "properties": {
                "name": "ArtEZ hogeschool voor de Kunsten"
            }
        },
        {
            "type": "Feature",
            "geometry": {
                "type": "Point",
                "coordinates": [
                    4.8656045,
                    52.3329799
                ]
            },
            "properties": {
                "name": "W&N"
            }
        },
        {
            "type": "Feature",
            "geometry": {
                "type": "Point",
                "coordinates": [
                    4.8629574,
                    52.3332162
                ]
            },
            "properties": {
                "name": "Medische Faculteit"
            }
        },
        {
            "type": "Feature",
            "geometry": {
                "type": "Point",
                "coordinates": [
                    5.9646615,
                    52.2211448
                ]
            },
            "properties": {
                "name": "Theologische Universiteit Apeldoorn"
            }
        },
        {
            "type": "Feature",
            "geometry": {
                "type": "Point",
                "coordinates": [
                    5.6883644,
                    50.8471205
                ]
            },
            "properties": {
                "name": "Courtyard of the Masstricht University Law facculty"
            }
        },
        {
            "type": "Feature",
            "geometry": {
                "type": "Point",
                "coordinates": [
                    3.5894729,
                    51.4499452
                ]
            },
            "properties": {
                "name": "HZ University of Applied Sciences"
            }
        },
        {
            "type": "Feature",
            "geometry": {
                "type": "Point",
                "coordinates": [
                    3.6095716,
                    51.4950141
                ]
            },
            "properties": {
                "name": "HZ University of Applied Sciences"
            }
        },
        {
            "type": "Feature",
            "geometry": {
                "type": "Point",
                "coordinates": [
                    4.9556594,
                    52.3544036
                ]
            },
            "properties": {
                "name": "C"
            }
        },
        {
            "type": "Feature",
            "geometry": {
                "type": "Point",
                "coordinates": [
                    4.9570301,
                    52.3552301
                ]
            }
        },
        {
            "type": "Feature",
            "geometry": {
                "type": "Point",
                "coordinates": [
                    4.3696333,
                    52.0024262
                ]
            },
            "properties": {
                "name": "TPM"
            }
        },
        {
            "type": "Feature",
            "geometry": {
                "type": "Point",
                "coordinates": [
                    4.3763718,
                    51.9889419
                ]
            },
            "properties": {
                "name": "Gebouw 64"
            }
        },
        {
            "type": "Feature",
            "geometry": {
                "type": "Point",
                "coordinates": [
                    4.3711555,
                    52.0006721
                ]
            },
            "properties": {
                "name": "Faculty of Mechanical, Maritime and Material Engineering (3mE)"
            }
        },
        {
            "type": "Feature",
            "geometry": {
                "type": "Point",
                "coordinates": [
                    5.1224377,
                    52.0902597
                ]
            },
            "properties": {
                "name": "Academiegebouw"
            }
        },
        {
            "type": "Feature",
            "geometry": {
                "type": "Point",
                "coordinates": [
                    4.3162648,
                    52.0812264
                ]
            },
            "properties": {
                "name": "Universiteit Leiden Campus Den Haag"
            }
        },
        {
            "type": "Feature",
            "geometry": {
                "type": "Point",
                "coordinates": [
                    4.89631,
                    52.3696034
                ]
            },
            "properties": {
                "name": "Oudemanhuispoort (UvA)"
            }
        },
        {
            "type": "Feature",
            "geometry": {
                "type": "Point",
                "coordinates": [
                    6.885912,
                    52.2237664
                ]
            },
            "properties": {
                "name": "ITC - Faculty of Geo-Information Science and Earth Observation"
            }
        },
        {
            "type": "Feature",
            "geometry": {
                "type": "Point",
                "coordinates": [
                    4.4835402,
                    52.1575379
                ]
            },
            "properties": {
                "name": "Huizingagebouw"
            }
        },
        {
            "type": "Feature",
            "geometry": {
                "type": "Point",
                "coordinates": [
                    4.8667799,
                    52.3342197
                ]
            },
            "properties": {
                "name": "VU (Hoofdgebouw)"
            }
        },
        {
            "type": "Feature",
            "geometry": {
                "type": "Point",
                "coordinates": [
                    5.1908624,
                    52.2200775
                ]
            },
            "properties": {
                "name": "Hogeschool voor de Kunsten Utrecht, faculteit Kunst, Media & Technologie"
            }
        },
        {
            "type": "Feature",
            "geometry": {
                "type": "Point",
                "coordinates": [
                    6.9120377,
                    52.7782297
                ]
            },
            "properties": {
                "name": "NHL Stenden Hogeschool"
            }
        },
        {
            "type": "Feature",
            "geometry": {
                "type": "Point",
                "coordinates": [
                    4.4590896,
                    52.1684487
                ]
            },
            "properties": {
                "name": "Universiteit Leiden"
            }
        },
        {
            "type": "Feature",
            "geometry": {
                "type": "Point",
                "coordinates": [
                    4.7745551,
                    51.5915583
                ]
            },
            "properties": {
                "name": "Koninklijke Militaire Academie"
            }
        }
    ],
    "crs": {
        "type": "name",
        "properties": {
            "name": "urn:ogc:def:crs:OGC:1.3:CRS84"
        }
    }
}