{
    "type": "FeatureCollection",
    "features": [
        {
            "type": "Feature",
            "geometry": {
                "type": "Point",
                "coordinates": [
                    -3.790185,
                    43.4628695
                ]
            },
            "properties": {
                "name": "Escuela de Na\u00fatica de la Universidad de Cantabria"
            }
        },
        {
            "type": "Feature",
            "geometry": {
                "type": "Point",
                "coordinates": [
                    -3.6951618,
                    40.5454203
                ]
            },
            "properties": {
                "name": "Facultad de Ciencias"
            }
        },
        {
            "type": "Feature",
            "geometry": {
                "type": "Point",
                "coordinates": [
                    -3.6966059,
                    40.5449246
                ]
            },
            "properties": {
                "name": "Facultad de Ciencias Econ\u00f3micas y Empresariales"
            }
        },
        {
            "type": "Feature",
            "geometry": {
                "type": "Point",
                "coordinates": [
                    -5.614682,
                    43.5240287
                ]
            },
            "properties": {
                "name": "Facultad de Comercio, Turismo y Ciencias Sociales Jovellanos"
            }
        },
        {
            "type": "Feature",
            "geometry": {
                "type": "Point",
                "coordinates": [
                    -0.0689849,
                    39.9946294
                ]
            },
            "properties": {
                "name": "Universidad Jaume I"
            }
        },
        {
            "type": "Feature",
            "geometry": {
                "type": "Point",
                "coordinates": [
                    -16.3220933,
                    28.4829825
                ]
            },
            "properties": {
                "name": "Escuela Superior de Ingenieria y Tecnolog\u00eda"
            }
        },
        {
            "type": "Feature",
            "geometry": {
                "type": "Point",
                "coordinates": [
                    -1.6314569,
                    42.7960476
                ]
            },
            "properties": {
                "name": "UNED Pamplona"
            }
        },
        {
            "type": "Feature",
            "geometry": {
                "type": "Point",
                "coordinates": [
                    -3.707302,
                    40.4244706
                ]
            },
            "properties": {
                "name": "Escuela Superior de Canto de Madrid"
            }
        },
        {
            "type": "Feature",
            "geometry": {
                "type": "Point",
                "coordinates": [
                    -3.6753648,
                    40.4587817
                ]
            },
            "properties": {
                "name": "ESERP Bussiness School"
            }
        },
        {
            "type": "Feature",
            "geometry": {
                "type": "Point",
                "coordinates": [
                    -8.4106415,
                    43.3340517
                ]
            },
            "properties": {
                "name": "SAPE"
            }
        },
        {
            "type": "Feature",
            "geometry": {
                "type": "Point",
                "coordinates": [
                    -8.4109965,
                    43.3342746
                ]
            },
            "properties": {
                "name": "Comedor"
            }
        },
        {
            "type": "Feature",
            "geometry": {
                "type": "Point",
                "coordinates": [
                    -4.1512597,
                    40.5892412
                ]
            },
            "properties": {
                "name": "Universidad Mar\u00eda Cristina"
            }
        },
        {
            "type": "Feature",
            "geometry": {
                "type": "Point",
                "coordinates": [
                    -2.4345342,
                    42.4676985
                ]
            },
            "properties": {
                "name": "Escuela Universitaria de Turismo"
            }
        },
        {
            "type": "Feature",
            "geometry": {
                "type": "Point",
                "coordinates": [
                    -3.7186228,
                    40.4483863
                ]
            },
            "properties": {
                "name": "Rectorado de la Universidad Polit\u00e9cnica de Madrid"
            }
        },
        {
            "type": "Feature",
            "geometry": {
                "type": "Point",
                "coordinates": [
                    -3.6296775,
                    40.3888933
                ]
            },
            "properties": {
                "name": "Laboratorio LatinGeo"
            }
        },
        {
            "type": "Feature",
            "geometry": {
                "type": "Point",
                "coordinates": [
                    -8.6837033,
                    42.1689885
                ]
            },
            "properties": {
                "name": "Universidade de Vigo"
            }
        },
        {
            "type": "Feature",
            "geometry": {
                "type": "Point",
                "coordinates": [
                    -1.9978724,
                    43.3142453
                ]
            },
            "properties": {
                "name": "Musikene"
            }
        },
        {
            "type": "Feature",
            "geometry": {
                "type": "Point",
                "coordinates": [
                    2.1301533,
                    41.4083057
                ]
            },
            "properties": {
                "name": "Enginyeria i Arquitectura la Salle"
            }
        },
        {
            "type": "Feature",
            "geometry": {
                "type": "Point",
                "coordinates": [
                    2.130224,
                    41.4093346
                ]
            },
            "properties": {
                "name": "Enginyeria i Arquitectura La Salle"
            }
        },
        {
            "type": "Feature",
            "geometry": {
                "type": "Point",
                "coordinates": [
                    2.1289709,
                    41.4081823
                ]
            },
            "properties": {
                "name": "Arquitectura la Salle"
            }
        },
        {
            "type": "Feature",
            "geometry": {
                "type": "Point",
                "coordinates": [
                    -5.8715154,
                    43.3558457
                ]
            },
            "properties": {
                "name": "Edificio S.Gasc\u00f3n (Dep. Bioqu\u00edmica)"
            }
        },
        {
            "type": "Feature",
            "geometry": {
                "type": "Point",
                "coordinates": [
                    -5.8718389,
                    43.3561349
                ]
            },
            "properties": {
                "name": "Estomatolog\u00eda"
            }
        },
        {
            "type": "Feature",
            "geometry": {
                "type": "Point",
                "coordinates": [
                    -5.8707147,
                    43.3564125
                ]
            },
            "properties": {
                "name": "Facultad de Medicina y Ciencias de la Salud"
            }
        },
        {
            "type": "Feature",
            "geometry": {
                "type": "Point",
                "coordinates": [
                    0.5808343,
                    41.6003104
                ]
            },
            "properties": {
                "name": "Institut Nacional d'Educaci\u00f3 F\u00edsica de Catalunya"
            }
        },
        {
            "type": "Feature",
            "geometry": {
                "type": "Point",
                "coordinates": [
                    -5.6771228,
                    40.9723681
                ]
            },
            "properties": {
                "name": "Facultad de Ciencias Agrarias y Ambientales"
            }
        },
        {
            "type": "Feature",
            "geometry": {
                "type": "Point",
                "coordinates": [
                    -16.3195125,
                    28.481415
                ]
            },
            "properties": {
                "name": "Instituto Universitario de Bio-Organica Antonio Gonz\u00e1lez"
            }
        },
        {
            "type": "Feature",
            "geometry": {
                "type": "Point",
                "coordinates": [
                    -16.3199527,
                    28.4806003
                ]
            },
            "properties": {
                "name": "Secci\u00f3n de Biologia"
            }
        },
        {
            "type": "Feature",
            "geometry": {
                "type": "Point",
                "coordinates": [
                    -16.3207681,
                    28.4794404
                ]
            },
            "properties": {
                "name": "Instituto de Productos Naturales y Agrobiolog\u00eda"
            }
        },
        {
            "type": "Feature",
            "geometry": {
                "type": "Point",
                "coordinates": [
                    -16.3222809,
                    28.4794404
                ]
            },
            "properties": {
                "name": "Secci\u00f3n de Qu\u00edmica"
            }
        },
        {
            "type": "Feature",
            "geometry": {
                "type": "Point",
                "coordinates": [
                    -5.678197,
                    40.9676943
                ]
            },
            "properties": {
                "name": "Facultad de Econom\u00eda y Empresa"
            }
        },
        {
            "type": "Feature",
            "geometry": {
                "type": "Point",
                "coordinates": [
                    -5.6777197,
                    40.9679436
                ]
            },
            "properties": {
                "name": "Facultad de Filosof\u00eda"
            }
        },
        {
            "type": "Feature",
            "geometry": {
                "type": "Point",
                "coordinates": [
                    -5.6780186,
                    40.9682164
                ]
            },
            "properties": {
                "name": "Facultad de Ciencias Sociales"
            }
        },
        {
            "type": "Feature",
            "geometry": {
                "type": "Point",
                "coordinates": [
                    -4.1167804,
                    40.9438795
                ]
            },
            "properties": {
                "name": "Escuela Universitaria Domingo de Soto"
            }
        },
        {
            "type": "Feature",
            "geometry": {
                "type": "Point",
                "coordinates": [
                    2.112069,
                    41.3885123
                ]
            },
            "properties": {
                "name": "Escola T\u00e8cnica Superior d'Enginyeria de Telecomunicaci\u00f3 de Barcelona"
            }
        },
        {
            "type": "Feature",
            "geometry": {
                "type": "Point",
                "coordinates": [
                    2.1115111,
                    41.3884881
                ]
            },
            "properties": {
                "name": "Escola T\u00e8cnica Superior d'Enginyeria de Camins Canals i Ports de Barcelona"
            }
        },
        {
            "type": "Feature",
            "geometry": {
                "type": "Point",
                "coordinates": [
                    -3.172239,
                    40.6302191
                ]
            },
            "properties": {
                "name": "Edificio multidisciplinar UAH"
            }
        },
        {
            "type": "Feature",
            "geometry": {
                "type": "Point",
                "coordinates": [
                    2.8274579,
                    41.9850969
                ]
            },
            "properties": {
                "name": "Insitut de Ci\u00e8ncies Religioses"
            }
        },
        {
            "type": "Feature",
            "geometry": {
                "type": "Point",
                "coordinates": [
                    2.829999,
                    41.964182
                ]
            },
            "properties": {
                "name": "UdG. Escola Polit\u00e8cnica Superior"
            }
        },
        {
            "type": "Feature",
            "geometry": {
                "type": "Point",
                "coordinates": [
                    -5.9923571,
                    37.4057478
                ]
            },
            "properties": {
                "name": "Escuela de Fisoterapia y Podologia"
            }
        },
        {
            "type": "Feature",
            "geometry": {
                "type": "Point",
                "coordinates": [
                    -5.9824944,
                    37.3727119
                ]
            },
            "properties": {
                "name": "Secretariado de recursos audiovisuales y nuevas tecnolog\u00edas"
            }
        },
        {
            "type": "Feature",
            "geometry": {
                "type": "Point",
                "coordinates": [
                    -7.5463828,
                    42.9934955
                ]
            },
            "properties": {
                "name": "Edificio Cactus"
            }
        },
        {
            "type": "Feature",
            "geometry": {
                "type": "Point",
                "coordinates": [
                    -7.5447413,
                    42.9935779
                ]
            },
            "properties": {
                "name": "Escola Polit\u00e9cnica Superior"
            }
        },
        {
            "type": "Feature",
            "geometry": {
                "type": "Point",
                "coordinates": [
                    -3.525593,
                    36.744956
                ]
            },
            "properties": {
                "name": "U.N.E.D. Motril"
            }
        },
        {
            "type": "Feature",
            "geometry": {
                "type": "Point",
                "coordinates": [
                    -0.9784751,
                    37.6066646
                ]
            },
            "properties": {
                "name": "Escuela T\u00e9cnica Superior de Ingenier\u00eda de Caminos, Canales y Puertos y de Ingenier\u00eda de Minas"
            }
        },
        {
            "type": "Feature",
            "geometry": {
                "type": "Point",
                "coordinates": [
                    -0.9782069,
                    37.6066773
                ]
            },
            "properties": {
                "name": "Escuela T\u00e9cnica Superior de Ingenier\u00eda Naval y Oce\u00e1nica"
            }
        },
        {
            "type": "Feature",
            "geometry": {
                "type": "Point",
                "coordinates": [
                    1.9872505,
                    41.2755674
                ]
            },
            "properties": {
                "name": "EETAC"
            }
        },
        {
            "type": "Feature",
            "geometry": {
                "type": "Point",
                "coordinates": [
                    1.9868761,
                    41.2759759
                ]
            },
            "properties": {
                "name": "ESAB"
            }
        },
        {
            "type": "Feature",
            "geometry": {
                "type": "Point",
                "coordinates": [
                    2.1171243,
                    41.3842917
                ]
            },
            "properties": {
                "name": "Facultat de F\u00edsica"
            }
        },
        {
            "type": "Feature",
            "geometry": {
                "type": "Point",
                "coordinates": [
                    2.1169158,
                    41.3850481
                ]
            },
            "properties": {
                "name": "Facultat de Qu\u00edmica"
            }
        },
        {
            "type": "Feature",
            "geometry": {
                "type": "Point",
                "coordinates": [
                    -3.8231247,
                    43.458527
                ]
            },
            "properties": {
                "name": "UNED Cantabria"
            }
        },
        {
            "type": "Feature",
            "geometry": {
                "type": "Point",
                "coordinates": [
                    -2.1277202,
                    40.0811468
                ]
            },
            "properties": {
                "name": "Universidad Internacional Men\u00e9ndez Pelayo"
            }
        },
        {
            "type": "Feature",
            "geometry": {
                "type": "Point",
                "coordinates": [
                    -2.147878,
                    40.078095
                ]
            },
            "properties": {
                "name": "Universidad de Castilla La Mancha - Campus de Cuenca"
            }
        },
        {
            "type": "Feature",
            "geometry": {
                "type": "Point",
                "coordinates": [
                    -6.0001847,
                    37.3955775
                ]
            },
            "properties": {
                "name": "Conservatorio Superior de M\u00fasica"
            }
        },
        {
            "type": "Feature",
            "geometry": {
                "type": "Point",
                "coordinates": [
                    -6.0000429,
                    37.3964918
                ]
            },
            "properties": {
                "name": "Escuela Superior de Arte Dram\u00e1tico"
            }
        },
        {
            "type": "Feature",
            "geometry": {
                "type": "Point",
                "coordinates": [
                    -6.007117,
                    37.4028619
                ]
            },
            "properties": {
                "name": "CEADE"
            }
        },
        {
            "type": "Feature",
            "geometry": {
                "type": "Point",
                "coordinates": [
                    -6.0121557,
                    37.3956321
                ]
            },
            "properties": {
                "name": "ESIC, Escuela de Gesti\u00f3n comercial y marketing"
            }
        },
        {
            "type": "Feature",
            "geometry": {
                "type": "Point",
                "coordinates": [
                    -6.0064787,
                    37.4045906
                ]
            },
            "properties": {
                "name": "EOI"
            }
        },
        {
            "type": "Feature",
            "geometry": {
                "type": "Point",
                "coordinates": [
                    2.1214641,
                    41.3861356
                ]
            },
            "properties": {
                "name": "Col\u00b7legi Major Penyafort"
            }
        },
        {
            "type": "Feature",
            "geometry": {
                "type": "Point",
                "coordinates": [
                    2.1161821,
                    41.3893642
                ]
            },
            "properties": {
                "name": "Barcelona Supercomputing Center"
            }
        },
        {
            "type": "Feature",
            "geometry": {
                "type": "Point",
                "coordinates": [
                    -3.7362438,
                    40.4398598
                ]
            },
            "properties": {
                "name": "Residencia I.N.E.F."
            }
        },
        {
            "type": "Feature",
            "geometry": {
                "type": "Point",
                "coordinates": [
                    -6.3390882,
                    38.906657
                ]
            },
            "properties": {
                "name": "Universidad de Extremadura - Centro Universitario de M\u00e9rida"
            }
        },
        {
            "type": "Feature",
            "geometry": {
                "type": "Point",
                "coordinates": [
                    -3.8451064,
                    40.3489816
                ]
            },
            "properties": {
                "name": "Universidad Rey Juan Carlos"
            }
        },
        {
            "type": "Feature",
            "geometry": {
                "type": "Point",
                "coordinates": [
                    2.1067321,
                    41.5005953
                ]
            },
            "properties": {
                "name": "UAB - Universitat Aut\u00f2noma de Barcelona"
            }
        },
        {
            "type": "Feature",
            "geometry": {
                "type": "Point",
                "coordinates": [
                    -16.3219715,
                    28.4789187
                ]
            },
            "properties": {
                "name": "Facultad de Farmacia"
            }
        },
        {
            "type": "Feature",
            "geometry": {
                "type": "Point",
                "coordinates": [
                    -16.3212275,
                    28.478073
                ]
            },
            "properties": {
                "name": "Servicio General de Apoyo a la Investigaci\u00f3n"
            }
        },
        {
            "type": "Feature",
            "geometry": {
                "type": "Point",
                "coordinates": [
                    2.1133621,
                    41.3894483
                ]
            },
            "properties": {
                "name": "Facultat d'Inform\u00e0tica de Barcelona"
            }
        },
        {
            "type": "Feature",
            "geometry": {
                "type": "Point",
                "coordinates": [
                    -5.7441922,
                    41.5073768
                ]
            },
            "properties": {
                "name": "UNED"
            }
        },
        {
            "type": "Feature",
            "geometry": {
                "type": "Point",
                "coordinates": [
                    -2.8664444,
                    43.2962378
                ]
            },
            "properties": {
                "name": "BCMaterials - Basque Center for Materials, Applications and Nanostructures"
            }
        },
        {
            "type": "Feature",
            "geometry": {
                "type": "Point",
                "coordinates": [
                    2.1156783,
                    41.3892886
                ]
            },
            "properties": {
                "name": "Rectorat UPC"
            }
        },
        {
            "type": "Feature",
            "geometry": {
                "type": "Point",
                "coordinates": [
                    -1.0909283,
                    37.7237689
                ]
            },
            "properties": {
                "name": "Centro de Desarrollo e Innovaci\u00f3n Tecnol\u00f3gica"
            }
        },
        {
            "type": "Feature",
            "geometry": {
                "type": "Point",
                "coordinates": [
                    -3.6985621,
                    40.5442248
                ]
            },
            "properties": {
                "name": "Facultad de Filosof\u00eda y Letras"
            }
        },
        {
            "type": "Feature",
            "geometry": {
                "type": "Point",
                "coordinates": [
                    -6.5686834,
                    37.0165515
                ]
            },
            "properties": {
                "name": "C.I.E.C.E.M."
            }
        },
        {
            "type": "Feature",
            "geometry": {
                "type": "Point",
                "coordinates": [
                    -2.5051885,
                    43.0394383
                ]
            },
            "properties": {
                "name": "Mondragon Unibertsitatea - Komunikazioa"
            }
        },
        {
            "type": "Feature",
            "geometry": {
                "type": "Point",
                "coordinates": [
                    2.1193357,
                    41.5465346
                ]
            },
            "properties": {
                "name": "Escola d'Enginyeria (UAB)"
            }
        },
        {
            "type": "Feature",
            "geometry": {
                "type": "Point",
                "coordinates": [
                    -3.3647115,
                    40.4801446
                ]
            },
            "properties": {
                "name": "Colegio menor San Jos\u00e9 de Caracciolos"
            }
        },
        {
            "type": "Feature",
            "geometry": {
                "type": "Point",
                "coordinates": [
                    -3.3652244,
                    40.4801787
                ]
            },
            "properties": {
                "name": "Sala San Jos\u00e9 de Caraciolos de la Univesidad de Alcal\u00e1 de Henares"
            }
        },
        {
            "type": "Feature",
            "geometry": {
                "type": "Point",
                "coordinates": [
                    2.0962268,
                    41.4999531
                ]
            },
            "properties": {
                "name": "Escola Universitaria de Turisme i Direcci\u00f3 Hotelera"
            }
        },
        {
            "type": "Feature",
            "geometry": {
                "type": "Point",
                "coordinates": [
                    -16.3057204,
                    28.471372
                ]
            },
            "properties": {
                "name": "Escuela Universitaria de Estudios Empresariales"
            }
        },
        {
            "type": "Feature",
            "geometry": {
                "type": "Point",
                "coordinates": [
                    -16.3064194,
                    28.4713208
                ]
            },
            "properties": {
                "name": "Facultad de Ciencias Econ\u00f3micas y Empresariales"
            }
        },
        {
            "type": "Feature",
            "geometry": {
                "type": "Point",
                "coordinates": [
                    -16.2835768,
                    28.4481674
                ]
            },
            "properties": {
                "name": "Escuela de Enfermer\u00eda"
            }
        },
        {
            "type": "Feature",
            "geometry": {
                "type": "Point",
                "coordinates": [
                    -16.320674,
                    28.4817094
                ]
            },
            "properties": {
                "name": "Secci\u00f3n de Matem\u00e1ticas"
            }
        },
        {
            "type": "Feature",
            "geometry": {
                "type": "Point",
                "coordinates": [
                    -16.3210179,
                    28.4820317
                ]
            },
            "properties": {
                "name": "Secci\u00f3n de F\u00edsicas"
            }
        },
        {
            "type": "Feature",
            "geometry": {
                "type": "Point",
                "coordinates": [
                    -16.3189618,
                    28.4791251
                ]
            },
            "properties": {
                "name": "E.T.S. de Ingenier\u00eda Agraria"
            }
        },
        {
            "type": "Feature",
            "geometry": {
                "type": "Point",
                "coordinates": [
                    -3.7915734,
                    43.4715047
                ]
            },
            "properties": {
                "name": "Centro Universitario CESINE"
            }
        },
        {
            "type": "Feature",
            "geometry": {
                "type": "Point",
                "coordinates": [
                    -4.7853298,
                    37.8965044
                ]
            },
            "properties": {
                "name": "Centro de Magisterio \"Sagrado Coraz\u00f3n\""
            }
        },
        {
            "type": "Feature",
            "geometry": {
                "type": "Point",
                "coordinates": [
                    -1.8566369,
                    38.9774213
                ]
            },
            "properties": {
                "name": "Instituto de Investigaci\u00f3n en Inform\u00e1tica de Albacete"
            }
        },
        {
            "type": "Feature",
            "geometry": {
                "type": "Point",
                "coordinates": [
                    2.1196052,
                    41.402984
                ]
            },
            "properties": {
                "name": "Institut Qu\u00edmic de Sarri\u00e0"
            }
        },
        {
            "type": "Feature",
            "geometry": {
                "type": "Point",
                "coordinates": [
                    -8.5426534,
                    42.878683
                ]
            },
            "properties": {
                "name": "Instituto da Lingua Galega"
            }
        },
        {
            "type": "Feature",
            "geometry": {
                "type": "Point",
                "coordinates": [
                    -4.5222162,
                    42.009159
                ]
            },
            "properties": {
                "name": "Universidad Popular de Palencia"
            }
        },
        {
            "type": "Feature",
            "geometry": {
                "type": "Point",
                "coordinates": [
                    -0.9791635,
                    37.6066674
                ]
            },
            "properties": {
                "name": "Escuela T\u00e9cnica Superior de Arquitectura y Edificaci\u00f3n"
            }
        },
        {
            "type": "Feature",
            "geometry": {
                "type": "Point",
                "coordinates": [
                    -0.9810099,
                    37.6061085
                ]
            },
            "properties": {
                "name": "Centro de Electroqu\u00edmica y Materiales Inteligentes"
            }
        },
        {
            "type": "Feature",
            "geometry": {
                "type": "Point",
                "coordinates": [
                    -0.9800528,
                    37.6063003
                ]
            },
            "properties": {
                "name": "CRAI, Sala 2"
            }
        },
        {
            "type": "Feature",
            "geometry": {
                "type": "Point",
                "coordinates": [
                    -0.9789505,
                    37.5996141
                ]
            },
            "properties": {
                "name": "Escuela T\u00e9cnica Superior de Ingenier\u00eda Industrial"
            }
        },
        {
            "type": "Feature",
            "geometry": {
                "type": "Point",
                "coordinates": [
                    -0.9784922,
                    37.6015199
                ]
            },
            "properties": {
                "name": "Escuela T\u00e9cnica Superior de Ingenier\u00eda de Telecomunicaciones - UPCT"
            }
        },
        {
            "type": "Feature",
            "geometry": {
                "type": "Point",
                "coordinates": [
                    -0.98755,
                    37.5988041
                ]
            },
            "properties": {
                "name": "Facultad de Ciencias de la Empresa"
            }
        },
        {
            "type": "Feature",
            "geometry": {
                "type": "Point",
                "coordinates": [
                    -0.9784761,
                    37.601403
                ]
            },
            "properties": {
                "name": "CRAI, Sala 1"
            }
        },
        {
            "type": "Feature",
            "geometry": {
                "type": "Point",
                "coordinates": [
                    -0.9877727,
                    37.5985299
                ]
            },
            "properties": {
                "name": "CRAI, Sala 3"
            }
        },
        {
            "type": "Feature",
            "geometry": {
                "type": "Point",
                "coordinates": [
                    -0.97948,
                    37.6042247
                ]
            },
            "properties": {
                "name": "Rectorado UPCT"
            }
        },
        {
            "type": "Feature",
            "geometry": {
                "type": "Point",
                "coordinates": [
                    -17.1109238,
                    28.0920248
                ]
            },
            "properties": {
                "name": "Universidad Nacional de Educaci\u00f3n a Distancia"
            }
        },
        {
            "type": "Feature",
            "geometry": {
                "type": "Point",
                "coordinates": [
                    -0.8084932,
                    37.7956019
                ]
            },
            "properties": {
                "name": "Centro Universitario de la Defensa"
            }
        },
        {
            "type": "Feature",
            "geometry": {
                "type": "Point",
                "coordinates": [
                    -16.3101065,
                    28.4836925
                ]
            },
            "properties": {
                "name": "Escuela Superior de Estudios T\u00e9cnicos de Canarias"
            }
        },
        {
            "type": "Feature",
            "geometry": {
                "type": "Point",
                "coordinates": [
                    2.1079674,
                    41.3935611
                ]
            },
            "properties": {
                "name": "IESE Business School"
            }
        },
        {
            "type": "Feature",
            "geometry": {
                "type": "Point",
                "coordinates": [
                    -0.377921,
                    39.479469
                ]
            },
            "properties": {
                "name": "Valencian International University (VIU)"
            }
        },
        {
            "type": "Feature",
            "geometry": {
                "type": "Point",
                "coordinates": [
                    -6.3415676,
                    38.5642414
                ]
            },
            "properties": {
                "name": "Universidad Popular Villafranca de los Barros"
            }
        },
        {
            "type": "Feature",
            "geometry": {
                "type": "Point",
                "coordinates": [
                    -1.8543003,
                    38.9788068
                ]
            },
            "properties": {
                "name": "Edificio Melchor de Macanaz"
            }
        },
        {
            "type": "Feature",
            "geometry": {
                "type": "Point",
                "coordinates": [
                    -1.8540133,
                    38.9771033
                ]
            },
            "properties": {
                "name": "Edificio Sim\u00f3n Abril"
            }
        },
        {
            "type": "Feature",
            "geometry": {
                "type": "Point",
                "coordinates": [
                    -1.8548608,
                    38.977589
                ]
            },
            "properties": {
                "name": "Edificio Jos\u00e9 Prat"
            }
        },
        {
            "type": "Feature",
            "geometry": {
                "type": "Point",
                "coordinates": [
                    -0.9912609,
                    37.6040274
                ]
            },
            "properties": {
                "name": "ISEN"
            }
        },
        {
            "type": "Feature",
            "geometry": {
                "type": "Point",
                "coordinates": [
                    -1.6043851,
                    42.0632388
                ]
            },
            "properties": {
                "name": "UNED"
            }
        },
        {
            "type": "Feature",
            "geometry": {
                "type": "Point",
                "coordinates": [
                    2.1218021,
                    41.3853309
                ]
            },
            "properties": {
                "name": "Facultat de Farm\u00e0cia"
            }
        },
        {
            "type": "Feature",
            "geometry": {
                "type": "Point",
                "coordinates": [
                    -5.8462893,
                    43.3614046
                ]
            },
            "properties": {
                "name": "Centro Internacional de Postgrado"
            }
        },
        {
            "type": "Feature",
            "geometry": {
                "type": "Point",
                "coordinates": [
                    -3.6906876,
                    40.4186726
                ]
            },
            "properties": {
                "name": "Instituto de Estudios Burs\u00e1tiles"
            }
        },
        {
            "type": "Feature",
            "geometry": {
                "type": "Point",
                "coordinates": [
                    -15.4166451,
                    28.0749046
                ]
            },
            "properties": {
                "name": "Facultad de Ciencias de la Salud"
            }
        },
        {
            "type": "Feature",
            "geometry": {
                "type": "Point",
                "coordinates": [
                    4.1405698,
                    39.9340903
                ]
            },
            "properties": {
                "name": "Universitat de les Illes Balears"
            }
        },
        {
            "type": "Feature",
            "geometry": {
                "type": "Point",
                "coordinates": [
                    2.1669402,
                    41.3840657
                ]
            },
            "properties": {
                "name": "Facultat de geografia i Hist\u00f2ria - UB"
            }
        },
        {
            "type": "Feature",
            "geometry": {
                "type": "Point",
                "coordinates": [
                    -1.1622537,
                    37.9292239
                ]
            },
            "properties": {
                "name": "Campus Ciencias de la Salud"
            }
        },
        {
            "type": "Feature",
            "geometry": {
                "type": "Point",
                "coordinates": [
                    -5.0754421,
                    37.5425898
                ]
            },
            "properties": {
                "name": "UNED"
            }
        },
        {
            "type": "Feature",
            "geometry": {
                "type": "Point",
                "coordinates": [
                    2.1072495,
                    41.3929607
                ]
            },
            "properties": {
                "name": "Col\u00b7legi Major Pedralbes"
            }
        },
        {
            "type": "Feature",
            "geometry": {
                "type": "Point",
                "coordinates": [
                    -0.9761978,
                    37.6083876
                ]
            },
            "properties": {
                "name": "Escuela Universitaria de Enfermer\u00eda de Cartagena"
            }
        },
        {
            "type": "Feature",
            "geometry": {
                "type": "Point",
                "coordinates": [
                    -16.3209119,
                    28.4787234
                ]
            },
            "properties": {
                "name": "Animalario"
            }
        },
        {
            "type": "Feature",
            "geometry": {
                "type": "Point",
                "coordinates": [
                    -16.3215639,
                    28.4788861
                ]
            },
            "properties": {
                "name": "Instituto Universitario de Enfermedades Tropicales"
            }
        },
        {
            "type": "Feature",
            "geometry": {
                "type": "Point",
                "coordinates": [
                    -16.3199242,
                    28.4815805
                ]
            },
            "properties": {
                "name": "Servicios Generales de Apoyo a la Investigaci\u00f3n"
            }
        },
        {
            "type": "Feature",
            "geometry": {
                "type": "Point",
                "coordinates": [
                    1.8585333,
                    42.1948678
                ]
            },
            "properties": {
                "name": "Escola Catalana d'Alta Muntanya"
            }
        },
        {
            "type": "Feature",
            "geometry": {
                "type": "Point",
                "coordinates": [
                    -8.678091,
                    42.169954
                ]
            },
            "properties": {
                "name": "Facultade de Filolox\u00eda e Traducci\u00f3n"
            }
        },
        {
            "type": "Feature",
            "geometry": {
                "type": "Point",
                "coordinates": [
                    -3.7186407,
                    40.4271892
                ]
            },
            "properties": {
                "name": "Universidad Rey Juan Carlos"
            }
        },
        {
            "type": "Feature",
            "geometry": {
                "type": "Point",
                "coordinates": [
                    -8.7365684,
                    42.2192527
                ]
            },
            "properties": {
                "name": "ESN Vigo office"
            }
        },
        {
            "type": "Feature",
            "geometry": {
                "type": "Point",
                "coordinates": [
                    -0.9926931,
                    37.6046723
                ]
            },
            "properties": {
                "name": "ISEN"
            }
        },
        {
            "type": "Feature",
            "geometry": {
                "type": "Point",
                "coordinates": [
                    -4.2720124,
                    42.7959526
                ]
            },
            "properties": {
                "name": "UNED"
            }
        },
        {
            "type": "Feature",
            "geometry": {
                "type": "Point",
                "coordinates": [
                    -3.7005742,
                    40.4352006
                ]
            },
            "properties": {
                "name": "Mississippi"
            }
        },
        {
            "type": "Feature",
            "geometry": {
                "type": "Point",
                "coordinates": [
                    -6.9693662,
                    38.8951501
                ]
            },
            "properties": {
                "name": "Escuela de Ingenier\u00edas Agrarias"
            }
        },
        {
            "type": "Feature",
            "geometry": {
                "type": "Point",
                "coordinates": [
                    1.2748738,
                    41.6709761
                ]
            },
            "properties": {
                "name": "Universitat de Barcelona"
            }
        },
        {
            "type": "Feature",
            "geometry": {
                "type": "Point",
                "coordinates": [
                    -3.9495248,
                    40.6006143
                ]
            },
            "properties": {
                "name": "Universidad Antonio de Nebrija - Campus de La Berzosa"
            }
        },
        {
            "type": "Feature",
            "geometry": {
                "type": "Point",
                "coordinates": [
                    -3.7139564,
                    40.4501865
                ]
            },
            "properties": {
                "name": "Colegio Mayor Hispano Mexicano Santiago Galas Arce"
            }
        },
        {
            "type": "Feature",
            "geometry": {
                "type": "Point",
                "coordinates": [
                    1.7333186,
                    41.2231688
                ]
            },
            "properties": {
                "name": "Universitat Oberta de Catalunya (UOC). Seu de Vilanova"
            }
        },
        {
            "type": "Feature",
            "geometry": {
                "type": "Point",
                "coordinates": [
                    -8.4215112,
                    43.3691997
                ]
            },
            "properties": {
                "name": "Normal - UDC"
            }
        },
        {
            "type": "Feature",
            "geometry": {
                "type": "Point",
                "coordinates": [
                    -3.6429177,
                    40.4399851
                ]
            },
            "properties": {
                "name": "Academia Kumon"
            }
        },
        {
            "type": "Feature",
            "geometry": {
                "type": "Point",
                "coordinates": [
                    1.7287453,
                    41.2235068
                ]
            },
            "properties": {
                "name": "CUM. Campus Universitari de la Mediterr\u00e0nia (oficines a l'IMET)"
            }
        },
        {
            "type": "Feature",
            "geometry": {
                "type": "Point",
                "coordinates": [
                    -0.689653,
                    38.2788457
                ]
            },
            "properties": {
                "name": "qu\u00f3rum III"
            }
        },
        {
            "type": "Feature",
            "geometry": {
                "type": "Point",
                "coordinates": [
                    -3.7133984,
                    40.4295548
                ]
            },
            "properties": {
                "name": "Centro de Estudios Hisp\u00e1nicos"
            }
        },
        {
            "type": "Feature",
            "geometry": {
                "type": "Point",
                "coordinates": [
                    -3.7138693,
                    40.4291063
                ]
            },
            "properties": {
                "name": "Universidad Nebrija - Campus de Madrid-Princesa"
            }
        },
        {
            "type": "Feature",
            "geometry": {
                "type": "Point",
                "coordinates": [
                    -0.4304687,
                    39.1469517
                ]
            },
            "properties": {
                "name": "UNED Sede de Alzira"
            }
        },
        {
            "type": "Feature",
            "geometry": {
                "type": "Point",
                "coordinates": [
                    -0.5209476,
                    38.9866476
                ]
            },
            "properties": {
                "name": "UNED Xativa"
            }
        },
        {
            "type": "Feature",
            "geometry": {
                "type": "Point",
                "coordinates": [
                    -2.9385576,
                    43.2712452
                ]
            },
            "properties": {
                "name": "Universidad de Deusto"
            }
        },
        {
            "type": "Feature",
            "geometry": {
                "type": "Point",
                "coordinates": [
                    2.1488866,
                    41.38039
                ]
            },
            "properties": {
                "name": "EAE Bussines School"
            }
        },
        {
            "type": "Feature",
            "geometry": {
                "type": "Point",
                "coordinates": [
                    -7.5939394,
                    43.6635333
                ]
            },
            "properties": {
                "name": "UNED"
            }
        },
        {
            "type": "Feature",
            "geometry": {
                "type": "Point",
                "coordinates": [
                    -16.244028,
                    28.4798671
                ]
            },
            "properties": {
                "name": "Escuela Universitaria de Turismo"
            }
        },
        {
            "type": "Feature",
            "geometry": {
                "type": "Point",
                "coordinates": [
                    -5.9917702,
                    37.3809617
                ]
            },
            "properties": {
                "name": "Facultad Geograf\u00eda e Historia"
            }
        },
        {
            "type": "Feature",
            "geometry": {
                "type": "Point",
                "coordinates": [
                    2.8293819,
                    41.9636659
                ]
            },
            "properties": {
                "name": "CONSELL D'ESTUDIANTS DE LA UNIVERSITAT DE GIRONA"
            }
        },
        {
            "type": "Feature",
            "geometry": {
                "type": "Point",
                "coordinates": [
                    2.8231768,
                    41.9745421
                ]
            },
            "properties": {
                "name": "Facultat d'Infermeria - UdG"
            }
        },
        {
            "type": "Feature",
            "geometry": {
                "type": "Point",
                "coordinates": [
                    2.8278504,
                    41.9851452
                ]
            },
            "properties": {
                "name": "FACULTAT DE TURISME"
            }
        },
        {
            "type": "Feature",
            "geometry": {
                "type": "Point",
                "coordinates": [
                    2.8279345,
                    41.9850359
                ]
            },
            "properties": {
                "name": "UdG FACULTAT DE LLETRES"
            }
        },
        {
            "type": "Feature",
            "geometry": {
                "type": "Point",
                "coordinates": [
                    2.8273167,
                    41.9859319
                ]
            },
            "properties": {
                "name": "UdG RECTORAT"
            }
        },
        {
            "type": "Feature",
            "geometry": {
                "type": "Point",
                "coordinates": [
                    2.8274036,
                    41.9853007
                ]
            },
            "properties": {
                "name": "UdG EDIFICI SEMINARI MENOR"
            }
        },
        {
            "type": "Feature",
            "geometry": {
                "type": "Point",
                "coordinates": [
                    2.8273496,
                    41.9855145
                ]
            },
            "properties": {
                "name": "UdG FACULTAT D'EDUCACI\u00d3 I PSICOLOGIA"
            }
        },
        {
            "type": "Feature",
            "geometry": {
                "type": "Point",
                "coordinates": [
                    2.8371776,
                    41.9671135
                ]
            },
            "properties": {
                "name": "UdG FUNDACI\u00d3 UNIVERSITAT DE GIRONA"
            }
        },
        {
            "type": "Feature",
            "geometry": {
                "type": "Point",
                "coordinates": [
                    2.8240808,
                    41.9744525
                ]
            },
            "properties": {
                "name": "Facultat de Medicina - UdG"
            }
        },
        {
            "type": "Feature",
            "geometry": {
                "type": "Point",
                "coordinates": [
                    2.82962,
                    41.9644931
                ]
            },
            "properties": {
                "name": "ESCOLA POLIT\u00c8CNICA SUPERIOR - UDG"
            }
        },
        {
            "type": "Feature",
            "geometry": {
                "type": "Point",
                "coordinates": [
                    2.8285019,
                    41.9634075
                ]
            },
            "properties": {
                "name": "CENTRE D'INFORMACI\u00d3 I ASSESSORAMENT DELS ESTUDIANTS UDG"
            }
        },
        {
            "type": "Feature",
            "geometry": {
                "type": "Point",
                "coordinates": [
                    2.8365829,
                    41.967511
                ]
            },
            "properties": {
                "name": "PARC CIENT\u00cdFIC I TECNOL\u00d2GIC UNIVERSITAT DE GIRONA"
            }
        },
        {
            "type": "Feature",
            "geometry": {
                "type": "Point",
                "coordinates": [
                    2.8213914,
                    41.9810292
                ]
            },
            "properties": {
                "name": "Aules d'Extensi\u00f3 Universit\u00e0ria"
            }
        },
        {
            "type": "Feature",
            "geometry": {
                "type": "Point",
                "coordinates": [
                    -0.3743129,
                    39.4766625
                ]
            },
            "properties": {
                "name": "Universidad CEU-UCH - Palacio de Colomina"
            }
        },
        {
            "type": "Feature",
            "geometry": {
                "type": "Point",
                "coordinates": [
                    -0.373099,
                    39.4771679
                ]
            },
            "properties": {
                "name": "Facultad de Teolog\u00eda San Vicente Ferrer"
            }
        },
        {
            "type": "Feature",
            "geometry": {
                "type": "Point",
                "coordinates": [
                    -3.360158,
                    40.4815107
                ]
            },
            "properties": {
                "name": "Aula de M\u00fasica"
            }
        },
        {
            "type": "Feature",
            "geometry": {
                "type": "Point",
                "coordinates": [
                    -8.7013586,
                    42.2466091
                ]
            },
            "properties": {
                "name": "Big Ben English Centre"
            }
        },
        {
            "type": "Feature",
            "geometry": {
                "type": "Point",
                "coordinates": [
                    4.2669042,
                    39.889017
                ]
            },
            "properties": {
                "name": "Universidad Nacional de Educaci\u00f3n a Distancia"
            }
        },
        {
            "type": "Feature",
            "geometry": {
                "type": "Point",
                "coordinates": [
                    -3.7143083,
                    40.428739
                ]
            },
            "properties": {
                "name": "Instituto Universitario General Guti\u00e9rrez Mellado (UNED)"
            }
        },
        {
            "type": "Feature",
            "geometry": {
                "type": "Point",
                "coordinates": [
                    -3.6037186,
                    37.181112
                ]
            },
            "properties": {
                "name": "IEMath-Granada"
            }
        },
        {
            "type": "Feature",
            "geometry": {
                "type": "Point",
                "coordinates": [
                    -3.7247236,
                    40.4433088
                ]
            },
            "properties": {
                "name": "Facultad de Enfermer\u00eda, Fisioterapia y Podolog\u00eda"
            }
        },
        {
            "type": "Feature",
            "geometry": {
                "type": "Point",
                "coordinates": [
                    -4.7405095,
                    41.6499517
                ]
            },
            "properties": {
                "name": "Instituto Universitario de Urban\u00edstica"
            }
        },
        {
            "type": "Feature",
            "geometry": {
                "type": "Point",
                "coordinates": [
                    2.1428658,
                    41.4382119
                ]
            },
            "properties": {
                "name": "Facultat de Psicologia"
            }
        },
        {
            "type": "Feature",
            "geometry": {
                "type": "Point",
                "coordinates": [
                    2.1449202,
                    41.437684
                ]
            },
            "properties": {
                "name": "Facultat d'Educaci\u00f3"
            }
        },
        {
            "type": "Feature",
            "geometry": {
                "type": "Point",
                "coordinates": [
                    -0.8324987,
                    41.756857
                ]
            },
            "properties": {
                "name": "Escuela de Arquitectura y Tecnolog\u00eda"
            }
        },
        {
            "type": "Feature",
            "geometry": {
                "type": "Point",
                "coordinates": [
                    0.1286167,
                    42.0390111
                ]
            },
            "properties": {
                "name": "Colegio Pedro Primero"
            }
        },
        {
            "type": "Feature",
            "geometry": {
                "type": "Point",
                "coordinates": [
                    2.8229958,
                    41.9743876
                ]
            },
            "properties": {
                "name": "Universitat de Girona"
            }
        },
        {
            "type": "Feature",
            "geometry": {
                "type": "Point",
                "coordinates": [
                    -3.6042577,
                    37.1860759
                ]
            },
            "properties": {
                "name": "Facultad antigua de medicina"
            }
        },
        {
            "type": "Feature",
            "geometry": {
                "type": "Point",
                "coordinates": [
                    -6.6560917,
                    38.1661933
                ]
            },
            "properties": {
                "name": "Universidad Popular"
            }
        },
        {
            "type": "Feature",
            "geometry": {
                "type": "Point",
                "coordinates": [
                    -15.4514029,
                    28.073351
                ]
            },
            "properties": {
                "name": "Edificio de Inform\u00e1tica y matem\u00e1ticas"
            }
        },
        {
            "type": "Feature",
            "geometry": {
                "type": "Point",
                "coordinates": [
                    -2.9427516,
                    35.2944887
                ]
            },
            "properties": {
                "name": "Universidad Nacional de Educaci\u00f3n a Distancia (UNED) - Centro de Melilla"
            }
        },
        {
            "type": "Feature",
            "geometry": {
                "type": "Point",
                "coordinates": [
                    -4.1503763,
                    40.5887225
                ]
            },
            "properties": {
                "name": "Real Centro Universitario Escorial - Mar\u00eda Cristina (UCM)"
            }
        },
        {
            "type": "Feature",
            "geometry": {
                "type": "Point",
                "coordinates": [
                    2.2223539,
                    41.4135669
                ]
            },
            "properties": {
                "name": "Escola d'Enginyeria de Barcelona Est"
            }
        },
        {
            "type": "Feature",
            "geometry": {
                "type": "Point",
                "coordinates": [
                    -16.3208461,
                    28.4818431
                ]
            },
            "properties": {
                "name": "Facultad de Ciencias"
            }
        },
        {
            "type": "Feature",
            "geometry": {
                "type": "Point",
                "coordinates": [
                    -4.7285293,
                    41.6442349
                ]
            },
            "properties": {
                "name": "Universidad Isabel I"
            }
        },
        {
            "type": "Feature",
            "geometry": {
                "type": "Point",
                "coordinates": [
                    -3.8395522,
                    40.4057359
                ]
            },
            "properties": {
                "name": "Bloque IV"
            }
        },
        {
            "type": "Feature",
            "geometry": {
                "type": "Point",
                "coordinates": [
                    -3.8393958,
                    40.4050574
                ]
            },
            "properties": {
                "name": "Bloque I"
            }
        },
        {
            "type": "Feature",
            "geometry": {
                "type": "Point",
                "coordinates": [
                    -3.8398708,
                    40.405529
                ]
            },
            "properties": {
                "name": "Bloque III"
            }
        },
        {
            "type": "Feature",
            "geometry": {
                "type": "Point",
                "coordinates": [
                    -3.8386236,
                    40.4060604
                ]
            },
            "properties": {
                "name": "Bloque V"
            }
        },
        {
            "type": "Feature",
            "geometry": {
                "type": "Point",
                "coordinates": [
                    -5.6072065,
                    43.5240386
                ]
            },
            "properties": {
                "name": "Escuela Universitaria de Enfermer\u00eda"
            }
        },
        {
            "type": "Feature",
            "geometry": {
                "type": "Point",
                "coordinates": [
                    -5.6286599,
                    43.5231538
                ]
            },
            "properties": {
                "name": "Edificios Departamental Oeste"
            }
        },
        {
            "type": "Feature",
            "geometry": {
                "type": "Point",
                "coordinates": [
                    -5.6249217,
                    43.5229485
                ]
            },
            "properties": {
                "name": "Aulario Sur"
            }
        },
        {
            "type": "Feature",
            "geometry": {
                "type": "Point",
                "coordinates": [
                    -5.6254579,
                    43.5239976
                ]
            },
            "properties": {
                "name": "Aulario Norte"
            }
        },
        {
            "type": "Feature",
            "geometry": {
                "type": "Point",
                "coordinates": [
                    -5.6290636,
                    43.5262641
                ]
            },
            "properties": {
                "name": "Escuela Superior de Marina Civil"
            }
        },
        {
            "type": "Feature",
            "geometry": {
                "type": "Point",
                "coordinates": [
                    -3.7904468,
                    43.4629976
                ]
            }
        },
        {
            "type": "Feature",
            "geometry": {
                "type": "Point",
                "coordinates": [
                    2.1134574,
                    41.3889368
                ]
            },
            "properties": {
                "name": "UPC Campus Nord"
            }
        },
        {
            "type": "Feature",
            "geometry": {
                "type": "Point",
                "coordinates": [
                    -3.7114549,
                    40.4295748
                ]
            },
            "properties": {
                "name": "Universidad Pontificia Comillas - ICADE"
            }
        },
        {
            "type": "Feature",
            "geometry": {
                "type": "Point",
                "coordinates": [
                    2.1636166,
                    41.3868601
                ]
            },
            "properties": {
                "name": "Universitat de Barcelona"
            }
        },
        {
            "type": "Feature",
            "geometry": {
                "type": "Point",
                "coordinates": [
                    -0.3590868,
                    39.4798643
                ]
            },
            "properties": {
                "name": "Campus esportiu de la Universitat de Val\u00e8ncia"
            }
        },
        {
            "type": "Feature",
            "geometry": {
                "type": "Point",
                "coordinates": [
                    -5.8718042,
                    43.3561696
                ]
            },
            "properties": {
                "name": "Facultad de Estomatolog\u00eda"
            }
        },
        {
            "type": "Feature",
            "geometry": {
                "type": "Point",
                "coordinates": [
                    -5.8705304,
                    43.355349
                ]
            },
            "properties": {
                "name": "Facultad de Qu\u00edmica"
            }
        },
        {
            "type": "Feature",
            "geometry": {
                "type": "Point",
                "coordinates": [
                    -5.8698982,
                    43.3555141
                ]
            },
            "properties": {
                "name": "Facultad de Qu\u00edmica"
            }
        },
        {
            "type": "Feature",
            "geometry": {
                "type": "Point",
                "coordinates": [
                    -5.8405013,
                    43.3686773
                ]
            }
        },
        {
            "type": "Feature",
            "geometry": {
                "type": "Point",
                "coordinates": [
                    -5.8413619,
                    43.3681079
                ]
            }
        },
        {
            "type": "Feature",
            "geometry": {
                "type": "Point",
                "coordinates": [
                    -5.634575,
                    43.5242542
                ]
            },
            "properties": {
                "name": "Edificio Polivalente"
            }
        },
        {
            "type": "Feature",
            "geometry": {
                "type": "Point",
                "coordinates": [
                    -3.728197,
                    40.442049
                ]
            },
            "properties": {
                "name": "ETSI Agr\u00f3nomos"
            }
        },
        {
            "type": "Feature",
            "geometry": {
                "type": "Point",
                "coordinates": [
                    -3.7259546,
                    40.4489638
                ]
            },
            "properties": {
                "name": "Facultad de Ciencias Biol\u00f3gicas y Ciencias Geol\u00f3gicas"
            }
        },
        {
            "type": "Feature",
            "geometry": {
                "type": "Point",
                "coordinates": [
                    -3.7263201,
                    40.4453376
                ]
            },
            "properties": {
                "name": "Facultad de Farmacia"
            }
        },
        {
            "type": "Feature",
            "geometry": {
                "type": "Point",
                "coordinates": [
                    -3.7240836,
                    40.4439292
                ]
            },
            "properties": {
                "name": "Facultad de Medicina"
            }
        },
        {
            "type": "Feature",
            "geometry": {
                "type": "Point",
                "coordinates": [
                    -3.7258073,
                    40.4423726
                ]
            },
            "properties": {
                "name": "Facultad de Odontolog\u00eda"
            }
        },
        {
            "type": "Feature",
            "geometry": {
                "type": "Point",
                "coordinates": [
                    -3.7304814,
                    40.4487412
                ]
            },
            "properties": {
                "name": "Facultad de Filolog\u00eda y Filosof\u00eda"
            }
        },
        {
            "type": "Feature",
            "geometry": {
                "type": "Point",
                "coordinates": [
                    -3.7246192,
                    40.4502392
                ]
            },
            "properties": {
                "name": "Facultad de Ciencias Qu\u00edmicas"
            }
        },
        {
            "type": "Feature",
            "geometry": {
                "type": "Point",
                "coordinates": [
                    -3.7310792,
                    40.4520663
                ]
            },
            "properties": {
                "name": "Centro de Estudios Jur\u00eddicos"
            }
        },
        {
            "type": "Feature",
            "geometry": {
                "type": "Point",
                "coordinates": [
                    -3.7235835,
                    40.4484641
                ]
            },
            "properties": {
                "name": "E.U.I.T. Forestales"
            }
        },
        {
            "type": "Feature",
            "geometry": {
                "type": "Point",
                "coordinates": [
                    -3.7249462,
                    40.440597
                ]
            },
            "properties": {
                "name": "E.T.S.I. Aeron\u00e1uticos"
            }
        },
        {
            "type": "Feature",
            "geometry": {
                "type": "Point",
                "coordinates": [
                    -3.7240105,
                    40.4404187
                ]
            },
            "properties": {
                "name": "E.U.I.T. Aeron\u00e1utica"
            }
        },
        {
            "type": "Feature",
            "geometry": {
                "type": "Point",
                "coordinates": [
                    -3.7238137,
                    40.4393288
                ]
            },
            "properties": {
                "name": "E.T.S.I. Navales"
            }
        },
        {
            "type": "Feature",
            "geometry": {
                "type": "Point",
                "coordinates": [
                    -3.6908481,
                    40.4825559
                ]
            },
            "properties": {
                "name": "Facultad de Medicina de la Universidad Aut\u00f3noma de Madrid"
            }
        },
        {
            "type": "Feature",
            "geometry": {
                "type": "Point",
                "coordinates": [
                    -3.7322055,
                    40.4392075
                ]
            },
            "properties": {
                "name": "Escuela T\u00e9cnica Superior de Edificaci\u00f3n"
            }
        },
        {
            "type": "Feature",
            "geometry": {
                "type": "Point",
                "coordinates": [
                    -3.7311626,
                    40.440095
                ]
            },
            "properties": {
                "name": "E.T.S. Arquitectura de Madrid"
            }
        },
        {
            "type": "Feature",
            "geometry": {
                "type": "Point",
                "coordinates": [
                    -3.7335081,
                    40.441155
                ]
            },
            "properties": {
                "name": "Facultad de Bellas Artes"
            }
        },
        {
            "type": "Feature",
            "geometry": {
                "type": "Point",
                "coordinates": [
                    -0.5141951,
                    38.3849307
                ]
            },
            "properties": {
                "name": "Universidad de Alicante (Campus de San Vicente)"
            }
        },
        {
            "type": "Feature",
            "geometry": {
                "type": "Point",
                "coordinates": [
                    -0.4363055,
                    38.3885882
                ]
            },
            "properties": {
                "name": "UMH - Universitat Miguel Hern\u00e1ndez - Campus de Sant Joan d'Alacant"
            }
        },
        {
            "type": "Feature",
            "geometry": {
                "type": "Point",
                "coordinates": [
                    1.9857872,
                    41.2750401
                ]
            },
            "properties": {
                "name": "Parc Mediterrani de la Tecnologia"
            }
        },
        {
            "type": "Feature",
            "geometry": {
                "type": "Point",
                "coordinates": [
                    -0.487079,
                    38.3416092
                ]
            },
            "properties": {
                "name": "Sede de la Universidad de Alicante"
            }
        },
        {
            "type": "Feature",
            "geometry": {
                "type": "Point",
                "coordinates": [
                    -0.511836,
                    38.3808278
                ]
            },
            "properties": {
                "name": "M.U.A."
            }
        },
        {
            "type": "Feature",
            "geometry": {
                "type": "Point",
                "coordinates": [
                    -0.4931794,
                    38.3529769
                ]
            },
            "properties": {
                "name": "Conservatorio Superior de M\u00fasica \"\u00d3scar Espl\u00e1\""
            }
        },
        {
            "type": "Feature",
            "geometry": {
                "type": "Point",
                "coordinates": [
                    -0.5122667,
                    38.3822661
                ]
            },
            "properties": {
                "name": "Germ\u00e1n Bern\u00e1cer (E.U. de C. Empresariales)"
            }
        },
        {
            "type": "Feature",
            "geometry": {
                "type": "Point",
                "coordinates": [
                    -0.5104639,
                    38.3843774
                ]
            },
            "properties": {
                "name": "Aulario II"
            }
        },
        {
            "type": "Feature",
            "geometry": {
                "type": "Point",
                "coordinates": [
                    -0.5082222,
                    38.3818933
                ]
            },
            "properties": {
                "name": "Aulario III"
            }
        },
        {
            "type": "Feature",
            "geometry": {
                "type": "Point",
                "coordinates": [
                    -0.5131988,
                    38.3847059
                ]
            },
            "properties": {
                "name": "Torre de control"
            }
        },
        {
            "type": "Feature",
            "geometry": {
                "type": "Point",
                "coordinates": [
                    -0.5127308,
                    38.3857746
                ]
            },
            "properties": {
                "name": "Pabell\u00f3n Jorge Juan"
            }
        },
        {
            "type": "Feature",
            "geometry": {
                "type": "Point",
                "coordinates": [
                    -0.5128096,
                    38.3859723
                ]
            },
            "properties": {
                "name": "Facultad de Educaci\u00f3n II"
            }
        },
        {
            "type": "Feature",
            "geometry": {
                "type": "Point",
                "coordinates": [
                    -0.5135012,
                    38.3857693
                ]
            },
            "properties": {
                "name": "Pabell\u00f3n de Alumnado"
            }
        },
        {
            "type": "Feature",
            "geometry": {
                "type": "Point",
                "coordinates": [
                    -0.511405,
                    38.3868471
                ]
            },
            "properties": {
                "name": "EPS I. Ingenier\u00eda civil"
            }
        },
        {
            "type": "Feature",
            "geometry": {
                "type": "Point",
                "coordinates": [
                    -0.5122032,
                    38.386785
                ]
            },
            "properties": {
                "name": "EPS III"
            }
        },
        {
            "type": "Feature",
            "geometry": {
                "type": "Point",
                "coordinates": [
                    -0.5126185,
                    38.3876056
                ]
            },
            "properties": {
                "name": "EPS II"
            }
        },
        {
            "type": "Feature",
            "geometry": {
                "type": "Point",
                "coordinates": [
                    -0.5133636,
                    38.3873757
                ]
            },
            "properties": {
                "name": "Rectorado y Servicios Generales"
            }
        },
        {
            "type": "Feature",
            "geometry": {
                "type": "Point",
                "coordinates": [
                    -0.5130518,
                    38.3865294
                ]
            },
            "properties": {
                "name": "Pabell\u00f3n Universitario 13"
            }
        },
        {
            "type": "Feature",
            "geometry": {
                "type": "Point",
                "coordinates": [
                    -0.5137658,
                    38.3863587
                ]
            },
            "properties": {
                "name": "Pabell\u00f3n Universitario 12"
            }
        },
        {
            "type": "Feature",
            "geometry": {
                "type": "Point",
                "coordinates": [
                    -0.513437,
                    38.3880341
                ]
            },
            "properties": {
                "name": "Servicio de Inform\u00e1tica"
            }
        },
        {
            "type": "Feature",
            "geometry": {
                "type": "Point",
                "coordinates": [
                    -0.5140899,
                    38.3872094
                ]
            },
            "properties": {
                "name": "Pabell\u00f3n de Biotecnolog\u00eda"
            }
        },
        {
            "type": "Feature",
            "geometry": {
                "type": "Point",
                "coordinates": [
                    -0.5144656,
                    38.3878018
                ]
            },
            "properties": {
                "name": "Ciencias - Fase III"
            }
        },
        {
            "type": "Feature",
            "geometry": {
                "type": "Point",
                "coordinates": [
                    -0.5139508,
                    38.3879296
                ]
            },
            "properties": {
                "name": "Ciencias - Fase IV"
            }
        },
        {
            "type": "Feature",
            "geometry": {
                "type": "Point",
                "coordinates": [
                    -0.514975,
                    38.3871998
                ]
            },
            "properties": {
                "name": "Ciencias - Fase I"
            }
        },
        {
            "type": "Feature",
            "geometry": {
                "type": "Point",
                "coordinates": [
                    -0.5144445,
                    38.3861056
                ]
            },
            "properties": {
                "name": "Facultad Filosof\u00eda y Letras I"
            }
        },
        {
            "type": "Feature",
            "geometry": {
                "type": "Point",
                "coordinates": [
                    -0.5145511,
                    38.385379
                ]
            },
            "properties": {
                "name": "Facultad Filosof\u00eda y Letras II"
            }
        },
        {
            "type": "Feature",
            "geometry": {
                "type": "Point",
                "coordinates": [
                    -0.5153799,
                    38.385016
                ]
            },
            "properties": {
                "name": "Facultad Filosof\u00eda y Letras III"
            }
        },
        {
            "type": "Feature",
            "geometry": {
                "type": "Point",
                "coordinates": [
                    -0.5146481,
                    38.3838888
                ]
            },
            "properties": {
                "name": "E.U. Enfermer\u00eda"
            }
        },
        {
            "type": "Feature",
            "geometry": {
                "type": "Point",
                "coordinates": [
                    -0.5098272,
                    38.3828578
                ]
            },
            "properties": {
                "name": "EPS IV"
            }
        },
        {
            "type": "Feature",
            "geometry": {
                "type": "Point",
                "coordinates": [
                    -0.518062,
                    38.3871733
                ]
            },
            "properties": {
                "name": "Centro de Tecnolog\u00eda Qu\u00edmica"
            }
        },
        {
            "type": "Feature",
            "geometry": {
                "type": "Point",
                "coordinates": [
                    -0.518059,
                    38.3875359
                ]
            },
            "properties": {
                "name": "Centro de Tecnolog\u00eda Qu\u00edmica (anexo) - Plantas Piloto"
            }
        },
        {
            "type": "Feature",
            "geometry": {
                "type": "Point",
                "coordinates": [
                    -3.8386344,
                    40.4062031
                ]
            },
            "properties": {
                "name": "Bloque VI"
            }
        },
        {
            "type": "Feature",
            "geometry": {
                "type": "Point",
                "coordinates": [
                    -0.3729113,
                    39.4719232
                ]
            },
            "properties": {
                "name": "Universitat de Val\u00e8ncia"
            }
        },
        {
            "type": "Feature",
            "geometry": {
                "type": "Point",
                "coordinates": [
                    -3.7910566,
                    40.4317042
                ]
            },
            "properties": {
                "name": "Universidad Complutese de Madrid -Campus de Somosaguas"
            }
        },
        {
            "type": "Feature",
            "geometry": {
                "type": "Point",
                "coordinates": [
                    -0.8596711,
                    41.634748
                ]
            },
            "properties": {
                "name": "Facultad de Veterinaria"
            }
        },
        {
            "type": "Feature",
            "geometry": {
                "type": "Point",
                "coordinates": [
                    -3.8013784,
                    40.4368901
                ]
            },
            "properties": {
                "name": "ESIC"
            }
        },
        {
            "type": "Feature",
            "geometry": {
                "type": "Point",
                "coordinates": [
                    -0.8992533,
                    41.642752
                ]
            },
            "properties": {
                "name": "Edificio de Matem\u00e1ticas"
            }
        },
        {
            "type": "Feature",
            "geometry": {
                "type": "Point",
                "coordinates": [
                    -0.9008785,
                    41.6406447
                ]
            },
            "properties": {
                "name": "Colegio Mayor Universitario Santa Isabel"
            }
        },
        {
            "type": "Feature",
            "geometry": {
                "type": "Point",
                "coordinates": [
                    -0.8984195,
                    41.6399304
                ]
            },
            "properties": {
                "name": "Residencia de profesores"
            }
        },
        {
            "type": "Feature",
            "geometry": {
                "type": "Point",
                "coordinates": [
                    -0.9002294,
                    41.640536
                ]
            },
            "properties": {
                "name": "Instituto de Ciencias de la Educaci\u00f3n"
            }
        },
        {
            "type": "Feature",
            "geometry": {
                "type": "Point",
                "coordinates": [
                    -0.9006019,
                    41.6413106
                ]
            },
            "properties": {
                "name": "Facultad de Educaci\u00f3n"
            }
        },
        {
            "type": "Feature",
            "geometry": {
                "type": "Point",
                "coordinates": [
                    -0.8976834,
                    41.6419204
                ]
            },
            "properties": {
                "name": "Servicios Centrales (SICUZ)"
            }
        },
        {
            "type": "Feature",
            "geometry": {
                "type": "Point",
                "coordinates": [
                    -2.4786189,
                    43.1833751
                ]
            },
            "properties": {
                "name": "Udako Euskal Unibertsitatea"
            }
        },
        {
            "type": "Feature",
            "geometry": {
                "type": "Point",
                "coordinates": [
                    -1.9758983,
                    43.3094936
                ]
            },
            "properties": {
                "name": "Universidad de Deusto"
            }
        },
        {
            "type": "Feature",
            "geometry": {
                "type": "Point",
                "coordinates": [
                    -2.0114604,
                    43.3064657
                ]
            },
            "properties": {
                "name": "Zuzenbide Fakultatea"
            }
        },
        {
            "type": "Feature",
            "geometry": {
                "type": "Point",
                "coordinates": [
                    -0.9052623,
                    41.6428186
                ]
            },
            "properties": {
                "name": "Facultad de Ciencias de la Salud"
            }
        },
        {
            "type": "Feature",
            "geometry": {
                "type": "Point",
                "coordinates": [
                    -0.9029799,
                    41.6421009
                ]
            },
            "properties": {
                "name": "Facultad de Medicina - Edificio A"
            }
        },
        {
            "type": "Feature",
            "geometry": {
                "type": "Point",
                "coordinates": [
                    -3.5966159,
                    37.194958
                ]
            },
            "properties": {
                "name": "Facultad de Farmacia"
            }
        },
        {
            "type": "Feature",
            "geometry": {
                "type": "Point",
                "coordinates": [
                    -1.6317883,
                    42.7954958
                ]
            },
            "properties": {
                "name": "Universidad P\u00fablica de Navarra"
            }
        },
        {
            "type": "Feature",
            "geometry": {
                "type": "Point",
                "coordinates": [
                    -0.8974838,
                    41.6439971
                ]
            },
            "properties": {
                "name": "Edificio Cervantes"
            }
        },
        {
            "type": "Feature",
            "geometry": {
                "type": "Point",
                "coordinates": [
                    -3.7580317,
                    40.4515589
                ]
            },
            "properties": {
                "name": "IESE"
            }
        },
        {
            "type": "Feature",
            "geometry": {
                "type": "Point",
                "coordinates": [
                    -0.3885613,
                    39.5508982
                ]
            },
            "properties": {
                "name": "Universitat CEU Cardenal Herrera"
            }
        },
        {
            "type": "Feature",
            "geometry": {
                "type": "Point",
                "coordinates": [
                    -3.9850027,
                    40.4542765
                ]
            },
            "properties": {
                "name": "Universidad Alfonso X El Sabio"
            }
        },
        {
            "type": "Feature",
            "geometry": {
                "type": "Point",
                "coordinates": [
                    -2.9665288,
                    43.330989
                ]
            },
            "properties": {
                "name": "Universidad del Pa\u00eds Vasco - Campus de Leioa"
            }
        },
        {
            "type": "Feature",
            "geometry": {
                "type": "Point",
                "coordinates": [
                    -0.4361013,
                    38.3888364
                ]
            },
            "properties": {
                "name": "Institut de Neuroc\u00e8ncies - C.E.S.I.F.-U.M.H."
            }
        },
        {
            "type": "Feature",
            "geometry": {
                "type": "Point",
                "coordinates": [
                    -0.4354765,
                    38.3872224
                ]
            },
            "properties": {
                "name": "Facultat de Farm\u00e0cia - Universitat Miguel Hern\u00e1ndez d'Elx"
            }
        },
        {
            "type": "Feature",
            "geometry": {
                "type": "Point",
                "coordinates": [
                    -0.43669,
                    38.3891625
                ]
            },
            "properties": {
                "name": "Facultat de Medicina - Universitat Miguel Hern\u00e1ndez"
            }
        },
        {
            "type": "Feature",
            "geometry": {
                "type": "Point",
                "coordinates": [
                    -0.4356079,
                    38.3899986
                ]
            },
            "properties": {
                "name": "Edifici de departaments - Universitat Miguel Hern\u00e1ndez"
            }
        },
        {
            "type": "Feature",
            "geometry": {
                "type": "Point",
                "coordinates": [
                    -3.7978247,
                    43.4719792
                ]
            },
            "properties": {
                "name": "Escuela de Ingenieros de Caminos, Canales y Puertos"
            }
        },
        {
            "type": "Feature",
            "geometry": {
                "type": "Point",
                "coordinates": [
                    -3.805708,
                    43.4640658
                ]
            },
            "properties": {
                "name": "Paraninfo de la Universidad de Cantabria"
            }
        },
        {
            "type": "Feature",
            "geometry": {
                "type": "Point",
                "coordinates": [
                    2.0234841,
                    41.5685455
                ]
            },
            "properties": {
                "name": "FOOT - Facultat d'\u00d2ptica i Optometria de Terrassa"
            }
        },
        {
            "type": "Feature",
            "geometry": {
                "type": "Point",
                "coordinates": [
                    -5.5616309,
                    42.6144245
                ]
            },
            "properties": {
                "name": "Escuela de Ingenier\u00edas Industrial e Inform\u00e1tica"
            }
        },
        {
            "type": "Feature",
            "geometry": {
                "type": "Point",
                "coordinates": [
                    -5.5608188,
                    42.6126286
                ]
            },
            "properties": {
                "name": "Facultad de Ciencias de la Salud"
            }
        },
        {
            "type": "Feature",
            "geometry": {
                "type": "Point",
                "coordinates": [
                    -5.5604544,
                    42.6135095
                ]
            },
            "properties": {
                "name": "Facultad de Minas"
            }
        },
        {
            "type": "Feature",
            "geometry": {
                "type": "Point",
                "coordinates": [
                    -5.559487,
                    42.612414
                ]
            },
            "properties": {
                "name": "Facultad de Filosof\u00eda y Letras"
            }
        },
        {
            "type": "Feature",
            "geometry": {
                "type": "Point",
                "coordinates": [
                    -5.5590376,
                    42.6137162
                ]
            },
            "properties": {
                "name": "Facultad de Derecho"
            }
        },
        {
            "type": "Feature",
            "geometry": {
                "type": "Point",
                "coordinates": [
                    -5.5583182,
                    42.6119843
                ]
            },
            "properties": {
                "name": "Facultad de Ciencias Biol\u00f3gicas y Ambientales"
            }
        },
        {
            "type": "Feature",
            "geometry": {
                "type": "Point",
                "coordinates": [
                    -5.5576906,
                    42.613313
                ]
            },
            "properties": {
                "name": "Facultad de Veterinaria"
            }
        },
        {
            "type": "Feature",
            "geometry": {
                "type": "Point",
                "coordinates": [
                    -5.5592311,
                    42.6151917
                ]
            },
            "properties": {
                "name": "Facultad de Ciencias de la Actividad F\u00edsica y del Deporte"
            }
        },
        {
            "type": "Feature",
            "geometry": {
                "type": "Point",
                "coordinates": [
                    -5.5717904,
                    42.5918312
                ]
            },
            "properties": {
                "name": "Instituto Confucio"
            }
        },
        {
            "type": "Feature",
            "geometry": {
                "type": "Point",
                "coordinates": [
                    -5.5889658,
                    42.5837392
                ]
            },
            "properties": {
                "name": "Escuela de Ingenier\u00eda Agraria y Forestal"
            }
        },
        {
            "type": "Feature",
            "geometry": {
                "type": "Point",
                "coordinates": [
                    -2.4674514,
                    36.8394549
                ]
            },
            "properties": {
                "name": "Universidad Nacional de Educaci\u00f3n a Distancia"
            }
        },
        {
            "type": "Feature",
            "geometry": {
                "type": "Point",
                "coordinates": [
                    -2.4136719,
                    43.1176248
                ]
            },
            "properties": {
                "name": "UNED Bergara"
            }
        },
        {
            "type": "Feature",
            "geometry": {
                "type": "Point",
                "coordinates": [
                    -0.8986553,
                    41.6423974
                ]
            },
            "properties": {
                "name": "Interfacultades II"
            }
        },
        {
            "type": "Feature",
            "geometry": {
                "type": "Point",
                "coordinates": [
                    -4.1439777,
                    40.5900227
                ]
            },
            "properties": {
                "name": "La Casa de los Infantes"
            }
        },
        {
            "type": "Feature",
            "geometry": {
                "type": "Point",
                "coordinates": [
                    -3.7654245,
                    40.3327946
                ]
            },