{
    "type": "FeatureCollection",
    "features": [
        {
            "type": "Feature",
            "geometry": {
                "type": "Point",
                "coordinates": [
                    16.3491414,
                    48.2263158
                ]
            },
            "properties": {
                "name": "FHWien"
            }
        },
        {
            "type": "Feature",
            "geometry": {
                "type": "Point",
                "coordinates": [
                    13.0498139,
                    47.7966676
                ]
            },
            "properties": {
                "name": "\u00d6H \u00d6sterreichische Hochsch\u00fclerschaft"
            }
        },
        {
            "type": "Feature",
            "geometry": {
                "type": "Point",
                "coordinates": [
                    14.2999043,
                    46.6264408
                ]
            },
            "properties": {
                "name": "IFF"
            }
        },
        {
            "type": "Feature",
            "geometry": {
                "type": "Point",
                "coordinates": [
                    14.2856183,
                    48.3066036
                ]
            },
            "properties": {
                "name": "Kunstuni Linz - Universit\u00e4t f\u00fcr k\u00fcnstlerische und industrielle Gestaltung Linz"
            }
        },
        {
            "type": "Feature",
            "geometry": {
                "type": "Point",
                "coordinates": [
                    16.363978,
                    48.2008316
                ]
            },
            "properties": {
                "name": "Audimax der TUW GM1"
            }
        },
        {
            "type": "Feature",
            "geometry": {
                "type": "Point",
                "coordinates": [
                    16.2592546,
                    48.3103394
                ]
            },
            "properties": {
                "name": "Institute of Science and Technology (IST Austria)"
            }
        },
        {
            "type": "Feature",
            "geometry": {
                "type": "Point",
                "coordinates": [
                    9.7442637,
                    47.4059601
                ]
            },
            "properties": {
                "name": "Fachhochschule Dornbirn"
            }
        },
        {
            "type": "Feature",
            "geometry": {
                "type": "Point",
                "coordinates": [
                    16.3698786,
                    48.2009238
                ]
            },
            "properties": {
                "name": "Universit\u00e4t f\u00fcr Musik und darstellende Kunst"
            }
        },
        {
            "type": "Feature",
            "geometry": {
                "type": "Point",
                "coordinates": [
                    11.3984367,
                    47.2692531
                ]
            },
            "properties": {
                "name": "MCI Management Center Innsbruck"
            }
        },
        {
            "type": "Feature",
            "geometry": {
                "type": "Point",
                "coordinates": [
                    16.8652977,
                    48.1151446
                ]
            },
            "properties": {
                "name": "Nationalpark Akademie d. Naturh. Museums"
            }
        },
        {
            "type": "Feature",
            "geometry": {
                "type": "Point",
                "coordinates": [
                    13.068428,
                    47.7815234
                ]
            },
            "properties": {
                "name": "Mozarteum"
            }
        },
        {
            "type": "Feature",
            "geometry": {
                "type": "Point",
                "coordinates": [
                    15.9065429,
                    46.8727253
                ]
            },
            "properties": {
                "name": "FH Joanneum"
            }
        },
        {
            "type": "Feature",
            "geometry": {
                "type": "Point",
                "coordinates": [
                    14.3136682,
                    46.6213167
                ]
            },
            "properties": {
                "name": "Konservatorium"
            }
        },
        {
            "type": "Feature",
            "geometry": {
                "type": "Point",
                "coordinates": [
                    13.0419345,
                    47.8035301
                ]
            },
            "properties": {
                "name": "Universit\u00e4t Mozarteum"
            }
        },
        {
            "type": "Feature",
            "geometry": {
                "type": "Point",
                "coordinates": [
                    16.3582528,
                    48.2147378
                ]
            },
            "properties": {
                "name": "Institut f\u00fcr Soziologie"
            }
        },
        {
            "type": "Feature",
            "geometry": {
                "type": "Point",
                "coordinates": [
                    13.042122,
                    47.7988767
                ]
            },
            "properties": {
                "name": "Gro\u00dfe Aula Universit\u00e4t Salzburg"
            }
        },
        {
            "type": "Feature",
            "geometry": {
                "type": "Point",
                "coordinates": [
                    16.3494753,
                    48.2065905
                ]
            },
            "properties": {
                "name": "Zentrum f\u00fcr Fernstudien \u00d6sterreich - Studienzentrum Wien"
            }
        },
        {
            "type": "Feature",
            "geometry": {
                "type": "Point",
                "coordinates": [
                    16.3289294,
                    48.1834269
                ]
            },
            "properties": {
                "name": "FH O\u00d6 Seminarzentrum"
            }
        },
        {
            "type": "Feature",
            "geometry": {
                "type": "Point",
                "coordinates": [
                    13.060502,
                    47.7893534
                ]
            },
            "properties": {
                "name": "Geography Department"
            }
        },
        {
            "type": "Feature",
            "geometry": {
                "type": "Point",
                "coordinates": [
                    16.3482304,
                    48.2336879
                ]
            },
            "properties": {
                "name": "Universit\u00e4t Wien (Zentrum f\u00fcr Translationswissenschaft / Institut f\u00fcr Klassische Arch\u00e4ologie / Arch\u00e4ologische Sammlung)"
            }
        },
        {
            "type": "Feature",
            "geometry": {
                "type": "Point",
                "coordinates": [
                    15.4632963,
                    47.0591997
                ]
            },
            "properties": {
                "name": "RoboCup"
            }
        },
        {
            "type": "Feature",
            "geometry": {
                "type": "Point",
                "coordinates": [
                    16.2079832,
                    47.3529343
                ]
            },
            "properties": {
                "name": "Expositur der Kunsthochschule Graz"
            }
        },
        {
            "type": "Feature",
            "geometry": {
                "type": "Point",
                "coordinates": [
                    16.3755704,
                    48.2063379
                ]
            },
            "properties": {
                "name": "Universit\u00e4t f\u00fcr Musik und darstellende Kunst"
            }
        },
        {
            "type": "Feature",
            "geometry": {
                "type": "Point",
                "coordinates": [
                    16.3722361,
                    48.2048709
                ]
            },
            "properties": {
                "name": "Konservatorium Wien"
            }
        },
        {
            "type": "Feature",
            "geometry": {
                "type": "Point",
                "coordinates": [
                    16.3731698,
                    48.2045465
                ]
            },
            "properties": {
                "name": "Universit\u00e4t f\u00fcr Musik und darstellende Kunst"
            }
        },
        {
            "type": "Feature",
            "geometry": {
                "type": "Point",
                "coordinates": [
                    15.4485269,
                    47.0654726
                ]
            },
            "properties": {
                "name": "Institut f\u00fcr Zeitgen\u00f6ssische Kunst"
            }
        },
        {
            "type": "Feature",
            "geometry": {
                "type": "Point",
                "coordinates": [
                    14.0276967,
                    48.1610582
                ]
            },
            "properties": {
                "name": "FH Ober\u00f6sterreich \u2013 Campus Wels"
            }
        },
        {
            "type": "Feature",
            "geometry": {
                "type": "Point",
                "coordinates": [
                    16.3578114,
                    48.2017736
                ]
            },
            "properties": {
                "name": "Institutsgeb\u00e4ude der Akademie der bildenden K\u00fcnste"
            }
        },
        {
            "type": "Feature",
            "geometry": {
                "type": "Point",
                "coordinates": [
                    16.3538417,
                    48.220013
                ]
            },
            "properties": {
                "name": "Institut f\u00fcr Internationale Entwicklung der Universit\u00e4t Wien"
            }
        },
        {
            "type": "Feature",
            "geometry": {
                "type": "Point",
                "coordinates": [
                    16.3548261,
                    48.2202919
                ]
            },
            "properties": {
                "name": "Institut f\u00fcr Sprachwissenschaft der Universit\u00e4t Wien"
            }
        },
        {
            "type": "Feature",
            "geometry": {
                "type": "Point",
                "coordinates": [
                    16.3543567,
                    48.2201811
                ]
            },
            "properties": {
                "name": "Institut f\u00fcr Bildungswissenschaft der Universit\u00e4t Wien"
            }
        },
        {
            "type": "Feature",
            "geometry": {
                "type": "Point",
                "coordinates": [
                    13.0608861,
                    47.7882677
                ]
            },
            "properties": {
                "name": "UNIGIS - University of Salzburg"
            }
        },
        {
            "type": "Feature",
            "geometry": {
                "type": "Point",
                "coordinates": [
                    15.6192688,
                    48.1874195
                ]
            },
            "properties": {
                "name": "New Design University"
            }
        },
        {
            "type": "Feature",
            "geometry": {
                "type": "Point",
                "coordinates": [
                    15.4377118,
                    47.0819948
                ]
            },
            "properties": {
                "name": "Kirchliche P\u00e4dagogische Hochschule"
            }
        },
        {
            "type": "Feature",
            "geometry": {
                "type": "Point",
                "coordinates": [
                    16.3745291,
                    48.1664773
                ]
            },
            "properties": {
                "name": "P\u00e4dagogische Hochschule Wien"
            }
        },
        {
            "type": "Feature",
            "geometry": {
                "type": "Point",
                "coordinates": [
                    16.3628772,
                    48.2223299
                ]
            },
            "properties": {
                "name": "Institut f\u00fcr Staatswissenschaft"
            }
        },
        {
            "type": "Feature",
            "geometry": {
                "type": "Point",
                "coordinates": [
                    14.2999445,
                    46.6264507
                ]
            },
            "properties": {
                "name": "Universit\u00e4t"
            }
        },
        {
            "type": "Feature",
            "geometry": {
                "type": "Point",
                "coordinates": [
                    16.3430165,
                    48.1998942
                ]
            },
            "properties": {
                "name": "Uni Klagenfurt, IFF-Wien"
            }
        },
        {
            "type": "Feature",
            "geometry": {
                "type": "Point",
                "coordinates": [
                    13.1362379,
                    47.9031314
                ]
            },
            "properties": {
                "name": "Privatuniversit\u00e4t"
            }
        },
        {
            "type": "Feature",
            "geometry": {
                "type": "Point",
                "coordinates": [
                    16.1296917,
                    48.0561435
                ]
            },
            "properties": {
                "name": "Philosophisch-theologische Hochschule"
            }
        },
        {
            "type": "Feature",
            "geometry": {
                "type": "Point",
                "coordinates": [
                    16.5232561,
                    48.2121241
                ]
            },
            "properties": {
                "name": "BOKU - Au\u00dfenstelle Essling"
            }
        },
        {
            "type": "Feature",
            "geometry": {
                "type": "Point",
                "coordinates": [
                    13.0393487,
                    47.8236171
                ]
            },
            "properties": {
                "name": "Department of Geoinformatics - Z_GIS"
            }
        },
        {
            "type": "Feature",
            "geometry": {
                "type": "Point",
                "coordinates": [
                    13.0610593,
                    47.7885778
                ]
            },
            "properties": {
                "name": "Department of Geoinformatics - Z_GIS"
            }
        },
        {
            "type": "Feature",
            "geometry": {
                "type": "Point",
                "coordinates": [
                    16.3673771,
                    48.2192066
                ]
            },
            "properties": {
                "name": "Fakult\u00e4t f\u00fcr Mathematik der Universit\u00e4t Wien"
            }
        },
        {
            "type": "Feature",
            "geometry": {
                "type": "Point",
                "coordinates": [
                    16.3666189,
                    48.2191251
                ]
            },
            "properties": {
                "name": "Fakult\u00e4t f\u00fcr Wirtschaftswissenschaften der Universit\u00e4t Wien"
            }
        },
        {
            "type": "Feature",
            "geometry": {
                "type": "Point",
                "coordinates": [
                    13.044371,
                    47.7989909
                ]
            },
            "properties": {
                "name": "Paris Lodron Universit\u00e4t Salzburg"
            }
        },
        {
            "type": "Feature",
            "geometry": {
                "type": "Point",
                "coordinates": [
                    12.1733215,
                    47.5839578
                ]
            },
            "properties": {
                "name": "Fachhochschule Kufstein Tirol"
            }
        },
        {
            "type": "Feature",
            "geometry": {
                "type": "Point",
                "coordinates": [
                    16.3359783,
                    48.274765
                ]
            },
            "properties": {
                "name": "Modul University Vienna"
            }
        },
        {
            "type": "Feature",
            "geometry": {
                "type": "Point",
                "coordinates": [
                    13.3419939,
                    47.8495216
                ]
            },
            "properties": {
                "name": "Research Institute for Limnology, Mondsee - University of Innsbruck"
            }
        },
        {
            "type": "Feature",
            "geometry": {
                "type": "Point",
                "coordinates": [
                    16.3829469,
                    48.2141267
                ]
            },
            "properties": {
                "name": "Webster University"
            }
        },
        {
            "type": "Feature",
            "geometry": {
                "type": "Point",
                "coordinates": [
                    16.365903,
                    48.2079424
                ]
            },
            "properties": {
                "name": "tfm - Institut f\u00fcr Theater-, Film- und Medienwissenschaft"
            }
        },
        {
            "type": "Feature",
            "geometry": {
                "type": "Point",
                "coordinates": [
                    15.4633363,
                    47.0591834
                ]
            },
            "properties": {
                "name": "Know-Center GmbH"
            }
        },
        {
            "type": "Feature",
            "geometry": {
                "type": "Point",
                "coordinates": [
                    15.4632662,
                    47.0591663
                ]
            },
            "properties": {
                "name": "Interactive Systems and Data Science (ISDS)"
            }
        },
        {
            "type": "Feature",
            "geometry": {
                "type": "Point",
                "coordinates": [
                    16.3531333,
                    48.2167282
                ]
            },
            "properties": {
                "name": "Universitaetsvertretung Universitaet Wien"
            }
        },
        {
            "type": "Feature",
            "geometry": {
                "type": "Point",
                "coordinates": [
                    15.5886271,
                    48.4074348
                ]
            },
            "properties": {
                "name": "Karl Landsteiner Privatuniversit\u00e4t f\u00fcr Gesundheitswissenschaften"
            }
        },
        {
            "type": "Feature",
            "geometry": {
                "type": "Point",
                "coordinates": [
                    16.357545,
                    48.2133638
                ]
            },
            "properties": {
                "name": "Universit\u00e4t Wien, Fakult\u00e4t f\u00fcr Psychologie"
            }
        },
        {
            "type": "Feature",
            "geometry": {
                "type": "Point",
                "coordinates": [
                    16.3774409,
                    48.2391664
                ]
            },
            "properties": {
                "name": "FH Technikum Wien"
            }
        },
        {
            "type": "Feature",
            "geometry": {
                "type": "Point",
                "coordinates": [
                    16.3698784,
                    48.1989256
                ]
            },
            "properties": {
                "name": "Technische Universit\u00e4t Wien"
            }
        },
        {
            "type": "Feature",
            "geometry": {
                "type": "Point",
                "coordinates": [
                    16.3321522,
                    48.1877259
                ]
            },
            "properties": {
                "name": "OEAD Vorstudienlehrgang"
            }
        },
        {
            "type": "Feature",
            "geometry": {
                "type": "Point",
                "coordinates": [
                    16.3333907,
                    48.1874652
                ]
            },
            "properties": {
                "name": "Vienna Konservatorium"
            }
        },
        {
            "type": "Feature",
            "geometry": {
                "type": "Point",
                "coordinates": [
                    16.3353137,
                    48.1844203
                ]
            },
            "properties": {
                "name": "Richard Wagner Konservatorium"
            }
        },
        {
            "type": "Feature",
            "geometry": {
                "type": "Point",
                "coordinates": [
                    15.4547478,
                    47.059906
                ]
            },
            "properties": {
                "name": "Kunstuniversit\u00e4t - Institut f\u00fcr Jazz"
            }
        },
        {
            "type": "Feature",
            "geometry": {
                "type": "Point",
                "coordinates": [
                    16.363901,
                    48.2007414
                ]
            },
            "properties": {
                "name": "Praktikumsh\u00f6rsaal GM5"
            }
        },
        {
            "type": "Feature",
            "geometry": {
                "type": "Point",
                "coordinates": [
                    16.362253,
                    48.2001848
                ]
            },
            "properties": {
                "name": "Radinger-H\u00f6rsaal GM2"
            }
        },
        {
            "type": "Feature",
            "geometry": {
                "type": "Point",
                "coordinates": [
                    16.3635475,
                    48.2007532
                ]
            },
            "properties": {
                "name": "Vortmann-H\u00f6rsaal GM3"
            }
        },
        {
            "type": "Feature",
            "geometry": {
                "type": "Point",
                "coordinates": [
                    16.3636359,
                    48.2011566
                ]
            },
            "properties": {
                "name": "Fachschaft f\u00fcr Technische Chemie"
            }
        },
        {
            "type": "Feature",
            "geometry": {
                "type": "Point",
                "coordinates": [
                    16.3621912,
                    48.2000818
                ]
            },
            "properties": {
                "name": "Kleiner Schiffbau H\u00f6rsaal GM7"
            }
        },
        {
            "type": "Feature",
            "geometry": {
                "type": "Point",
                "coordinates": [
                    16.3557127,
                    48.2217238
                ]
            },
            "properties": {
                "name": "Fakult\u00e4t f\u00fcr Physik"
            }
        },
        {
            "type": "Feature",
            "geometry": {
                "type": "Point",
                "coordinates": [
                    15.4486248,
                    47.0657677
                ]
            },
            "properties": {
                "name": "Institut f\u00fcr Grundlagen der Konstruktion und des Entwerfens"
            }
        },
        {
            "type": "Feature",
            "geometry": {
                "type": "Point",
                "coordinates": [
                    15.4483808,
                    47.0657174
                ]
            },
            "properties": {
                "name": "Institut f\u00fcr Raumgestaltung"
            }
        },
        {
            "type": "Feature",
            "geometry": {
                "type": "Point",
                "coordinates": [
                    15.448712,
                    47.065573
                ]
            },
            "properties": {
                "name": "Institut f\u00fcr Architektur und Medien"
            }
        },
        {
            "type": "Feature",
            "geometry": {
                "type": "Point",
                "coordinates": [
                    15.4491481,
                    47.0678948
                ]
            },
            "properties": {
                "name": "Institut f\u00fcr Bodenmechanik und Grundbau"
            }
        },
        {
            "type": "Feature",
            "geometry": {
                "type": "Point",
                "coordinates": [
                    15.4491682,
                    47.0679117
                ]
            },
            "properties": {
                "name": "Institut f\u00fcr Stra\u00dfen- und Verkehrswesen"
            }
        },
        {
            "type": "Feature",
            "geometry": {
                "type": "Point",
                "coordinates": [
                    15.4422385,
                    47.0713805
                ]
            },
            "properties": {
                "name": "Institut f\u00fcr Kirchenmusik"
            }
        },
        {
            "type": "Feature",
            "geometry": {
                "type": "Point",
                "coordinates": [
                    15.5756815,
                    48.4002699
                ]
            },
            "properties": {
                "name": "Danube Private University (DPU)"
            }
        },
        {
            "type": "Feature",
            "geometry": {
                "type": "Point",
                "coordinates": [
                    14.2876158,
                    48.3072511
                ]
            },
            "properties": {
                "name": "Sigmund Freud Privatuniversit\u00e4t Linz"
            }
        },
        {
            "type": "Feature",
            "geometry": {
                "type": "Point",
                "coordinates": [
                    16.3669939,
                    48.1991206
                ]
            },
            "properties": {
                "name": "H\u00f6rsaal FH1"
            }
        },
        {
            "type": "Feature",
            "geometry": {
                "type": "Point",
                "coordinates": [
                    16.3622376,
                    48.2000678
                ]
            },
            "properties": {
                "name": "Fachschaft Maschinenbau"
            }
        },
        {
            "type": "Feature",
            "geometry": {
                "type": "Point",
                "coordinates": [
                    15.585364,
                    48.4083715
                ]
            },
            "properties": {
                "name": "Audimax"
            }
        },
        {
            "type": "Feature",
            "geometry": {
                "type": "Point",
                "coordinates": [
                    15.5863,
                    48.4078437
                ]
            },
            "properties": {
                "name": "Donau-Universit\u00e4t Krems"
            }
        },
        {
            "type": "Feature",
            "geometry": {
                "type": "Point",
                "coordinates": [
                    16.3561864,
                    48.222549
                ]
            },
            "properties": {
                "name": "Erwin-Schr\u00f6dinger-Institut f\u00fcr Mathematische Physik"
            }
        },
        {
            "type": "Feature",
            "geometry": {
                "type": "Point",
                "coordinates": [
                    15.4557464,
                    47.0753143
                ]
            },
            "properties": {
                "name": "Institut f\u00fcr Marketing"
            }
        },
        {
            "type": "Feature",
            "geometry": {
                "type": "Point",
                "coordinates": [
                    15.4558152,
                    47.0752435
                ]
            },
            "properties": {
                "name": "Zentrum f\u00fcr Entrepreneurship und angewandte Betriebswirtschaftslehre"
            }
        },
        {
            "type": "Feature",
            "geometry": {
                "type": "Point",
                "coordinates": [
                    16.3574985,
                    48.2183276
                ]
            },
            "properties": {
                "name": "Vienna Environmental Research Accelerator (VERA), Isotopenforschung und Kernphysik"
            }
        },
        {
            "type": "Feature",
            "geometry": {
                "type": "Point",
                "coordinates": [
                    16.2466985,
                    47.8384764
                ]
            },
            "properties": {
                "name": "Composite Lab"
            }
        },
        {
            "type": "Feature",
            "geometry": {
                "type": "Point",
                "coordinates": [
                    15.4547998,
                    47.0808432
                ]
            },
            "properties": {
                "name": "Treffpunkt Sprachen"
            }
        },
        {
            "type": "Feature",
            "geometry": {
                "type": "Point",
                "coordinates": [
                    16.335079,
                    48.2362184
                ]
            },
            "properties": {
                "name": "BOKU - Adolf v. Guttenberg Haus"
            }
        },
        {
            "type": "Feature",
            "geometry": {
                "type": "Point",
                "coordinates": [
                    16.3375091,
                    48.2365614
                ]
            },
            "properties": {
                "name": "BOKU Gregor-Mendel Haus"
            }
        },
        {
            "type": "Feature",
            "geometry": {
                "type": "Point",
                "coordinates": [
                    16.3370638,
                    48.2365471
                ]
            },
            "properties": {
                "name": "BOKU Justus v. Liebig-Haus"
            }
        },
        {
            "type": "Feature",
            "geometry": {
                "type": "Point",
                "coordinates": [
                    11.3926384,
                    47.2590178
                ]
            },
            "properties": {
                "name": "Institut f\u00fcr Psychosoziale Intervention\u00a0 und Kommunikationsforschung"
            }
        },
        {
            "type": "Feature",
            "geometry": {
                "type": "Point",
                "coordinates": [
                    15.4520455,
                    47.0748638
                ]
            },
            "properties": {
                "name": "Konfuzius-Institut"
            }
        },
        {
            "type": "Feature",
            "geometry": {
                "type": "Point",
                "coordinates": [
                    16.5094186,
                    48.223287
                ]
            },
            "properties": {
                "name": "Privatuniversit\u00e4t Schloss Seeburg"
            }
        },
        {
            "type": "Feature",
            "geometry": {
                "type": "Point",
                "coordinates": [
                    16.3635307,
                    48.219538
                ]
            },
            "properties": {
                "name": "Zentrum f\u00fcr LehrerInnenbildung der Universit\u00e4t Wien"
            }
        },
        {
            "type": "Feature",
            "geometry": {
                "type": "Point",
                "coordinates": [
                    16.3430158,
                    48.1997863
                ]
            },
            "properties": {
                "name": "Universit\u00e4t f\u00fcr Bodenkultur Wien / Institut f\u00fcr Soziale \u00d6kologie"
            }
        },
        {
            "type": "Feature",
            "geometry": {
                "type": "Point",
                "coordinates": [
                    15.5707075,
                    48.3988358
                ]
            },
            "properties": {
                "name": "Danube Private University (DPU)"
            }
        },
        {
            "type": "Feature",
            "geometry": {
                "type": "Point",
                "coordinates": [
                    11.3429777,
                    47.2642383
                ]
            },
            "properties": {
                "name": "H\u00f6rsaaltrakt"
            }
        },
        {
            "type": "Feature",
            "geometry": {
                "type": "Point",
                "coordinates": [
                    11.3438986,
                    47.2641195
                ]
            }
        },
        {
            "type": "Feature",
            "geometry": {
                "type": "Point",
                "coordinates": [
                    11.3435936,
                    47.2637837
                ]
            },
            "properties": {
                "name": "Zentraler Informatikdienst"
            }
        },
        {
            "type": "Feature",
            "geometry": {
                "type": "Point",
                "coordinates": [
                    11.344091,
                    47.2638523
                ]
            },
            "properties": {
                "name": "Bibliothekszentrum West - Depot"
            }
        },
        {
            "type": "Feature",
            "geometry": {
                "type": "Point",
                "coordinates": [
                    11.3429445,
                    47.2650051
                ]
            }
        },
        {
            "type": "Feature",
            "geometry": {
                "type": "Point",
                "coordinates": [
                    11.3447762,
                    47.2634028
                ]
            },
            "properties": {
                "name": "Architekturgeb\u00e4ude"
            }
        },
        {
            "type": "Feature",
            "geometry": {
                "type": "Point",
                "coordinates": [
                    11.3443794,
                    47.2634064
                ]
            },
            "properties": {
                "name": "Zeichens\u00e4le West"
            }
        },
        {
            "type": "Feature",
            "geometry": {
                "type": "Point",
                "coordinates": [
                    11.3457689,
                    47.2633934
                ]
            },
            "properties": {
                "name": "ICT-Geb\u00e4ude (IQOQI, Informatik)"
            }
        },
        {
            "type": "Feature",
            "geometry": {
                "type": "Point",
                "coordinates": [
                    11.3449441,
                    47.2644137
                ]
            },
            "properties": {
                "name": "Bauingenieurgeb\u00e4ude (H\u00f6rsaaltrakt)"
            }
        },
        {
            "type": "Feature",
            "geometry": {
                "type": "Point",
                "coordinates": [
                    11.3464202,
                    47.263929
                ]
            },
            "properties": {
                "name": "Laborgeb\u00e4ude 1"
            }
        },
        {
            "type": "Feature",
            "geometry": {
                "type": "Point",
                "coordinates": [
                    11.3458308,
                    47.2640689
                ]
            },
            "properties": {
                "name": "Zeichens\u00e4le"
            }
        },
        {
            "type": "Feature",
            "geometry": {
                "type": "Point",
                "coordinates": [
                    11.345172,
                    47.2633988
                ]
            },
            "properties": {
                "name": "Zeichens\u00e4le Ost"
            }
        },
        {
            "type": "Feature",
            "geometry": {
                "type": "Point",
                "coordinates": [
                    11.3420866,
                    47.2649339
                ]
            }
        },
        {
            "type": "Feature",
            "geometry": {
                "type": "Point",
                "coordinates": [
                    16.3566836,
                    48.2193685
                ]
            },
            "properties": {
                "name": "Medizinische Universit\u00e4t Wien \u2013 Josephinum"
            }
        },
        {
            "type": "Feature",
            "geometry": {
                "type": "Point",
                "coordinates": [
                    15.6318973,
                    48.2134796
                ]
            },
            "properties": {
                "name": "FH St. P\u00f6lten"
            }
        },
        {
            "type": "Feature",
            "geometry": {
                "type": "Point",
                "coordinates": [
                    13.0504147,
                    47.7984517
                ]
            },
            "properties": {
                "name": "Paris Lodron Universit\u00e4t Salzburg - Kultur- u. Gesellschaftswissenschaftliche Fakult\u00e4t"
            }
        },
        {
            "type": "Feature",
            "geometry": {
                "type": "Point",
                "coordinates": [
                    11.3441146,
                    47.2638749
                ]
            },
            "properties": {
                "name": "Universit\u00e4t Innsbruck \u2013 Campus Technik"
            }
        },
        {
            "type": "Feature",
            "geometry": {
                "type": "Point",
                "coordinates": [
                    11.3845722,
                    47.263521
                ]
            },
            "properties": {
                "name": "Universit\u00e4t Innsbruck Campus Innrain"
            }
        },
        {
            "type": "Feature",
            "geometry": {
                "type": "Point",
                "coordinates": [
                    11.3985174,
                    47.2699149
                ]
            },
            "properties": {
                "name": "SOWI"
            }
        },
        {
            "type": "Feature",
            "geometry": {
                "type": "Point",
                "coordinates": [
                    11.3984427,
                    47.269616
                ]
            }
        },
        {
            "type": "Feature",
            "geometry": {
                "type": "Point",
                "coordinates": [
                    16.3825989,
                    48.2081735
                ]
            },
            "properties": {
                "name": "Universit\u00e4t f\u00fcr angewandte Kunst in Wien"
            }
        },
        {
            "type": "Feature",
            "geometry": {
                "type": "Point",
                "coordinates": [
                    11.3556709,
                    47.2572955
                ]
            },
            "properties": {
                "name": "Universit\u00e4t Innsbruck Sport-Campus"
            }
        },
        {
            "type": "Feature",
            "geometry": {
                "type": "Point",
                "coordinates": [
                    16.4311797,
                    48.2548659
                ]
            },
            "properties": {
                "name": "Veterin\u00e4rmedizinische Universit\u00e4t"
            }
        },
        {
            "type": "Feature",
            "geometry": {
                "type": "Point",
                "coordinates": [
                    15.458142,
                    47.0583456
                ]
            },
            "properties": {
                "name": "ICG SPSC ITI"
            }
        },
        {
            "type": "Feature",
            "geometry": {
                "type": "Point",
                "coordinates": [
                    15.4591239,
                    47.0587165
                ]
            },
            "properties": {
                "name": "ICG IGI IST Studienvertretung"
            }
        },
        {
            "type": "Feature",
            "geometry": {
                "type": "Point",
                "coordinates": [
                    15.4588265,
                    47.058818
                ]
            },
            "properties": {
                "name": "ISDS CGV SPSC ICG"
            }
        },
        {
            "type": "Feature",
            "geometry": {
                "type": "Point",
                "coordinates": [
                    15.4577813,
                    47.0584404
                ]
            },
            "properties": {
                "name": "IAIK"
            }
        },
        {
            "type": "Feature",
            "geometry": {
                "type": "Point",
                "coordinates": [
                    15.4596473,
                    47.059151
                ]
            },
            "properties": {
                "name": "IFE"
            }
        },
        {
            "type": "Feature",
            "geometry": {
                "type": "Point",
                "coordinates": [
                    15.4590571,
                    47.0582204
                ]
            },
            "properties": {
                "name": "Energiezentrum Graz, Inffeldgasse 18"
            }
        },
        {
            "type": "Feature",
            "geometry": {
                "type": "Point",
                "coordinates": [
                    15.4619673,
                    47.0582677
                ]
            }
        },
        {
            "type": "Feature",
            "geometry": {
                "type": "Point",
                "coordinates": [
                    15.4614159,
                    47.0580872
                ]
            }
        },
        {
            "type": "Feature",
            "geometry": {
                "type": "Point",
                "coordinates": [
                    15.4601001,
                    47.0575311
                ]
            }
        },
        {
            "type": "Feature",
            "geometry": {
                "type": "Point",
                "coordinates": [
                    15.4605503,
                    47.0577629
                ]
            }
        },
        {
            "type": "Feature",
            "geometry": {
                "type": "Point",
                "coordinates": [
                    15.4608209,
                    47.0580978
                ]
            }
        },
        {
            "type": "Feature",
            "geometry": {
                "type": "Point",
                "coordinates": [
                    15.4506459,
                    47.0644621
                ]
            },
            "properties": {
                "name": "Institut f\u00fcr Analytische Chemie und Lebensmittelchemie, Institut f\u00fcr Anorganische Chemie, Institut f\u00fcr Organische Chemie, Institut f\u00fcr Physikalische Chemie, Institut f\u00fcr Chemische Technologie von Materialien"
            }
        },
        {
            "type": "Feature",
            "geometry": {
                "type": "Point",
                "coordinates": [
                    15.4572973,
                    47.0705942
                ]
            }
        },
        {
            "type": "Feature",
            "geometry": {
                "type": "Point",
                "coordinates": [
                    15.4494626,
                    47.0729172
                ]
            },
            "properties": {
                "name": "Universit\u00e4t f\u00fcr Musik und darstellende Kunst"
            }
        },
        {
            "type": "Feature",
            "geometry": {
                "type": "Point",
                "coordinates": [
                    15.4641671,
                    47.0593291
                ]
            },
            "properties": {
                "name": "Frank Stronach Institute"
            }
        },
        {
            "type": "Feature",
            "geometry": {
                "type": "Point",
                "coordinates": [
                    15.4476919,
                    47.0774964
                ]
            },
            "properties": {
                "name": "Medizinische Universit\u00e4t Graz, Vorklinische Institute"
            }
        },
        {
            "type": "Feature",
            "geometry": {
                "type": "Point",
                "coordinates": [
                    15.4497322,
                    47.0778813
                ]
            },
            "properties": {
                "name": "Karl-Franzens-Universit\u00e4t Graz"
            }
        },
        {
            "type": "Feature",
            "geometry": {
                "type": "Point",
                "coordinates": [
                    15.4472572,
                    47.0805671
                ]
            },
            "properties": {
                "name": "Karl-Franzens-Universit\u00e4t Graz, Zentrum f\u00fcr molekulare Biowissenschaften"
            }
        },
        {
            "type": "Feature",
            "geometry": {
                "type": "Point",
                "coordinates": [
                    16.3740348,
                    48.164998
                ]
            },
            "properties": {
                "name": "PH 4"
            }
        },
        {
            "type": "Feature",
            "geometry": {
                "type": "Point",
                "coordinates": [
                    16.3315116,
                    48.2379351
                ]
            },
            "properties": {
                "name": "Universit\u00e4t f\u00fcr Bodenkultur / T\u00fcrkenschanze"
            }
        },
        {
            "type": "Feature",
            "geometry": {
                "type": "Point",
                "coordinates": [
                    14.321031,
                    48.3377263
                ]
            }
        },
        {
            "type": "Feature",
            "geometry": {
                "type": "Point",
                "coordinates": [
                    16.5142936,
                    47.850235
                ]
            },
            "properties": {
                "name": "Joseph Haydn Konservatorium"
            }
        },
        {
            "type": "Feature",
            "geometry": {
                "type": "Point",
                "coordinates": [
                    16.12693,
                    47.3622452
                ]
            },
            "properties": {
                "name": "Fachhochschulstudieng\u00e4nge Burgenland"
            }
        },
        {
            "type": "Feature",
            "geometry": {
                "type": "Point",
                "coordinates": [
                    16.3185341,
                    48.2043534
                ]
            }
        },
        {
            "type": "Feature",
            "geometry": {
                "type": "Point",
                "coordinates": [
                    15.463028,
                    47.0586939
                ]
            }
        },
        {
            "type": "Feature",
            "geometry": {
                "type": "Point",
                "coordinates": [
                    15.4569594,
                    47.057383
                ]
            },
            "properties": {
                "name": "Institut f\u00fcr Materialpr\u00fcfung und Baustofftechnologie mit angeschl. TVFA"
            }
        },
        {
            "type": "Feature",
            "geometry": {
                "type": "Point",
                "coordinates": [
                    15.4530059,
                    47.0643358
                ]
            },
            "properties": {
                "name": "Institute f\u00fcr Mathematik und Geod\u00e4sie"
            }
        },
        {
            "type": "Feature",
            "geometry": {
                "type": "Point",
                "coordinates": [
                    15.4528889,
                    47.0655692
                ]
            },
            "properties": {
                "name": "Biochemie"
            }
        },
        {
            "type": "Feature",
            "geometry": {
                "type": "Point",
                "coordinates": [
                    15.4521527,
                    47.0643411
                ]
            },
            "properties": {
                "name": "Institut f\u00fcr Wasserbau und Wasserwirtschaft, Institut f\u00fcr Siedlungswasserwirtschaft und Landschaftswasserbau, Institut f\u00fcr Hydraulische Str\u00f6mungsmaschinen"
            }
        },
        {
            "type": "Feature",
            "geometry": {
                "type": "Point",
                "coordinates": [
                    16.3856975,
                    48.2020761
                ]
            },
            "properties": {
                "name": "Universit\u00e4t f\u00fcr Musik und darstellende Kunst"
            }
        },
        {
            "type": "Feature",
            "geometry": {
                "type": "Point",
                "coordinates": [
                    16.0646218,
                    48.3202759
                ]
            },
            "properties": {
                "name": "Fachhochschule Wiener Neustadt / Campus Tulln"
            }
        },
        {
            "type": "Feature",
            "geometry": {
                "type": "Point",
                "coordinates": [
                    16.3650517,
                    48.2139675
                ]
            },
            "properties": {
                "name": "Universit\u00e4t Wien, Rechtswissenschaftliche Fakult\u00e4t (Juridicum)"
            }
        },
        {
            "type": "Feature",
            "geometry": {
                "type": "Point",
                "coordinates": [
                    16.259689,
                    48.3097652
                ]
            },
            "properties": {
                "name": "IST Austria,Central Building"
            }
        },
        {
            "type": "Feature",
            "geometry": {
                "type": "Point",
                "coordinates": [
                    15.4504842,
                    47.0780875
                ]
            },
            "properties": {
                "name": "Karl-Franzens Universit\u00e4t Universit\u00e4tsbibliothek"
            }
        },
        {
            "type": "Feature",
            "geometry": {
                "type": "Point",
                "coordinates": [
                    15.4480928,
                    47.078707
                ]
            }
        },
        {
            "type": "Feature",
            "geometry": {
                "type": "Point",
                "coordinates": [
                    15.4074428,
                    47.0695487
                ]
            },
            "properties": {
                "name": "FH Joanneum"
            }
        },
        {
            "type": "Feature",
            "geometry": {
                "type": "Point",
                "coordinates": [
                    14.3197447,
                    48.3362972
                ]
            },
            "properties": {
                "name": "Johannes-Kepler-Universit\u00e4t Linz"
            }
        },
        {
            "type": "Feature",
            "geometry": {
                "type": "Point",
                "coordinates": [
                    15.4483585,
                    47.0777849
                ]
            },
            "properties": {
                "name": "Karl-Franzens Universit\u00e4t H\u00f6rsaaltrakt"
            }
        },
        {
            "type": "Feature",
            "geometry": {
                "type": "Point",
                "coordinates": [
                    15.4509786,
                    47.0784648
                ]
            }
        },
        {
            "type": "Feature",
            "geometry": {
                "type": "Point",
                "coordinates": [
                    15.4486934,
                    47.0789724
                ]
            }
        },
        {
            "type": "Feature",
            "geometry": {
                "type": "Point",
                "coordinates": [
                    13.0733263,
                    47.7782194
                ]
            }
        },
        {
            "type": "Feature",
            "geometry": {
                "type": "Point",
                "coordinates": [
                    15.4492943,
                    47.0791968
                ]
            },
            "properties": {
                "name": "Karl-Franzens Universit\u00e4t - Heizhaus"
            }
        },
        {
            "type": "Feature",
            "geometry": {
                "type": "Point",
                "coordinates": [
                    14.2649325,
                    46.6162224
                ]
            },
            "properties": {
                "name": "Alpen-Adria-Universit\u00e4t Klagenfurt"
            }
        },
        {
            "type": "Feature",
            "geometry": {
                "type": "Point",
                "coordinates": [
                    13.0842996,
                    47.7244852
                ]
            },
            "properties": {
                "name": "Schloss Urstein"
            }
        },
        {
            "type": "Feature",
            "geometry": {
                "type": "Point",
                "coordinates": [
                    16.5231613,
                    48.2107086
                ]
            },
            "properties": {
                "name": "Versuchsgarten Essling"
            }
        },
        {
            "type": "Feature",
            "geometry": {
                "type": "Point",
                "coordinates": [
                    11.3874053,
                    47.2600434
                ]
            },
            "properties": {
                "name": "Genetik"
            }
        },
        {
            "type": "Feature",
            "geometry": {
                "type": "Point",
                "coordinates": [
                    11.3873112,
                    47.2606041
                ]
            },
            "properties": {
                "name": "Anatomie"
            }
        },
        {
            "type": "Feature",
            "geometry": {
                "type": "Point",
                "coordinates": [
                    11.4248381,
                    47.2672411
                ]
            },
            "properties": {
                "name": "Universit\u00e4t Innsbruck, Au\u00dfenstelle Atrium/ Zentrum f\u00fcr alte Kulturen"
            }
        },
        {
            "type": "Feature",
            "geometry": {
                "type": "Point",
                "coordinates": [
                    11.3994448,
                    47.2749502
                ]
            },
            "properties": {
                "name": "Institut f\u00fcr Musikwissenschaften"
            }
        },
        {
            "type": "Feature",
            "geometry": {
                "type": "Point",
                "coordinates": [
                    13.0433298,
                    47.8040556
                ]
            },
            "properties": {
                "name": "Universit\u00e4t Mozarteum - Solit\u00e4r"
            }
        },
        {
            "type": "Feature",
            "geometry": {
                "type": "Point",
                "coordinates": [
                    13.0434075,
                    47.8034896
                ]
            },
            "properties": {
                "name": "Universit\u00e4t Mozarteum"
            }
        },
        {
            "type": "Feature",
            "geometry": {
                "type": "Point",
                "coordinates": [
                    13.0433136,
                    47.8037531
                ]
            },
            "properties": {
                "name": "Universit\u00e4t Mozarteum"
            }
        },
        {
            "type": "Feature",
            "geometry": {
                "type": "Point",
                "coordinates": [
                    13.0439141,
                    47.8039143
                ]
            },
            "properties": {
                "name": "Universit\u00e4t Mozarteum"
            }
        },
        {
            "type": "Feature",
            "geometry": {
                "type": "Point",
                "coordinates": [
                    11.3932565,
                    47.2628794
                ]
            }
        },
        {
            "type": "Feature",
            "geometry": {
                "type": "Point",
                "coordinates": [
                    11.3929403,
                    47.2627853
                ]
            },
            "properties": {
                "name": "MCI Management Center Innsbruck IV"
            }
        },
        {
            "type": "Feature",
            "geometry": {
                "type": "Point",
                "coordinates": [
                    11.3935557,
                    47.2630281
                ]
            }
        },
        {
            "type": "Feature",
            "geometry": {
                "type": "Point",
                "coordinates": [
                    11.3883415,
                    47.2606433
                ]
            },
            "properties": {
                "name": "Pharmakologie"
            }
        },
        {
            "type": "Feature",
            "geometry": {
                "type": "Point",
                "coordinates": [
                    11.3928091,
                    47.2590501
                ]
            },
            "properties": {
                "name": "Fakult\u00e4t f\u00fcr Bildungswissenschaften"
            }
        },
        {
            "type": "Feature",
            "geometry": {
                "type": "Point",
                "coordinates": [
                    11.387109,
                    47.2595822
                ]
            },
            "properties": {
                "name": "Biozentrum"
            }
        },
        {
            "type": "Feature",
            "geometry": {
                "type": "Point",
                "coordinates": [
                    15.4593355,
                    47.0750969
                ]
            },
            "properties": {
                "name": "Kunstuni - Reiterkaserne"
            }
        },
        {
            "type": "Feature",
            "geometry": {
                "type": "Point",
                "coordinates": [
                    16.2571974,
                    48.3096168
                ]
            },
            "properties": {
                "name": "IST Austria, Facilty Management Building"
            }
        },
        {
            "type": "Feature",
            "geometry": {
                "type": "Point",
                "coordinates": [
                    13.8832683,
                    46.6112228
                ]
            },
            "properties": {
                "name": "FH K\u00e4rnten Campus Villach"
            }
        },
        {
            "type": "Feature",
            "geometry": {
                "type": "Point",
                "coordinates": [
                    13.0443429,
                    47.7982626
                ]
            },
            "properties": {
                "name": "Toskanatrakt"
            }
        },
        {
            "type": "Feature",
            "geometry": {
                "type": "Point",
                "coordinates": [
                    15.4679276,
                    47.0810695
                ]
            },
            "properties": {
                "name": "Zentrum f\u00fcr Medizinische Grundlagenforschung"
            }
        },
        {
            "type": "Feature",
            "geometry": {
                "type": "Point",
                "coordinates": [
                    13.0626574,
                    47.776758
                ]
            },
            "properties": {
                "name": "Orff Institut"
            }
        },
        {
            "type": "Feature",
            "geometry": {
                "type": "Point",
                "coordinates": [
                    13.0610585,
                    47.7772814
                ]
            },
            "properties": {
                "name": "Schloss Frohnburg"
            }
        },
        {
            "type": "Feature",
            "geometry": {
                "type": "Point",
                "coordinates": [
                    15.4632853,
                    47.0592065
                ]
            },
            "properties": {
                "name": "Produktionstechnikzentrum"
            }
        },
        {
            "type": "Feature",
            "geometry": {
                "type": "Point",
                "coordinates": [
                    15.0935737,
                    47.3854398
                ]
            },
            "properties": {
                "name": "Montanuniversit\u00e4t Leoben"
            }
        },
        {
            "type": "Feature",
            "geometry": {
                "type": "Point",
                "coordinates": [
                    13.4783117,
                    47.391151
                ]
            }
        },
        {
            "type": "Feature",
            "geometry": {
                "type": "Point",
                "coordinates": [
                    14.2733289,
                    48.2971709
                ]
            },
            "properties": {
                "name": "P\u00e4dagogische Hochschule"
            }
        },
        {
            "type": "Feature",
            "geometry": {
                "type": "Point",
                "coordinates": [
                    15.450742,
                    47.0647372
                ]
            }
        },
        {
            "type": "Feature",
            "geometry": {
                "type": "Point",
                "coordinates": [
                    15.4508311,
                    47.0648576
                ]
            }
        },
        {
            "type": "Feature",
            "geometry": {
                "type": "Point",
                "coordinates": [
                    15.4503987,
                    47.0642137
                ]
            }
        },
        {
            "type": "Feature",
            "geometry": {
                "type": "Point",
                "coordinates": [
                    15.4644459,
                    47.0586878
                ]
            },
            "properties": {
                "name": "Produktionstechnikzentrum EMT"
            }
        },
        {
            "type": "Feature",
            "geometry": {
                "type": "Point",
                "coordinates": [
                    16.2080652,
                    47.3528962
                ]
            },
            "properties": {
                "name": "Istitut 12 | Kunstuni Graz"
            }
        },
        {
            "type": "Feature",
            "geometry": {
                "type": "Point",
                "coordinates": [
                    15.4610165,
                    47.0578092
                ]
            }
        },
        {
            "type": "Feature",
            "geometry": {
                "type": "Point",
                "coordinates": [
                    15.4574001,
                    47.0705942
                ]
            },
            "properties": {
                "name": "Universit\u00e4t Graz - UZ Wall"
            }
        },
        {
            "type": "Feature",
            "geometry": {
                "type": "Point",
                "coordinates": [
                    15.4497422,
                    47.0681867
                ]
            }
        },
        {
            "type": "Feature",
            "geometry": {
                "type": "Point",
                "coordinates": [
                    15.4492192,
                    47.0683289
                ]
            }
        },
        {
            "type": "Feature",
            "geometry": {
                "type": "Point",
                "coordinates": [
                    15.450071,
                    47.0679641
                ]
            }
        },
        {
            "type": "Feature",
            "geometry": {
                "type": "Point",
                "coordinates": [
                    14.2659308,
                    48.2693771
                ]
            },
            "properties": {
                "name": "Institut f\u00fcr Verfahrenstechnik"
            }
        },
        {
            "type": "Feature",
            "geometry": {
                "type": "Point",
                "coordinates": [
                    15.0906946,
                    47.3826002
                ]
            },
            "properties": {
                "name": "Montanuniversit\u00e4t Impulszentrum f\u00fcr Werkstoffe"
            }
        },
        {
            "type": "Feature",
            "geometry": {
                "type": "Point",
                "coordinates": [
                    15.0917898,
                    47.3828259
                ]
            },
            "properties": {
                "name": "Montanuniversit\u00e4t"
            }
        },
        {
            "type": "Feature",
            "geometry": {
                "type": "Point",
                "coordinates": [
                    15.0921477,
                    47.3814468
                ]
            },
            "properties": {
                "name": "Montanuniversi\u00e4t Peter Tunner-Geb\u00e4ude"
            }
        },
        {
            "type": "Feature",
            "geometry": {
                "type": "Point",
                "coordinates": [
                    15.0914357,
                    47.3827462
                ]
            },
            "properties": {
                "name": "Montanuniversit\u00e4t Kunststofftechnik"
            }
        },
        {
            "type": "Feature",
            "geometry": {
                "type": "Point",
                "coordinates": [
                    15.0908629,
                    47.3819965
                ]
            },
            "properties": {
                "name": "Montanuniversit\u00e4t Rohstoff- und Werkstoffzentrum"
            }
        },
        {
            "type": "Feature",
            "geometry": {
                "type": "Point",
                "coordinates": [
                    15.4593355,
                    47.0750969
                ]
            }
        },
        {
            "type": "Feature",
            "geometry": {
                "type": "Point",
                "coordinates": [
                    15.4485967,
                    47.065645
                ]
            }
        },
        {
            "type": "Feature",
            "geometry": {
                "type": "Point",
                "coordinates": [
                    16.3968444,
                    48.2125733
                ]
            },
            "properties": {
                "name": "Bildhaueratelier der Akademie der bildenden K\u00fcnste"
            }
        },
        {
            "type": "Feature",
            "geometry": {
                "type": "Point",
                "coordinates": [
                    15.0912679,
                    47.38326
                ]
            },
            "properties": {
                "name": "Montanuniversit\u00e4t Impulszentrum f\u00fcr Rohstoffe"
            }
        },
        {
            "type": "Feature",
            "geometry": {
                "type": "Point",
                "coordinates": [
                    15.0911389,
                    47.3843053
                ]
            },
            "properties": {
                "name": "Montanuniversit\u00e4t Technologie Transfer Zentrum"
            }
        },
        {
            "type": "Feature",
            "geometry": {
                "type": "Point",
                "coordinates": [
                    11.3785646,
                    47.2679424
                ]
            },
            "properties": {
                "name": "Institut f\u00fcr Botanik"
            }
        },
        {
            "type": "Feature",
            "geometry": {
                "type": "Point",
                "coordinates": [
                    15.0942453,
                    47.3874182
                ]
            }
        },
        {
            "type": "Feature",
            "geometry": {
                "type": "Point",
                "coordinates": [
                    15.0951457,
                    47.3864756
                ]
            },
            "properties": {
                "name": "Erich Schmid Institut"
            }
        },
        {
            "type": "Feature",
            "geometry": {
                "type": "Point",
                "coordinates": [
                    11.3418009,
                    47.2649288
                ]
            }
        },
        {
            "type": "Feature",
            "geometry": {
                "type": "Point",
                "coordinates": [
                    11.3415162,
                    47.2649361
                ]
            }
        },
        {
            "type": "Feature",
            "geometry": {
                "type": "Point",
                "coordinates": [
                    11.3453849,
                    47.2640719
                ]
            },
            "properties": {
                "name": "Bauingenieurgeb\u00e4ude"
            }
        },
        {
            "type": "Feature",
            "geometry": {
                "type": "Point",
                "coordinates": [
                    15.0910068,
                    47.3821991
                ]
            }
        },
        {
            "type": "Feature",
            "geometry": {
                "type": "Point",
                "coordinates": [
                    15.4565137,
                    47.082364
                ]
            },
            "properties": {
                "name": "Universit\u00e4t Graz - Institut f\u00fcr Botanik"
            }
        },
        {
            "type": "Feature",
            "geometry": {
                "type": "Point",
                "coordinates": [
                    14.2843609,
                    48.3133749
                ]
            },
            "properties": {
                "name": "Kunstuniversit\u00e4t Linz"
            }
        },
        {
            "type": "Feature",
            "geometry": {
                "type": "Point",
                "coordinates": [
                    15.4467633,
                    47.0805172
                ]
            },
            "properties": {
                "name": "Karl-Franzens-Universit\u00e4t Graz, Institut f\u00fcr Sportwissenschaft"
            }
        },
        {
            "type": "Feature",
            "geometry": {
                "type": "Point",
                "coordinates": [
                    14.2686327,
                    46.6182042
                ]
            }
        },
        {
            "type": "Feature",
            "geometry": {
                "type": "Point",
                "coordinates": [
                    15.4478274,
                    47.0803331
                ]
            },
            "properties": {
                "name": "Medizinische Universit\u00e4t Graz, Institut f\u00fcr Pathophysiologie und Immunologie"
            }
        },
        {
            "type": "Feature",
            "geometry": {
                "type": "Point",
                "coordinates": [
                    15.456106,
                    47.0805942
                ]
            },
            "properties": {
                "name": "Universit\u00e4t Graz - Institut f\u00fcr Pflanzenphysiologie"
            }
        },
        {
            "type": "Feature",
            "geometry": {
                "type": "Point",
                "coordinates": [
                    15.4554269,
                    47.0807089
                ]
            },
            "properties": {
                "name": "Universit\u00e4t Graz - Institut f\u00fcr Pflanzenphysiologie"
            }
        },
        {
            "type": "Feature",
            "geometry": {
                "type": "Point",
                "coordinates": [
                    15.4478345,
                    47.0748133
                ]
            },
            "properties": {
                "name": "Wegener Zentrum f\u00fcr Klima und Globalen Wandel"
            }
        },
        {
            "type": "Feature",
            "geometry": {
                "type": "Point",
                "coordinates": [
                    14.3434379,
                    47.5246562
                ]
            },
            "properties": {
                "name": "Universit\u00e4tszentrum Rottenmann"
            }
        },
        {
            "type": "Feature",
            "geometry": {
                "type": "Point",
                "coordinates": [
                    11.356473,
                    47.2570839
                ]
            },
            "properties": {
                "name": "Universit\u00e4ts-Sportinstitut (USI)"
            }
        },
        {
            "type": "Feature",
            "geometry": {
                "type": "Point",
                "coordinates": [
                    11.3872132,
                    47.2611799
                ]
            },
            "properties": {
                "name": "Pathologie"
            }
        },
        {
            "type": "Feature",
            "geometry": {
                "type": "Point",
                "coordinates": [
                    16.4084909,
                    48.2137429
                ]
            },
            "properties": {
                "name": "Wirtschaftsuniversit\u00e4t Wien"
            }
        },
        {
            "type": "Feature",
            "geometry": {
                "type": "Point",
                "coordinates": [
                    11.3810472,
                    47.2599941
                ]
            },
            "properties": {
                "name": "CCB \u2013 Centrum f\u00fcr Chemie und Biomedizin"
            }
        },
        {
            "type": "Feature",
            "geometry": {
                "type": "Point",
                "coordinates": [
                    11.3468671,
                    47.2635552
                ]
            },
            "properties": {
                "name": "Laborgeb\u00e4ude 2"
            }
        },
        {
            "type": "Feature",
            "geometry": {
                "type": "Point",
                "coordinates": [
                    11.3421065,
                    47.2644906
                ]
            },
            "properties": {
                "name": "Labortrakt West"
            }
        },
        {
            "type": "Feature",
            "geometry": {
                "type": "Point",
                "coordinates": [
                    11.3442061,
                    47.2642815
                ]
            },
            "properties": {
                "name": "Dekanat"
            }
        },
        {
            "type": "Feature",
            "geometry": {
                "type": "Point",
                "coordinates": [
                    11.3420872,
                    47.2651323
                ]
            }
        },
        {
            "type": "Feature",
            "geometry": {
                "type": "Point",
                "coordinates": [
                    11.3425393,
                    47.2643702
                ]
            },
            "properties": {
                "name": "Viktor-Franz-Hess-Haus"
            }
        },
        {
            "type": "Feature",
            "geometry": {
                "type": "Point",
                "coordinates": [
                    13.9017255,
                    46.677471
                ]
            },
            "properties": {
                "name": "Observatorium Kanzelh\u00f6he"
            }
        },
        {
            "type": "Feature",
            "geometry": {
                "type": "Point",
                "coordinates": [
                    16.3361653,
                    48.2370073
                ]
            },
            "properties": {
                "name": "Universit\u00e4t f\u00fcr Bodenkultur / T\u00fcrkenschanze"
            }
        },
        {
            "type": "Feature",
            "geometry": {
                "type": "Point",
                "coordinates": [
                    11.3429787,
                    47.2645611
                ]
            },
            "properties": {
                "name": "Labortrakt Ost"
            }
        },
        {
            "type": "Feature",
            "geometry": {
                "type": "Point",
                "coordinates": [
                    15.4064793,
                    47.0694381
                ]
            },
            "properties": {
                "name": "FH Joanneum"
            }
        },
        {
            "type": "Feature",
            "geometry": {
                "type": "Point",
                "coordinates": [
                    15.4626952,
                    47.0590653
                ]
            }
        },
        {
            "type": "Feature",
            "geometry": {
                "type": "Point",
                "coordinates": [
                    16.3524844,
                    48.2191016
                ]
            },
            "properties": {
                "name": "Medizinische Universit\u00e4t Wien"
            }
        },
        {
            "type": "Feature",
            "geometry": {
                "type": "Point",
                "coordinates": [
                    16.3521843,
                    48.2185171
                ]
            },
            "properties": {
                "name": "Meduni Wien - Zentrum f\u00fcr Hirnforschung"
            }
        },
        {
            "type": "Feature",
            "geometry": {
                "type": "Point",
                "coordinates": [
                    15.09146,
                    47.3827549
                ]
            }
        },
        {
            "type": "Feature",
            "geometry": {
                "type": "Point",
                "coordinates": [
                    13.0597977,
                    47.7882432
                ]
            },
            "properties": {
                "name": "GI Studio (D)"
            }
        },
        {
            "type": "Feature",
            "geometry": {
                "type": "Point",
                "coordinates": [
                    13.0597322,
                    47.7885304
                ]
            },
            "properties": {
                "name": "Blauer H\u00f6rsaal, B, (HS 402)"
            }
        },
        {
            "type": "Feature",
            "geometry": {
                "type": "Point",
                "coordinates": [
                    13.0597702,
                    47.7883871
                ]
            },
            "properties": {
                "name": "Gr\u00fcner H\u00f6rsaal, C (HS 403)"
            }
        },
        {
            "type": "Feature",
            "geometry": {
                "type": "Point",
                "coordinates": [
                    16.3817314,
                    48.1580101
                ]
            },
            "properties": {
                "name": "FH Campus Wien"
            }
        },
        {
            "type": "Feature",
            "geometry": {
                "type": "Point",
                "coordinates": [
                    9.7443006,
                    47.4066564
                ]
            },
            "properties": {
                "name": "V"
            }
        },
        {
            "type": "Feature",
            "geometry": {
                "type": "Point",
                "coordinates": [
                    9.7444426,
                    47.4068313
                ]
            },
            "properties": {
                "name": "W"
            }
        },
        {
            "type": "Feature",
            "geometry": {
                "type": "Point",
                "coordinates": [
                    9.7446758,
                    47.406502
                ]
            },
            "properties": {
                "name": "U Fachhochschule Dornbirn"
            }
        },
        {
            "type": "Feature",
            "geometry": {
                "type": "Point",
                "coordinates": [
                    16.3620695,
                    48.1999408
                ]
            },
            "properties": {
                "name": "Semperdepot, Atelierhaus der Akademie der Bildenden K\u00fcnste"
            }
        },
        {
            "type": "Feature",
            "geometry": {
                "type": "Point",
                "coordinates": [
                    14.3047874,
                    48.3076119
                ]
            },
            "properties": {
                "name": "P\u00e4dagogische Hochschule Ober\u00f6sterreich"
            }
        },
        {
            "type": "Feature",
            "geometry": {
                "type": "Point",
                "coordinates": [
                    15.4541316,
                    47.0813307
                ]
            },
            "properties": {
                "name": "Universit\u00e4t Graz - Universit\u00e4tszentrum Theologie (UZT)"
            }
        },
        {
            "type": "Feature",
            "geometry": {
                "type": "Point",
                "coordinates": [
                    14.3112138,
                    48.3017996
                ]
            },
            "properties": {
                "name": "Fachhochschule Ober\u00f6sterreich - Fakult\u00e4t f\u00fcr Gesundheit/Soziales"
            }
        },
        {
            "type": "Feature",
            "geometry": {
                "type": "Point",
                "coordinates": [
                    9.7497679,
                    47.5029334
                ]
            },
            "properties": {
                "name": "Zentrum f\u00fcr Fernstudien \u00d6sterreich - Bregenz"
            }
        },
        {
            "type": "Feature",
            "geometry": {
                "type": "Point",
                "coordinates": [
                    16.3312093,
                    48.2365144
                ]
            },
            "properties": {
                "name": "Universit\u00e4t f\u00fcr Bodenkultur / Institut f\u00fcr Hydrobiologie und Gew\u00e4ssermanagement (IHG)"
            }
        },
        {
            "type": "Feature",
            "geometry": {
                "type": "Point",
                "coordinates": [
                    16.3400001,
                    48.2342142
                ]
            },
            "properties": {
                "name": "Universit\u00e4t f\u00fcr Bodenkultur / Institut f\u00fcr Forstentomologie, Forstpathologie und Forstschutz (IFFF)"
            }
        },
        {
            "type": "Feature",
            "geometry": {
                "type": "Point",
                "coordinates": [
                    16.260436,
                    48.3095421
                ]
            },
            "properties": {
                "name": "IST Austria Lab Building"
            }
        },
        {
            "type": "Feature",
            "geometry": {
                "type": "Point",
                "coordinates": [
                    15.4401809,
                    47.0894251
                ]
            },
            "properties": {
                "name": "Campus 02"
            }
        },
        {
            "type": "Feature",
            "geometry": {
                "type": "Point",
                "coordinates": [
                    15.3318853,
                    47.4535605
                ]
            },
            "properties": {
                "name": "FH-Joanneum"
            }
        },
        {
            "type": "Feature",
            "geometry": {
                "type": "Point",
                "coordinates": [
                    14.4171986,
                    48.0429188
                ]
            },
            "properties": {
                "name": "Fachhochschule Steyr"
            }
        },
        {
            "type": "Feature",
            "geometry": {
                "type": "Point",
                "coordinates": [
                    14.418472,
                    48.0429307
                ]
            },
            "properties": {
                "name": "Fachhochschule Steyr"
            }
        },
        {
            "type": "Feature",
            "geometry": {
                "type": "Point",
                "coordinates": [
                    15.4935129,
                    47.0670941
                ]
            },
            "properties": {
                "name": "Observatorium Lustb\u00fchel"
            }
        },
        {
            "type": "Feature",
            "geometry": {
                "type": "Point",
                "coordinates": [
                    14.5135843,
                    48.3681349
                ]
            }
        },
        {
            "type": "Feature",
            "geometry": {
                "type": "Point",
                "coordinates": [
                    16.3580861,
                    48.2181032
                ]
            },
            "properties": {
                "name": "Institut f\u00fcr Pharmakologie"
            }
        },
        {
            "type": "Feature",
            "geometry": {
                "type": "Point",
                "coordinates": [
                    13.0541787,
                    47.7948016
                ]
            },
            "properties": {
                "name": "Universit\u00e4t Salzburg - Unipark"
            }
        },
        {
            "type": "Feature",
            "geometry": {
                "type": "Point",
                "coordinates": [
                    15.4092371,
                    47.0687151
                ]
            },
            "properties": {
                "name": "FH Joanneum"
            }
        },
        {
            "type": "Feature",
            "geometry": {
                "type": "Point",
                "coordinates": [
                    11.4509076,
                    47.2061421
                ]
            },
            "properties": {
                "name": "Klimahaus"
            }
        },
        {
            "type": "Feature",
            "geometry": {
                "type": "Point",
                "coordinates": [
                    15.4579335,
                    47.0579202
                ]
            }
        },
        {
            "type": "Feature",
            "geometry": {
                "type": "Point",
                "coordinates": [
                    15.4475977,
                    47.0785572
                ]
            }
        },
        {
            "type": "Feature",
            "geometry": {
                "type": "Point",
                "coordinates": [
                    16.2403158,
                    48.2176441
                ]
            },
            "properties": {
                "name": "Forstlicher Versuchsgarten \"Kn\u00f6delh\u00fctte\""
            }
        },
        {
            "type": "Feature",
            "geometry": {
                "type": "Point",
                "coordinates": [
                    15.4076112,
                    47.0697477
                ]
            },
            "properties": {
                "name": "FH Joanneum"
            }
        },
        {
            "type": "Feature",
            "geometry": {
                "type": "Point",
                "coordinates": [
                    16.3672345,
                    48.2470665
                ]
            },
            "properties": {
                "name": "Universit\u00e4t f\u00fcr Bodenkultur Wien \u2013 Standort Muthgasse"
            }
        },
        {
            "type": "Feature",
            "geometry": {
                "type": "Point",
                "coordinates": [
                    16.3560121,
                    48.2199815
                ]
            },
            "properties": {
                "name": "Fakult\u00e4t f\u00fcr Informatik / Institut f\u00fcr Publizistik- und Kommunikationswissenschaft der Universit\u00e4t Wien"
            }
        },
        {
            "type": "Feature",
            "geometry": {
                "type": "Point",
                "coordinates": [
                    14.2915053,
                    48.3036626
                ]
            },
            "properties": {
                "name": "Katholische Theologische Universit\u00e4t"
            }
        },
        {
            "type": "Feature",
            "geometry": {
                "type": "Point",
                "coordinates": [
                    16.0679684,
                    48.3191447
                ]
            },
            "properties": {
                "name": "Universit\u00e4t f\u00fcr Bodenkultur Wien / Standort Tulln"
            }
        },
        {
            "type": "Feature",
            "geometry": {
                "type": "Point",
                "coordinates": [
                    14.2692632,
                    48.3108254
                ]
            },
            "properties": {
                "name": "Anton Bruckner Privatuniversit\u00e4t"
            }
        },
        {
            "type": "Feature",
            "geometry": {
                "type": "Point",
                "coordinates": [
                    15.4528247,
                    47.0650776
                ]
            },
            "properties": {
                "name": "Haus der Biokatalyse"
            }
        },
        {
            "type": "Feature",
            "geometry": {
                "type": "Point",
                "coordinates": [
                    15.4521016,
                    47.0650389
                ]
            }
        },
        {
            "type": "Feature",
            "geometry": {
                "type": "Point",
                "coordinates": [
                    11.5174899,
                    47.2836533
                ]
            },
            "properties": {
                "name": "UMIT"
            }
        },
        {
            "type": "Feature",
            "geometry": {
                "type": "Point",
                "coordinates": [
                    16.3692379,
                    48.2527504
                ]
            },
            "properties": {
                "name": "Universit\u00e4t f\u00fcr Bodenkultur Wien \u2013 Standort Muthgasse 107"
            }
        },
        {
            "type": "Feature",
            "geometry": {
                "type": "Point",
                "coordinates": [
                    13.043643,
                    47.8036824
                ]
            },
            "properties": {
                "name": "Universit\u00e4t Mozarteum"
            }
        },
        {
            "type": "Feature",
            "geometry": {
                "type": "Point",
                "coordinates": [
                    14.3234428,
                    48.3355984
                ]
            },
            "properties": {
                "name": "Science Park"
            }
        },
        {
            "type": "Feature",
            "geometry": {
                "type": "Point",
                "coordinates": [
                    16.4031865,
                    48.2191527
                ]
            },
            "properties": {
                "name": "Fachhochschule des BFI Wien"
            }
        },
        {
            "type": "Feature",
            "geometry": {
                "type": "Point",
                "coordinates": [
                    16.5615645,
                    48.1992951
                ]
            },
            "properties": {
                "name": "Versuchswirtschaft Gro\u00df-Enzersdorf der Universit\u00e4t f\u00fcr Bodenkultur Wien"
            }
        },
        {
            "type": "Feature",
            "geometry": {
                "type": "Point",
                "coordinates": [
                    13.0598569,
                    47.7885452
                ]
            }
        },
        {
            "type": "Feature",
            "geometry": {
                "type": "Point",
                "coordinates": [
                    15.1393181,
                    48.1390619
                ]
            },
            "properties": {
                "name": "Fachhochschule Wiener Neustadt Campus Wieselburg"
            }
        },
        {
            "type": "Feature",
            "geometry": {
                "type": "Point",
                "coordinates": [
                    13.0868706,
                    47.7236261
                ]
            }
        },
        {
            "type": "Feature",
            "geometry": {
                "type": "Point",
                "coordinates": [
                    16.2591966,
                    48.3100214
                ]
            },
            "properties": {
                "name": "Raiffeisen Lecture Hall"
            }
        },
        {
            "type": "Feature",
            "geometry": {
                "type": "Point",
                "coordinates": [
                    16.2831606,
                    48.2200372
                ]
            },
            "properties": {
                "name": "Forschungsinstitut f\u00fcr Wildtierkunde und \u00d6kologie der Veterin\u00e4rmedizinischen Universit\u00e4t Wien"
            }
        },
        {
            "type": "Feature",
            "geometry": {
                "type": "Point",
                "coordinates": [
                    16.2843936,
                    48.2204114
                ]
            },
            "properties": {
                "name": "Konrad-Lorenz-Institut f\u00fcr Vergleichende Verhaltensforschung der Veterin\u00e4rmedizinischen Universit\u00e4t Wien"
            }
        },
        {
            "type": "Feature",
            "geometry": {
                "type": "Point",
                "coordinates": [
                    9.7437443,
                    47.4059024
                ]
            },
            "properties": {
                "name": "Fachhochschule Dornbirn"
            }
        },
        {
            "type": "Feature",
            "geometry": {
                "type": "Point",
                "coordinates": [
                    9.7440463,
                    47.4059048
                ]
            }
        },
        {
            "type": "Feature",
            "geometry": {
                "type": "Point",
                "coordinates": [
                    9.7430584,
                    47.4061626
                ]
            }
        },
        {
            "type": "Feature",
            "geometry": {
                "type": "Point",
                "coordinates": [
                    9.7438655,
                    47.4056584
                ]
            }
        },
        {
            "type": "Feature",
            "geometry": {
                "type": "Point",
                "coordinates": [
                    9.7445027,
                    47.4057781
                ]
            }
        },
        {
            "type": "Feature",
            "geometry": {
                "type": "Point",
                "coordinates": [
                    9.7435834,
                    47.4060937
                ]
            }
        },
        {
            "type": "Feature",
            "geometry": {
                "type": "Point",
                "coordinates": [
                    16.3528595,
                    48.2425908
                ]
            },
            "properties": {
                "name": "Lauder Business School"
            }
        },
        {
            "type": "Feature",
            "geometry": {
                "type": "Point",
                "coordinates": [
                    16.3624168,
                    48.1874595
                ]
            },
            "properties": {
                "name": "Institut f\u00fcr Hochenergiephysik"
            }
        },
        {
            "type": "Feature",
            "geometry": {
                "type": "Point",
                "coordinates": [
                    15.4595604,
                    47.0595165
                ]
            }
        },
        {
            "type": "Feature",
            "geometry": {
                "type": "Point",
                "coordinates": [
                    16.427652,
                    48.2882118
                ]
            },
            "properties": {
                "name": "Versuchszentrum Jedlersdorf der Universit\u00e4t f\u00fcr Bodenkultur"
            }
        },
        {
            "type": "Feature",
            "geometry": {
                "type": "Point",
                "coordinates": [
                    15.0420399,
                    47.851538
                ]
            },
            "properties": {
                "name": "WasserCluster Lunz am See"
            }
        },
        {
            "type": "Feature",
            "geometry": {
                "type": "Point",
                "coordinates": [
                    16.2663866,
                    48.1843765
                ]
            },
            "properties": {
                "name": "Hochschule f\u00fcr Agrar- und Umweltp\u00e4dagogik"
            }
        },
        {
            "type": "Feature",
            "geometry": {
                "type": "Point",
                "coordinates": [
                    16.3565568,
                    48.2486288
                ]
            },