{
    "type": "FeatureCollection",
    "features": [
        {
            "type": "Feature",
            "geometry": {
                "type": "Point",
                "coordinates": [
                    6.1328044,
                    46.1981489
                ]
            },
            "properties": {
                "name": "Sciences II & Sciences III"
            }
        },
        {
            "type": "Feature",
            "geometry": {
                "type": "Point",
                "coordinates": [
                    6.2524845,
                    46.2246553
                ]
            },
            "properties": {
                "name": "HES-SO Ecole d'Ing\u00e9nieur de Lullier (EIL)"
            }
        },
        {
            "type": "Feature",
            "geometry": {
                "type": "Point",
                "coordinates": [
                    8.2136455,
                    47.4795981
                ]
            },
            "properties": {
                "name": "Fachhochschule Nordwestschweiz"
            }
        },
        {
            "type": "Feature",
            "geometry": {
                "type": "Point",
                "coordinates": [
                    7.1560079,
                    46.7961823
                ]
            },
            "properties": {
                "name": "Universit\u00e9 de Fribourg / Universit\u00e4t Freiburg Regina Mundi"
            }
        },
        {
            "type": "Feature",
            "geometry": {
                "type": "Point",
                "coordinates": [
                    7.1581669,
                    46.7932224
                ]
            },
            "properties": {
                "name": "Universit\u00e9 de Fribourg P\u00e9rolles"
            }
        },
        {
            "type": "Feature",
            "geometry": {
                "type": "Point",
                "coordinates": [
                    8.9172212,
                    46.0235137
                ]
            },
            "properties": {
                "name": "Scuola Universitaria Professionale della Svizzera Italiana SUPSI"
            }
        },
        {
            "type": "Feature",
            "geometry": {
                "type": "Point",
                "coordinates": [
                    6.5731071,
                    46.5278413
                ]
            },
            "properties": {
                "name": "IDHEAP"
            }
        },
        {
            "type": "Feature",
            "geometry": {
                "type": "Point",
                "coordinates": [
                    8.3373979,
                    47.0059976
                ]
            },
            "properties": {
                "name": "IMI-Luzern"
            }
        },
        {
            "type": "Feature",
            "geometry": {
                "type": "Point",
                "coordinates": [
                    6.1395268,
                    46.175068
                ]
            },
            "properties": {
                "name": "Haute \u00e9cole de gestion de Gen\u00e8ve - HEG"
            }
        },
        {
            "type": "Feature",
            "geometry": {
                "type": "Point",
                "coordinates": [
                    8.3212715,
                    47.0607119
                ]
            },
            "properties": {
                "name": "Hochschule Luzern"
            }
        },
        {
            "type": "Feature",
            "geometry": {
                "type": "Point",
                "coordinates": [
                    6.1703644,
                    46.2741822
                ]
            },
            "properties": {
                "name": "Institut F.-A. Forel (UNIGE)"
            }
        },
        {
            "type": "Feature",
            "geometry": {
                "type": "Point",
                "coordinates": [
                    9.5127486,
                    46.8526982
                ]
            },
            "properties": {
                "name": "Hochschule f\u00fcr Technik und Wirtschaft HTW Chur"
            }
        },
        {
            "type": "Feature",
            "geometry": {
                "type": "Point",
                "coordinates": [
                    6.1412632,
                    46.2090749
                ]
            },
            "properties": {
                "name": "Haute \u00e9cole d'arts et de design (HEAD)"
            }
        },
        {
            "type": "Feature",
            "geometry": {
                "type": "Point",
                "coordinates": [
                    7.4258117,
                    46.9575701
                ]
            },
            "properties": {
                "name": "Schweineklinik"
            }
        },
        {
            "type": "Feature",
            "geometry": {
                "type": "Point",
                "coordinates": [
                    8.2659437,
                    47.0494032
                ]
            },
            "properties": {
                "name": "Hochschule Luzern - Design & Kunst"
            }
        },
        {
            "type": "Feature",
            "geometry": {
                "type": "Point",
                "coordinates": [
                    6.1347422,
                    46.1970538
                ]
            },
            "properties": {
                "name": "\u00c9cole de physique"
            }
        },
        {
            "type": "Feature",
            "geometry": {
                "type": "Point",
                "coordinates": [
                    6.1109613,
                    46.201591
                ]
            },
            "properties": {
                "name": "cmefe (inSTI) (hepia)"
            }
        },
        {
            "type": "Feature",
            "geometry": {
                "type": "Point",
                "coordinates": [
                    6.1388565,
                    46.1765709
                ]
            },
            "properties": {
                "name": "Villa de Math\u00e9matiques"
            }
        },
        {
            "type": "Feature",
            "geometry": {
                "type": "Point",
                "coordinates": [
                    6.1378684,
                    46.1955272
                ]
            },
            "properties": {
                "name": "Universit\u00e9 de Gen\u00e8ve - Baud-Bovy"
            }
        },
        {
            "type": "Feature",
            "geometry": {
                "type": "Point",
                "coordinates": [
                    6.6239129,
                    46.519732
                ]
            },
            "properties": {
                "name": "BNF \u2013 Universit\u00e4t Bern"
            }
        },
        {
            "type": "Feature",
            "geometry": {
                "type": "Point",
                "coordinates": [
                    6.1376391,
                    46.1918919
                ]
            },
            "properties": {
                "name": "Universit\u00e9 de Gen\u00e8ve - Section de Math\u00e9matiques"
            }
        },
        {
            "type": "Feature",
            "geometry": {
                "type": "Point",
                "coordinates": [
                    7.5949396,
                    47.5458689
                ]
            },
            "properties": {
                "name": "Fachhochschule Nordwestschweiz Hochschule f\u00fcr Wirtschaft"
            }
        },
        {
            "type": "Feature",
            "geometry": {
                "type": "Point",
                "coordinates": [
                    9.5099709,
                    46.8475609
                ]
            },
            "properties": {
                "name": "Hochschule f\u00fcr Technik und Wirtschaft HTW Chur"
            }
        },
        {
            "type": "Feature",
            "geometry": {
                "type": "Point",
                "coordinates": [
                    9.5144113,
                    46.8537668
                ]
            },
            "properties": {
                "name": "Hochschule f\u00fcr Technik und Wirtschaft HTW Chur"
            }
        },
        {
            "type": "Feature",
            "geometry": {
                "type": "Point",
                "coordinates": [
                    7.4352755,
                    46.9517563
                ]
            },
            "properties": {
                "name": "Institut Theaterwissenschaft"
            }
        },
        {
            "type": "Feature",
            "geometry": {
                "type": "Point",
                "coordinates": [
                    7.4350204,
                    46.952598
                ]
            },
            "properties": {
                "name": "Berner Fachhochschule BFH - Soziale Arbeit"
            }
        },
        {
            "type": "Feature",
            "geometry": {
                "type": "Point",
                "coordinates": [
                    7.4352993,
                    46.9518061
                ]
            },
            "properties": {
                "name": "Institut Musikwissenschaft"
            }
        },
        {
            "type": "Feature",
            "geometry": {
                "type": "Point",
                "coordinates": [
                    7.4346078,
                    46.9518673
                ]
            },
            "properties": {
                "name": "Institut f\u00fcr Arch\u00e4ologische Wissenschaften"
            }
        },
        {
            "type": "Feature",
            "geometry": {
                "type": "Point",
                "coordinates": [
                    7.4382553,
                    46.9540565
                ]
            },
            "properties": {
                "name": "Institut Statistik"
            }
        },
        {
            "type": "Feature",
            "geometry": {
                "type": "Point",
                "coordinates": [
                    7.4319807,
                    46.9621102
                ]
            },
            "properties": {
                "name": "Institut Sportwissenschaft"
            }
        },
        {
            "type": "Feature",
            "geometry": {
                "type": "Point",
                "coordinates": [
                    7.4405469,
                    46.9536771
                ]
            },
            "properties": {
                "name": "Institut Unternehmensrechnung und Controlling IUC"
            }
        },
        {
            "type": "Feature",
            "geometry": {
                "type": "Point",
                "coordinates": [
                    7.4397823,
                    46.953506
                ]
            },
            "properties": {
                "name": "Institut Informatik und angewandte Mathematik IAM"
            }
        },
        {
            "type": "Feature",
            "geometry": {
                "type": "Point",
                "coordinates": [
                    7.4396906,
                    46.9539446
                ]
            },
            "properties": {
                "name": "Institut Wirtschaftsinformatik IWI"
            }
        },
        {
            "type": "Feature",
            "geometry": {
                "type": "Point",
                "coordinates": [
                    7.4401458,
                    46.9540596
                ]
            },
            "properties": {
                "name": "Institut Finanzmanagement IFM"
            }
        },
        {
            "type": "Feature",
            "geometry": {
                "type": "Point",
                "coordinates": [
                    7.4402821,
                    46.9539295
                ]
            },
            "properties": {
                "name": "Institut Marketing und Unternehmensf\u00fchrung IMU"
            }
        },
        {
            "type": "Feature",
            "geometry": {
                "type": "Point",
                "coordinates": [
                    7.4404117,
                    46.9538059
                ]
            },
            "properties": {
                "name": "Institut Organisation und Personal IOP"
            }
        },
        {
            "type": "Feature",
            "geometry": {
                "type": "Point",
                "coordinates": [
                    6.136766,
                    46.1972358
                ]
            },
            "properties": {
                "name": "Uni Carl Vogt"
            }
        },
        {
            "type": "Feature",
            "geometry": {
                "type": "Point",
                "coordinates": [
                    8.5402012,
                    47.4107931
                ]
            },
            "properties": {
                "name": "Universit\u00e4t Z\u00fcrich, Oerlikon (AFL)"
            }
        },
        {
            "type": "Feature",
            "geometry": {
                "type": "Point",
                "coordinates": [
                    7.4359202,
                    46.9511146
                ]
            },
            "properties": {
                "name": "Oeschger Centre for Climate Change Research"
            }
        },
        {
            "type": "Feature",
            "geometry": {
                "type": "Point",
                "coordinates": [
                    7.5752961,
                    47.5612651
                ]
            },
            "properties": {
                "name": "Faculty of Psychology, University of Basel"
            }
        },
        {
            "type": "Feature",
            "geometry": {
                "type": "Point",
                "coordinates": [
                    7.4255523,
                    46.9573869
                ]
            },
            "properties": {
                "name": "OP"
            }
        },
        {
            "type": "Feature",
            "geometry": {
                "type": "Point",
                "coordinates": [
                    7.4252911,
                    46.9569258
                ]
            },
            "properties": {
                "name": "Radiologie Grosstiere"
            }
        },
        {
            "type": "Feature",
            "geometry": {
                "type": "Point",
                "coordinates": [
                    7.4248316,
                    46.9567165
                ]
            },
            "properties": {
                "name": "Kleintierklinik"
            }
        },
        {
            "type": "Feature",
            "geometry": {
                "type": "Point",
                "coordinates": [
                    7.4257858,
                    46.9565096
                ]
            },
            "properties": {
                "name": "H\u00f6rsaal"
            }
        },
        {
            "type": "Feature",
            "geometry": {
                "type": "Point",
                "coordinates": [
                    7.425706,
                    46.9564666
                ]
            },
            "properties": {
                "name": "Pharmakologie"
            }
        },
        {
            "type": "Feature",
            "geometry": {
                "type": "Point",
                "coordinates": [
                    7.4269125,
                    46.9575524
                ]
            },
            "properties": {
                "name": "Wildtiere, Fische"
            }
        },
        {
            "type": "Feature",
            "geometry": {
                "type": "Point",
                "coordinates": [
                    7.4259719,
                    46.9563047
                ]
            },
            "properties": {
                "name": "Empfang"
            }
        },
        {
            "type": "Feature",
            "geometry": {
                "type": "Point",
                "coordinates": [
                    7.4268511,
                    46.9568147
                ]
            },
            "properties": {
                "name": "Freigehege"
            }
        },
        {
            "type": "Feature",
            "geometry": {
                "type": "Point",
                "coordinates": [
                    7.4260666,
                    46.9577472
                ]
            },
            "properties": {
                "name": "H\u00f6rsaal, Klinikhalle, OP mit Galerie"
            }
        },
        {
            "type": "Feature",
            "geometry": {
                "type": "Point",
                "coordinates": [
                    7.4262845,
                    46.9579216
                ]
            },
            "properties": {
                "name": "Wiederk\u00e4uerklinik"
            }
        },
        {
            "type": "Feature",
            "geometry": {
                "type": "Point",
                "coordinates": [
                    7.428601,
                    46.9531815
                ]
            },
            "properties": {
                "name": "Institut Sekundarstufe I"
            }
        },
        {
            "type": "Feature",
            "geometry": {
                "type": "Point",
                "coordinates": [
                    7.4284334,
                    46.9530245
                ]
            },
            "properties": {
                "name": "Zentrum Bildungsinformatik"
            }
        },
        {
            "type": "Feature",
            "geometry": {
                "type": "Point",
                "coordinates": [
                    7.4295509,
                    46.9513432
                ]
            },
            "properties": {
                "name": "Institut f\u00fcr Anatomie"
            }
        },
        {
            "type": "Feature",
            "geometry": {
                "type": "Point",
                "coordinates": [
                    7.4298003,
                    46.9517029
                ]
            },
            "properties": {
                "name": "Institut f\u00fcr Medizingeschichte"
            }
        },
        {
            "type": "Feature",
            "geometry": {
                "type": "Point",
                "coordinates": [
                    7.4271014,
                    46.9571285
                ]
            },
            "properties": {
                "name": "Bakteriologie, Pathologie"
            }
        },
        {
            "type": "Feature",
            "geometry": {
                "type": "Point",
                "coordinates": [
                    7.4275815,
                    46.9568832
                ]
            },
            "properties": {
                "name": "H\u00f6rsaal"
            }
        },
        {
            "type": "Feature",
            "geometry": {
                "type": "Point",
                "coordinates": [
                    7.4274166,
                    46.9569427
                ]
            },
            "properties": {
                "name": "Virologie"
            }
        },
        {
            "type": "Feature",
            "geometry": {
                "type": "Point",
                "coordinates": [
                    7.4267733,
                    46.9573419
                ]
            },
            "properties": {
                "name": "Parasitologie"
            }
        },
        {
            "type": "Feature",
            "geometry": {
                "type": "Point",
                "coordinates": [
                    8.549618,
                    47.4143683
                ]
            },
            "properties": {
                "name": "Universit\u00e4t Z\u00fcrich, Oerlikon (BIN)"
            }
        },
        {
            "type": "Feature",
            "geometry": {
                "type": "Point",
                "coordinates": [
                    8.5487502,
                    47.4131889
                ]
            },
            "properties": {
                "name": "Universit\u00e4t Z\u00fcrich, Oerlikon (AND)"
            }
        },
        {
            "type": "Feature",
            "geometry": {
                "type": "Point",
                "coordinates": [
                    7.4350051,
                    46.9522328
                ]
            },
            "properties": {
                "name": "Institut Musikwissenschaft"
            }
        },
        {
            "type": "Feature",
            "geometry": {
                "type": "Point",
                "coordinates": [
                    7.4347377,
                    46.9522299
                ]
            },
            "properties": {
                "name": "Institut Theaterwissenschaft"
            }
        },
        {
            "type": "Feature",
            "geometry": {
                "type": "Point",
                "coordinates": [
                    6.9242308,
                    46.4250067
                ]
            },
            "properties": {
                "name": "MBU"
            }
        },
        {
            "type": "Feature",
            "geometry": {
                "type": "Point",
                "coordinates": [
                    6.1421224,
                    46.195123
                ]
            },
            "properties": {
                "name": "Universit\u00e9 de Gen\u00e8ve - CIGEV"
            }
        },
        {
            "type": "Feature",
            "geometry": {
                "type": "Point",
                "coordinates": [
                    8.5451118,
                    47.3803138
                ]
            }
        },
        {
            "type": "Feature",
            "geometry": {
                "type": "Point",
                "coordinates": [
                    8.5468051,
                    47.3761174
                ]
            }
        },
        {
            "type": "Feature",
            "geometry": {
                "type": "Point",
                "coordinates": [
                    6.1442708,
                    46.199508
                ]
            },
            "properties": {
                "name": "Universit\u00e9 de Gen\u00e8ve - Uni Bastions (aile Jura)"
            }
        },
        {
            "type": "Feature",
            "geometry": {
                "type": "Point",
                "coordinates": [
                    6.5661742,
                    46.5187397
                ]
            },
            "properties": {
                "name": "\u00c9cole Polytechnique F\u00e9d\u00e9rale de Lausanne"
            }
        },
        {
            "type": "Feature",
            "geometry": {
                "type": "Point",
                "coordinates": [
                    6.5798054,
                    46.5225409
                ]
            },
            "properties": {
                "name": "Universit\u00e9 de Lausanne"
            }
        },
        {
            "type": "Feature",
            "geometry": {
                "type": "Point",
                "coordinates": [
                    8.5527119,
                    47.377663
                ]
            }
        },
        {
            "type": "Feature",
            "geometry": {
                "type": "Point",
                "coordinates": [
                    8.5522841,
                    47.3774057
                ]
            }
        },
        {
            "type": "Feature",
            "geometry": {
                "type": "Point",
                "coordinates": [
                    8.5475416,
                    47.3777794
                ]
            }
        },
        {
            "type": "Feature",
            "geometry": {
                "type": "Point",
                "coordinates": [
                    8.2290538,
                    47.5390837
                ]
            },
            "properties": {
                "name": "Paul Scherrer Institut"
            }
        },
        {
            "type": "Feature",
            "geometry": {
                "type": "Point",
                "coordinates": [
                    8.2270052,
                    47.5364703
                ]
            },
            "properties": {
                "name": "Paul Scherrer Institut"
            }
        },
        {
            "type": "Feature",
            "geometry": {
                "type": "Point",
                "coordinates": [
                    8.2232657,
                    47.5391557
                ]
            },
            "properties": {
                "name": "Paul Scherrer Institut"
            }
        },
        {
            "type": "Feature",
            "geometry": {
                "type": "Point",
                "coordinates": [
                    7.1523058,
                    46.8064103
                ]
            },
            "properties": {
                "name": "Universit\u00e9 de Fribourg Mis\u00e9ricorde"
            }
        },
        {
            "type": "Feature",
            "geometry": {
                "type": "Point",
                "coordinates": [
                    8.5529613,
                    47.3778286
                ]
            },
            "properties": {
                "name": "Scherrer-H\u00f6rsaal"
            }
        },
        {
            "type": "Feature",
            "geometry": {
                "type": "Point",
                "coordinates": [
                    8.5510901,
                    47.3725718
                ]
            }
        },
        {
            "type": "Feature",
            "geometry": {
                "type": "Point",
                "coordinates": [
                    8.5513708,
                    47.3728248
                ]
            }
        },
        {
            "type": "Feature",
            "geometry": {
                "type": "Point",
                "coordinates": [
                    8.5485721,
                    47.3714753
                ]
            }
        },
        {
            "type": "Feature",
            "geometry": {
                "type": "Point",
                "coordinates": [
                    8.2218569,
                    47.5357893
                ]
            },
            "properties": {
                "name": "Paul Scherrer Institut"
            }
        },
        {
            "type": "Feature",
            "geometry": {
                "type": "Point",
                "coordinates": [
                    8.5083973,
                    47.4083113
                ]
            },
            "properties": {
                "name": "ETH Z\u00fcrich, H\u00f6nggerberg"
            }
        },
        {
            "type": "Feature",
            "geometry": {
                "type": "Point",
                "coordinates": [
                    8.1981654,
                    47.4846998
                ]
            },
            "properties": {
                "name": "Berufsfachschule Gesundheit und Soziales"
            }
        },
        {
            "type": "Feature",
            "geometry": {
                "type": "Point",
                "coordinates": [
                    8.1986772,
                    47.4851789
                ]
            },
            "properties": {
                "name": "Berufsfachschule Gesundheit und Soziales"
            }
        },
        {
            "type": "Feature",
            "geometry": {
                "type": "Point",
                "coordinates": [
                    7.2135342,
                    47.138251
                ]
            },
            "properties": {
                "name": "Eidgen\u00f6ssische Hochschule f\u00fcr Sport Magglingen EHSM"
            }
        },
        {
            "type": "Feature",
            "geometry": {
                "type": "Point",
                "coordinates": [
                    7.2094613,
                    47.1385569
                ]
            },
            "properties": {
                "name": "Sportmedizin"
            }
        },
        {
            "type": "Feature",
            "geometry": {
                "type": "Point",
                "coordinates": [
                    8.550828,
                    47.371666
                ]
            }
        },
        {
            "type": "Feature",
            "geometry": {
                "type": "Point",
                "coordinates": [
                    8.5511764,
                    47.371988
                ]
            }
        },
        {
            "type": "Feature",
            "geometry": {
                "type": "Point",
                "coordinates": [
                    8.5526842,
                    47.3020051
                ]
            },
            "properties": {
                "name": "Gottlieb-Duttweiler-Institut"
            }
        },
        {
            "type": "Feature",
            "geometry": {
                "type": "Point",
                "coordinates": [
                    6.5883103,
                    46.5371466
                ]
            },
            "properties": {
                "name": "ECAL"
            }
        },
        {
            "type": "Feature",
            "geometry": {
                "type": "Point",
                "coordinates": [
                    8.6879949,
                    47.2189567
                ]
            },
            "properties": {
                "name": "ZHAW - Departement Life Sciences und Facility Management"
            }
        },
        {
            "type": "Feature",
            "geometry": {
                "type": "Point",
                "coordinates": [
                    8.5492237,
                    47.3731029
                ]
            }
        },
        {
            "type": "Feature",
            "geometry": {
                "type": "Point",
                "coordinates": [
                    8.5578865,
                    47.3702334
                ]
            }
        },
        {
            "type": "Feature",
            "geometry": {
                "type": "Point",
                "coordinates": [
                    6.659617,
                    46.7794045
                ]
            },
            "properties": {
                "name": "Haute Ecole d'Ing\u00e9nierie et de Gestion du Canton de Vaud (HEIG-VD)"
            }
        },
        {
            "type": "Feature",
            "geometry": {
                "type": "Point",
                "coordinates": [
                    6.9405404,
                    46.9937836
                ]
            },
            "properties": {
                "name": "UniNE Facult\u00e9 des sciences \u00e9conomiques"
            }
        },
        {
            "type": "Feature",
            "geometry": {
                "type": "Point",
                "coordinates": [
                    6.9396766,
                    46.9939476
                ]
            },
            "properties": {
                "name": "UNINE Facult\u00e9 de droit"
            }
        },
        {
            "type": "Feature",
            "geometry": {
                "type": "Point",
                "coordinates": [
                    6.9387069,
                    46.9938904
                ]
            },
            "properties": {
                "name": "UNINE Facult\u00e9 de droit"
            }
        },
        {
            "type": "Feature",
            "geometry": {
                "type": "Point",
                "coordinates": [
                    6.5794124,
                    46.5265294
                ]
            },
            "properties": {
                "name": "Geopolis"
            }
        },
        {
            "type": "Feature",
            "geometry": {
                "type": "Point",
                "coordinates": [
                    6.9424366,
                    46.993757
                ]
            },
            "properties": {
                "name": "Aula des Jeunes Rives"
            }
        },
        {
            "type": "Feature",
            "geometry": {
                "type": "Point",
                "coordinates": [
                    6.9421569,
                    46.9932301
                ]
            },
            "properties": {
                "name": "UniNE Facult\u00e9 des lettres et sciences humaines"
            }
        },
        {
            "type": "Feature",
            "geometry": {
                "type": "Point",
                "coordinates": [
                    8.549486,
                    47.3973542
                ]
            },
            "properties": {
                "name": "Universit\u00e4t Z\u00fcrich, Irchel"
            }
        },
        {
            "type": "Feature",
            "geometry": {
                "type": "Point",
                "coordinates": [
                    7.4404504,
                    46.9423651
                ]
            },
            "properties": {
                "name": "BFH Wirtschaft"
            }
        },
        {
            "type": "Feature",
            "geometry": {
                "type": "Point",
                "coordinates": [
                    7.440671,
                    46.9416778
                ]
            }
        },
        {
            "type": "Feature",
            "geometry": {
                "type": "Point",
                "coordinates": [
                    7.4407916,
                    46.9418035
                ]
            }
        },
        {
            "type": "Feature",
            "geometry": {
                "type": "Point",
                "coordinates": [
                    7.4412611,
                    46.9423149
                ]
            }
        },
        {
            "type": "Feature",
            "geometry": {
                "type": "Point",
                "coordinates": [
                    7.6211085,
                    47.0572071
                ]
            },
            "properties": {
                "name": "Berner Fachhochschule - Technik und Informatik"
            }
        },
        {
            "type": "Feature",
            "geometry": {
                "type": "Point",
                "coordinates": [
                    7.6143525,
                    47.0623121
                ]
            },
            "properties": {
                "name": "Berner Fachhochschule Technik und Informatik"
            }
        },
        {
            "type": "Feature",
            "geometry": {
                "type": "Point",
                "coordinates": [
                    8.8156038,
                    47.2238726
                ]
            },
            "properties": {
                "name": "Container 2"
            }
        },
        {
            "type": "Feature",
            "geometry": {
                "type": "Point",
                "coordinates": [
                    6.6331315,
                    46.518698
                ]
            },
            "properties": {
                "name": "Hemu - Haute \u00e9cole de musique de Lausanne et Conservatoire de Lausanne"
            }
        },
        {
            "type": "Feature",
            "geometry": {
                "type": "Point",
                "coordinates": [
                    8.5488206,
                    47.3753105
                ]
            }
        },
        {
            "type": "Feature",
            "geometry": {
                "type": "Point",
                "coordinates": [
                    6.252786,
                    46.224406
                ]
            }
        },
        {
            "type": "Feature",
            "geometry": {
                "type": "Point",
                "coordinates": [
                    6.9405011,
                    46.9937677
                ]
            },
            "properties": {
                "name": "UniNE Facult\u00e9 des sciences \u00e9conomiques"
            }
        },
        {
            "type": "Feature",
            "geometry": {
                "type": "Point",
                "coordinates": [
                    6.9422662,
                    46.9934863
                ]
            },
            "properties": {
                "name": "UniNE Facult\u00e9 des lettres et Sciences humaines"
            }
        },
        {
            "type": "Feature",
            "geometry": {
                "type": "Point",
                "coordinates": [
                    6.949574,
                    47.0002283
                ]
            },
            "properties": {
                "name": "UNINE Uni-Mail facult\u00e9 des sciences"
            }
        },
        {
            "type": "Feature",
            "geometry": {
                "type": "Point",
                "coordinates": [
                    8.0422968,
                    47.3991578
                ]
            },
            "properties": {
                "name": "Fachhochschule Nordwestschweiz"
            }
        },
        {
            "type": "Feature",
            "geometry": {
                "type": "Point",
                "coordinates": [
                    7.4104839,
                    47.1823223
                ]
            },
            "properties": {
                "name": "Lufthansa Aviation Training"
            }
        },
        {
            "type": "Feature",
            "geometry": {
                "type": "Point",
                "coordinates": [
                    6.1397898,
                    46.1766487
                ]
            },
            "properties": {
                "name": "Centre Universitaire d'Informatique"
            }
        },
        {
            "type": "Feature",
            "geometry": {
                "type": "Point",
                "coordinates": [
                    7.4286043,
                    46.9526153
                ]
            },
            "properties": {
                "name": "PHBern - P\u00e4dagogische Hochschule"
            }
        },
        {
            "type": "Feature",
            "geometry": {
                "type": "Point",
                "coordinates": [
                    7.430058,
                    46.954002
                ]
            },
            "properties": {
                "name": "Universit\u00e4t Bern - Unitobler"
            }
        },
        {
            "type": "Feature",
            "geometry": {
                "type": "Point",
                "coordinates": [
                    7.428962,
                    46.9519638
                ]
            },
            "properties": {
                "name": "Universit\u00e4t Bern - B\u00fchlplatz"
            }
        },
        {
            "type": "Feature",
            "geometry": {
                "type": "Point",
                "coordinates": [
                    7.4349819,
                    46.9525181
                ]
            },
            "properties": {
                "name": "Universit\u00e4t Bern"
            }
        },
        {
            "type": "Feature",
            "geometry": {
                "type": "Point",
                "coordinates": [
                    9.3746374,
                    47.431741
                ]
            },
            "properties": {
                "name": "HSG Hauptgeb\u00e4ude"
            }
        },
        {
            "type": "Feature",
            "geometry": {
                "type": "Point",
                "coordinates": [
                    8.5465088,
                    47.4020417
                ]
            },
            "properties": {
                "name": "Zentrum f\u00fcr Weiterbildung"
            }
        },
        {
            "type": "Feature",
            "geometry": {
                "type": "Point",
                "coordinates": [
                    6.1472001,
                    46.1992757
                ]
            },
            "properties": {
                "name": "Palais Eynard"
            }
        },
        {
            "type": "Feature",
            "geometry": {
                "type": "Point",
                "coordinates": [
                    6.1513749,
                    46.1942708
                ]
            },
            "properties": {
                "name": "CMU (Centre M\u00e9dical Universitaire)"
            }
        },
        {
            "type": "Feature",
            "geometry": {
                "type": "Point",
                "coordinates": [
                    6.1421979,
                    46.1996211
                ]
            },
            "properties": {
                "name": "Universit\u00e9 de Gen\u00e8ve - Uni-Dufour"
            }
        },
        {
            "type": "Feature",
            "geometry": {
                "type": "Point",
                "coordinates": [
                    8.5470555,
                    47.378496
                ]
            }
        },
        {
            "type": "Feature",
            "geometry": {
                "type": "Point",
                "coordinates": [
                    8.5467153,
                    47.3771767
                ]
            }
        },
        {
            "type": "Feature",
            "geometry": {
                "type": "Point",
                "coordinates": [
                    6.1520901,
                    46.2569463
                ]
            },
            "properties": {
                "name": "Webster University"
            }
        },
        {
            "type": "Feature",
            "geometry": {
                "type": "Point",
                "coordinates": [
                    6.1404013,
                    46.1942784
                ]
            },
            "properties": {
                "name": "Universit\u00e9 de Gen\u00e8ve - Uni Pignon"
            }
        },
        {
            "type": "Feature",
            "geometry": {
                "type": "Point",
                "coordinates": [
                    7.1597249,
                    46.7928101
                ]
            },
            "properties": {
                "name": "Haute \u00e9cole d'ing\u00e9nierie et d'architecture de Fribourg"
            }
        },
        {
            "type": "Feature",
            "geometry": {
                "type": "Point",
                "coordinates": [
                    8.3123615,
                    47.0493561
                ]
            },
            "properties": {
                "name": "Universit\u00e4t Luzern & P\u00e4dagogische Hochschule Luzern"
            }
        },
        {
            "type": "Feature",
            "geometry": {
                "type": "Point",
                "coordinates": [
                    6.1396159,
                    46.1765447
                ]
            },
            "properties": {
                "name": "Universit\u00e9 Battelle"
            }
        },
        {
            "type": "Feature",
            "geometry": {
                "type": "Point",
                "coordinates": [
                    6.1405033,
                    46.1760827
                ]
            },
            "properties": {
                "name": "Institut des sciences de l'environnement"
            }
        },
        {
            "type": "Feature",
            "geometry": {
                "type": "Point",
                "coordinates": [
                    8.3022149,
                    47.05113
                ]
            },
            "properties": {
                "name": "P\u00e4dagogische Hochschule Luzern"
            }
        },
        {
            "type": "Feature",
            "geometry": {
                "type": "Point",
                "coordinates": [
                    8.3023863,
                    47.051035
                ]
            },
            "properties": {
                "name": "P\u00e4dagogische Hochschule Luzern"
            }
        },
        {
            "type": "Feature",
            "geometry": {
                "type": "Point",
                "coordinates": [
                    7.398001,
                    46.9673035
                ]
            },
            "properties": {
                "name": "Ethologische Station Hasli"
            }
        },
        {
            "type": "Feature",
            "geometry": {
                "type": "Point",
                "coordinates": [
                    7.2446785,
                    47.1423583
                ]
            },
            "properties": {
                "name": "Berner Fachhochschule BFH - Technik + Informatik"
            }
        },
        {
            "type": "Feature",
            "geometry": {
                "type": "Point",
                "coordinates": [
                    7.2449639,
                    47.1420607
                ]
            },
            "properties": {
                "name": "Berner Fachhochschule BFH - Technik + Informatik"
            }
        },
        {
            "type": "Feature",
            "geometry": {
                "type": "Point",
                "coordinates": [
                    7.5981714,
                    47.5450058
                ]
            }
        },
        {
            "type": "Feature",
            "geometry": {
                "type": "Point",
                "coordinates": [
                    8.3057999,
                    47.0136484
                ]
            },
            "properties": {
                "name": "Hochschule Luzern - Technik & Architektur"
            }
        },
        {
            "type": "Feature",
            "geometry": {
                "type": "Point",
                "coordinates": [
                    9.1807237,
                    47.6475859
                ]
            },
            "properties": {
                "name": "P\u00e4dagogische Hochschule Thurgau"
            }
        },
        {
            "type": "Feature",
            "geometry": {
                "type": "Point",
                "coordinates": [
                    9.180033,
                    47.6472577
                ]
            },
            "properties": {
                "name": "P\u00e4dagogische Hochschule Thurgau"
            }
        },
        {
            "type": "Feature",
            "geometry": {
                "type": "Point",
                "coordinates": [
                    7.2437208,
                    47.1425436
                ]
            },
            "properties": {
                "name": "Berner Fachhochschule BFH - Technik + Informatik"
            }
        },
        {
            "type": "Feature",
            "geometry": {
                "type": "Point",
                "coordinates": [
                    8.5448437,
                    47.3831348
                ]
            },
            "properties": {
                "name": "ETH TUR"
            }
        },
        {
            "type": "Feature",
            "geometry": {
                "type": "Point",
                "coordinates": [
                    8.7287882,
                    47.4968592
                ]
            },
            "properties": {
                "name": "Z\u00fcrcher Hochschule f\u00fcr Angewandte Wissenschaften"
            }
        },
        {
            "type": "Feature",
            "geometry": {
                "type": "Point",
                "coordinates": [
                    6.1444214,
                    46.1989431
                ]
            },
            "properties": {
                "name": "Universit\u00e9 de Gen\u00e8ve - Uni Bastions (b\u00e2timent principal)"
            }
        },
        {
            "type": "Feature",
            "geometry": {
                "type": "Point",
                "coordinates": [
                    8.5540963,
                    47.3709675
                ]
            }
        },
        {
            "type": "Feature",
            "geometry": {
                "type": "Point",
                "coordinates": [
                    8.5512161,
                    47.3716092
                ]
            }
        },
        {
            "type": "Feature",
            "geometry": {
                "type": "Point",
                "coordinates": [
                    8.3329812,
                    47.0023874
                ]
            },
            "properties": {
                "name": "Eawag: Das Wasserforschungs-Institut des ETH-Bereichs"
            }
        },
        {
            "type": "Feature",
            "geometry": {
                "type": "Point",
                "coordinates": [
                    8.7165117,
                    47.4938121
                ]
            },
            "properties": {
                "name": "ZHAW - Campus T\u00f6ssfeld"
            }
        },
        {
            "type": "Feature",
            "geometry": {
                "type": "Point",
                "coordinates": [
                    8.6823436,
                    47.4499823
                ]
            },
            "properties": {
                "name": "Forschungsstation des Institutes f\u00fcr Agrarwissenschaften der ETH Z\u00fcrich"
            }
        },
        {
            "type": "Feature",
            "geometry": {
                "type": "Point",
                "coordinates": [
                    7.2424831,
                    47.140062
                ]
            },
            "properties": {
                "name": "Schweizerisches Literaturinstitut"
            }
        },
        {
            "type": "Feature",
            "geometry": {
                "type": "Point",
                "coordinates": [
                    8.9581172,
                    46.0109016
                ]
            },
            "properties": {
                "name": "Universita della Svizzera Italiana (USI)"
            }
        },
        {
            "type": "Feature",
            "geometry": {
                "type": "Point",
                "coordinates": [
                    6.1363565,
                    46.1990681
                ]
            },
            "properties": {
                "name": "Facult\u00e9 des Sciences de la Terre et de l'environnement"
            }
        },
        {
            "type": "Feature",
            "geometry": {
                "type": "Point",
                "coordinates": [
                    6.1590149,
                    46.1860933
                ]
            },
            "properties": {
                "name": "Cit\u00e9 Universitaire"
            }
        },
        {
            "type": "Feature",
            "geometry": {
                "type": "Point",
                "coordinates": [
                    6.1477482,
                    46.2218971
                ]
            },
            "properties": {
                "name": "Campus Biotech"
            }
        },
        {
            "type": "Feature",
            "geometry": {
                "type": "Point",
                "coordinates": [
                    6.148366,
                    46.2219263
                ]
            },
            "properties": {
                "name": "Campus Biotech"
            }
        },
        {
            "type": "Feature",
            "geometry": {
                "type": "Point",
                "coordinates": [
                    6.1480381,
                    46.2222639
                ]
            },
            "properties": {
                "name": "Campus Biotech"
            }
        },
        {
            "type": "Feature",
            "geometry": {
                "type": "Point",
                "coordinates": [
                    8.6804201,
                    47.2181034
                ]
            },
            "properties": {
                "name": "ZHAW Campus Gr\u00fcental"
            }
        },
        {
            "type": "Feature",
            "geometry": {
                "type": "Point",
                "coordinates": [
                    8.5478184,
                    47.3764286
                ]
            },
            "properties": {
                "name": "ETH Z\u00fcrich"
            }
        },
        {
            "type": "Feature",
            "geometry": {
                "type": "Point",
                "coordinates": [
                    8.9398533,
                    46.0060359
                ]
            },
            "properties": {
                "name": "Conservatorio della Svizzera Italiana"
            }
        },
        {
            "type": "Feature",
            "geometry": {
                "type": "Point",
                "coordinates": [
                    6.1854857,
                    46.3473211
                ]
            },
            "properties": {
                "name": "Institut \u0153cum\u00e9nique de Bossey"
            }
        },
        {
            "type": "Feature",
            "geometry": {
                "type": "Point",
                "coordinates": [
                    8.7273047,
                    47.5033279
                ]
            },
            "properties": {
                "name": "ZHAW Campus St- Georgen-Platz"
            }
        },
        {
            "type": "Feature",
            "geometry": {
                "type": "Point",
                "coordinates": [
                    8.7266909,
                    47.5020579
                ]
            },
            "properties": {
                "name": "ZHAW Campus St- Georgen-Platz"
            }
        },
        {
            "type": "Feature",
            "geometry": {
                "type": "Point",
                "coordinates": [
                    8.7295824,
                    47.5026876
                ]
            }
        },
        {
            "type": "Feature",
            "geometry": {
                "type": "Point",
                "coordinates": [
                    7.1611941,
                    46.7919696
                ]
            },
            "properties": {
                "name": "Haute \u00e9cole d'ing\u00e9nierie et d'architecture de Fribourg"
            }
        },
        {
            "type": "Feature",
            "geometry": {
                "type": "Point",
                "coordinates": [
                    7.1462665,
                    46.8121266
                ]
            },
            "properties": {
                "name": "Universit\u00e9 Fribourg - Sciences sociales et politiques sociales et travail social"
            }
        },
        {
            "type": "Feature",
            "geometry": {
                "type": "Point",
                "coordinates": [
                    7.1578549,
                    46.7929788
                ]
            },
            "properties": {
                "name": "Universit\u00e9 de Fribourg"
            }
        },
        {
            "type": "Feature",
            "geometry": {
                "type": "Point",
                "coordinates": [
                    6.6590747,
                    46.7788958
                ]
            }
        },
        {
            "type": "Feature",
            "geometry": {
                "type": "Point",
                "coordinates": [
                    7.440271,
                    46.953708
                ]
            },
            "properties": {
                "name": "Universit\u00e4t Bern - Uni Engehalde"
            }
        },
        {
            "type": "Feature",
            "geometry": {
                "type": "Point",
                "coordinates": [
                    7.4389432,
                    46.951026
                ]
            },
            "properties": {
                "name": "Institute Exakte Wissenschaften"
            }
        },
        {
            "type": "Feature",
            "geometry": {
                "type": "Point",
                "coordinates": [
                    9.3754098,
                    47.4316218
                ]
            },
            "properties": {
                "name": "Provisorium Mitte"
            }
        },
        {
            "type": "Feature",
            "geometry": {
                "type": "Point",
                "coordinates": [
                    7.4353302,
                    46.9517253
                ]
            },
            "properties": {
                "name": "Universit\u00e4t Bern"
            }
        },
        {
            "type": "Feature",
            "geometry": {
                "type": "Point",
                "coordinates": [
                    7.4357432,
                    46.9511892
                ]
            },
            "properties": {
                "name": "Universit\u00e4t Bern"
            }
        },
        {
            "type": "Feature",
            "geometry": {
                "type": "Point",
                "coordinates": [
                    8.8172852,
                    47.2231865
                ]
            },
            "properties": {
                "name": "HSR Hochschule f\u00fcr Technik Rapperswil"
            }
        },
        {
            "type": "Feature",
            "geometry": {
                "type": "Point",
                "coordinates": [
                    6.6600122,
                    46.7792165
                ]
            }
        },
        {
            "type": "Feature",
            "geometry": {
                "type": "Point",
                "coordinates": [
                    6.6591102,
                    46.7798489
                ]
            }
        },
        {
            "type": "Feature",
            "geometry": {
                "type": "Point",
                "coordinates": [
                    6.6589173,
                    46.7788836
                ]
            },
            "properties": {
                "name": "Aula"
            }
        },
        {
            "type": "Feature",
            "geometry": {
                "type": "Point",
                "coordinates": [
                    6.6599676,
                    46.7794634
                ]
            }
        },
        {
            "type": "Feature",
            "geometry": {
                "type": "Point",
                "coordinates": [
                    6.6597269,
                    46.7796152
                ]
            }
        },
        {
            "type": "Feature",
            "geometry": {
                "type": "Point",
                "coordinates": [
                    6.6592194,
                    46.7795141
                ]
            }
        },
        {
            "type": "Feature",
            "geometry": {
                "type": "Point",
                "coordinates": [
                    6.6590316,
                    46.7795883
                ]
            }
        },
        {
            "type": "Feature",
            "geometry": {
                "type": "Point",
                "coordinates": [
                    6.6603058,
                    46.7791874
                ]
            }
        },
        {
            "type": "Feature",
            "geometry": {
                "type": "Point",
                "coordinates": [
                    6.6603077,
                    46.7798426
                ]
            }
        },
        {
            "type": "Feature",
            "geometry": {
                "type": "Point",
                "coordinates": [
                    6.6595147,
                    46.7789258
                ]
            }
        },
        {
            "type": "Feature",
            "geometry": {
                "type": "Point",
                "coordinates": [
                    7.4346006,
                    46.9519185
                ]
            },
            "properties": {
                "name": "Universit\u00e4t Bern"
            }
        },
        {
            "type": "Feature",
            "geometry": {
                "type": "Point",
                "coordinates": [
                    7.4492613,
                    46.9422603
                ]
            },
            "properties": {
                "name": "Universit\u00e4t Bern"
            }
        },
        {
            "type": "Feature",
            "geometry": {
                "type": "Point",
                "coordinates": [
                    7.3985287,
                    46.2298499
                ]
            }
        },
        {
            "type": "Feature",
            "geometry": {
                "type": "Point",
                "coordinates": [
                    7.4383812,
                    46.9540274
                ]
            },
            "properties": {
                "name": "Universit\u00e4t Bern"
            }
        },
        {
            "type": "Feature",
            "geometry": {
                "type": "Point",
                "coordinates": [
                    7.2768212,
                    47.158328
                ]
            },
            "properties": {
                "name": "Berner Fachhochschule BFH - Architektur, Holz und Bau"
            }
        },
        {
            "type": "Feature",
            "geometry": {
                "type": "Point",
                "coordinates": [
                    8.9597483,
                    46.0249178
                ]
            }
        },
        {
            "type": "Feature",
            "geometry": {
                "type": "Point",
                "coordinates": [
                    8.9600922,
                    46.0244634
                ]
            },
            "properties": {
                "name": "Swiss National Supercomputing Centre (CSCS)"
            }
        },
        {
            "type": "Feature",
            "geometry": {
                "type": "Point",
                "coordinates": [
                    9.4949473,
                    47.4724105
                ]
            },
            "properties": {
                "name": "PHSG Mariaberg"
            }
        },
        {
            "type": "Feature",
            "geometry": {
                "type": "Point",
                "coordinates": [
                    9.4959612,
                    47.4718285
                ]
            }
        },
        {
            "type": "Feature",
            "geometry": {
                "type": "Point",
                "coordinates": [
                    9.494306,
                    47.4716254
                ]
            }
        },
        {
            "type": "Feature",
            "geometry": {
                "type": "Point",
                "coordinates": [
                    8.5454219,
                    47.3866271
                ]
            },
            "properties": {
                "name": "ETH SEW"
            }
        },
        {
            "type": "Feature",
            "geometry": {
                "type": "Point",
                "coordinates": [
                    8.5453572,
                    47.3867049
                ]
            },
            "properties": {
                "name": "ETH SEW"
            }
        },
        {
            "type": "Feature",
            "geometry": {
                "type": "Point",
                "coordinates": [
                    9.4950958,
                    47.4718062
                ]
            },
            "properties": {
                "name": "PHSG Mariaberg"
            }
        },
        {
            "type": "Feature",
            "geometry": {
                "type": "Point",
                "coordinates": [
                    9.5013353,
                    47.4739769
                ]
            },
            "properties": {
                "name": "PHSG Stella Maris"
            }
        },
        {
            "type": "Feature",
            "geometry": {
                "type": "Point",
                "coordinates": [
                    7.4221049,
                    46.9530842
                ]
            },
            "properties": {
                "name": "Universit\u00e4t Bern und PHBern - Von Roll Areal"
            }
        },
        {
            "type": "Feature",
            "geometry": {
                "type": "Point",
                "coordinates": [
                    7.596479,
                    47.5455917
                ]
            }
        },
        {
            "type": "Feature",
            "geometry": {
                "type": "Point",
                "coordinates": [
                    7.5968801,
                    47.5454711
                ]
            }
        },
        {
            "type": "Feature",
            "geometry": {
                "type": "Point",
                "coordinates": [
                    7.5972884,
                    47.5453183
                ]
            },
            "properties": {
                "name": "Juristische Fakult\u00e4t Universit\u00e4t Basel"
            }
        },
        {
            "type": "Feature",
            "geometry": {
                "type": "Point",
                "coordinates": [
                    7.5977495,
                    47.545169
                ]
            }
        },
        {
            "type": "Feature",
            "geometry": {
                "type": "Point",
                "coordinates": [
                    6.1340919,
                    46.3086958
                ]
            },
            "properties": {
                "name": "Observatoire de Gen\u00e8ve - Universit\u00e9 de Gen\u00e8ve"
            }
        },
        {
            "type": "Feature",
            "geometry": {
                "type": "Point",
                "coordinates": [
                    7.1603362,
                    46.7927668
                ]
            },
            "properties": {
                "name": "Haute \u00e9cole d'ing\u00e9nierie et d'architecture de Fribourg"
            }
        },
        {
            "type": "Feature",
            "geometry": {
                "type": "Point",
                "coordinates": [
                    8.9613907,
                    46.027484
                ]
            },
            "properties": {
                "name": "SUPSI Trevano"
            }
        },
        {
            "type": "Feature",
            "geometry": {
                "type": "Point",
                "coordinates": [
                    8.8164872,
                    47.2235141
                ]
            },
            "properties": {
                "name": "Container 1"
            }
        },
        {
            "type": "Feature",
            "geometry": {
                "type": "Point",
                "coordinates": [
                    8.040355,
                    47.3980624
                ]
            },
            "properties": {
                "name": "Blumenhalde"
            }
        },
        {
            "type": "Feature",
            "geometry": {
                "type": "Point",
                "coordinates": [
                    8.5488212,
                    47.3783497
                ]
            }
        },
        {
            "type": "Feature",
            "geometry": {
                "type": "Point",
                "coordinates": [
                    8.5485947,
                    47.3793779
                ]
            }
        },
        {
            "type": "Feature",
            "geometry": {
                "type": "Point",
                "coordinates": [
                    8.5444303,
                    47.3701241
                ]
            },
            "properties": {
                "name": "Universit\u00e4t Z\u00fcrich Theologische Fakult\u00e4t"
            }
        },
        {
            "type": "Feature",
            "geometry": {
                "type": "Point",
                "coordinates": [
                    8.5483426,
                    47.3747846
                ]
            },
            "properties": {
                "name": "Universit\u00e4t Z\u00fcrich (Zentrum)"
            }
        },
        {
            "type": "Feature",
            "geometry": {
                "type": "Point",
                "coordinates": [
                    9.373933,
                    47.4313336
                ]
            },
            "properties": {
                "name": "Universit\u00e4t St.Gallen"
            }
        },
        {
            "type": "Feature",
            "geometry": {
                "type": "Point",
                "coordinates": [
                    6.6207097,
                    46.5128393
                ]
            },
            "properties": {
                "name": "HEP Vaud"
            }
        },
        {
            "type": "Feature",
            "geometry": {
                "type": "Point",
                "coordinates": [
                    6.9400341,
                    46.9981179
                ]
            },
            "properties": {
                "name": "Haute Ecole Arc"
            }
        },
        {
            "type": "Feature",
            "geometry": {
                "type": "Point",
                "coordinates": [
                    6.1399454,
                    46.1949657
                ]
            },
            "properties": {
                "name": "Universit\u00e9 de Gen\u00e8ve - Uni Mail"
            }
        },
        {
            "type": "Feature",
            "geometry": {
                "type": "Point",
                "coordinates": [
                    7.5435652,
                    47.2121454
                ]
            },
            "properties": {
                "name": "PH FHNW"
            }
        },
        {
            "type": "Feature",
            "geometry": {
                "type": "Point",
                "coordinates": [
                    7.4486829,
                    46.9472673
                ]
            }
        },
        {
            "type": "Feature",
            "geometry": {
                "type": "Point",
                "coordinates": [
                    7.4330445,
                    46.9512281
                ]
            },
            "properties": {
                "name": "Universit\u00e4t Bern"
            }
        },
        {
            "type": "Feature",
            "geometry": {
                "type": "Point",
                "coordinates": [
                    8.2127764,
                    47.4804257
                ]
            },
            "properties": {
                "name": "FHNW Campus Brugg-Windisch"
            }
        },
        {
            "type": "Feature",
            "geometry": {
                "type": "Point",
                "coordinates": [
                    7.4354217,
                    46.9499173
                ]
            },
            "properties": {
                "name": "Universit\u00e4t Bern - UniS"
            }
        },
        {
            "type": "Feature",
            "geometry": {
                "type": "Point",
                "coordinates": [
                    7.4380312,
                    46.9510295
                ]
            },
            "properties": {
                "name": "Universit\u00e4t Bern"
            }
        },
        {
            "type": "Feature",
            "geometry": {
                "type": "Point",
                "coordinates": [
                    7.4357035,
                    46.955568
                ]
            },
            "properties": {
                "name": "Universit\u00e4t Bern"
            }
        },
        {
            "type": "Feature",
            "geometry": {
                "type": "Point",
                "coordinates": [
                    7.4595898,
                    46.9927183
                ]
            },
            "properties": {
                "name": "Inforama"
            }
        },
        {
            "type": "Feature",
            "geometry": {
                "type": "Point",
                "coordinates": [
                    6.6640486,
                    46.5426221
                ]
            },
            "properties": {
                "name": "Universit\u00e9 de Lausanne, Centre Laboratoire d'\u00c9palinges"
            }
        },
        {
            "type": "Feature",
            "geometry": {
                "type": "Point",
                "coordinates": [
                    7.462713,
                    46.9835548
                ]
            },
            "properties": {
                "name": "Aviforum"
            }
        },
        {
            "type": "Feature",
            "geometry": {
                "type": "Point",
                "coordinates": [
                    7.4634616,
                    46.9884747
                ]
            },
            "properties": {
                "name": "R\u00fctti"
            }
        },
        {
            "type": "Feature",
            "geometry": {
                "type": "Point",
                "coordinates": [
                    8.6552541,
                    47.3846868
                ]
            },
            "properties": {
                "name": "ETH SLA"
            }
        },
        {
            "type": "Feature",
            "geometry": {
                "type": "Point",
                "coordinates": [
                    7.5882193,
                    47.5552769
                ]
            },
            "properties": {
                "name": "Universit\u00e4t Basel"
            }
        }
    ],
    "crs": {
        "type": "name",
        "properties": {
            "name": "urn:ogc:def:crs:OGC:1.3:CRS84"
        }
    }
}