{
    "type": "FeatureCollection",
    "features": [
        {
            "type": "Feature",
            "geometry": {
                "type": "Point",
                "coordinates": [
                    8.6548444,
                    49.8734728
                ]
            },
            "properties": {
                "name": "TU Darmstadt/Schloss"
            }
        },
        {
            "type": "Feature",
            "geometry": {
                "type": "Point",
                "coordinates": [
                    8.4645749,
                    49.4832445
                ]
            },
            "properties": {
                "name": "Universit\u00e4t Mannheim"
            }
        },
        {
            "type": "Feature",
            "geometry": {
                "type": "Point",
                "coordinates": [
                    7.5592562,
                    50.3636859
                ]
            },
            "properties": {
                "name": "Universit\u00e4t Koblenz-Landau Campus Koblenz"
            }
        },
        {
            "type": "Feature",
            "geometry": {
                "type": "Point",
                "coordinates": [
                    8.4579604,
                    49.4876272
                ]
            },
            "properties": {
                "name": "Universit\u00e4t Heidelberg, ZITI"
            }
        },
        {
            "type": "Feature",
            "geometry": {
                "type": "Point",
                "coordinates": [
                    9.0553163,
                    48.519717
                ]
            },
            "properties": {
                "name": "Institut f\u00fcr Erziehungswissenschaften"
            }
        },
        {
            "type": "Feature",
            "geometry": {
                "type": "Point",
                "coordinates": [
                    9.0495962,
                    48.5191475
                ]
            },
            "properties": {
                "name": "Ludwig-Uhland-Institut"
            }
        },
        {
            "type": "Feature",
            "geometry": {
                "type": "Point",
                "coordinates": [
                    9.0711605,
                    48.5348721
                ]
            },
            "properties": {
                "name": "Wilhelm-Schickard-Institut f\u00fcr Informatik"
            }
        },
        {
            "type": "Feature",
            "geometry": {
                "type": "Point",
                "coordinates": [
                    9.9316644,
                    49.766097
                ]
            },
            "properties": {
                "name": "Julius-von-Sachs-Institut f\u00fcr Biowissenschaften"
            }
        },
        {
            "type": "Feature",
            "geometry": {
                "type": "Point",
                "coordinates": [
                    8.0217778,
                    52.2757921
                ]
            },
            "properties": {
                "name": "FA (IfM)"
            }
        },
        {
            "type": "Feature",
            "geometry": {
                "type": "Point",
                "coordinates": [
                    8.0316413,
                    52.2680954
                ]
            },
            "properties": {
                "name": "Sportzentrum der Universit\u00e4t Osnabr\u00fcck"
            }
        },
        {
            "type": "Feature",
            "geometry": {
                "type": "Point",
                "coordinates": [
                    8.0398727,
                    52.2726198
                ]
            },
            "properties": {
                "name": "Universit\u00e4tsgeb\u00e4ude 22"
            }
        },
        {
            "type": "Feature",
            "geometry": {
                "type": "Point",
                "coordinates": [
                    8.0454991,
                    52.2729018
                ]
            },
            "properties": {
                "name": "Universit\u00e4tsgeb\u00e4ude 09"
            }
        },
        {
            "type": "Feature",
            "geometry": {
                "type": "Point",
                "coordinates": [
                    8.0478835,
                    52.2712963
                ]
            },
            "properties": {
                "name": "Universit\u00e4tsgeb\u00e4ude 05"
            }
        },
        {
            "type": "Feature",
            "geometry": {
                "type": "Point",
                "coordinates": [
                    8.0409425,
                    52.2728106
                ]
            }
        },
        {
            "type": "Feature",
            "geometry": {
                "type": "Point",
                "coordinates": [
                    8.0422477,
                    52.2722754
                ]
            },
            "properties": {
                "name": "Universit\u00e4tsgeb\u00e4ude 41"
            }
        },
        {
            "type": "Feature",
            "geometry": {
                "type": "Point",
                "coordinates": [
                    8.0895636,
                    53.5479705
                ]
            },
            "properties": {
                "name": "Jade-Hochschule Wilhelmshaven"
            }
        },
        {
            "type": "Feature",
            "geometry": {
                "type": "Point",
                "coordinates": [
                    9.933004,
                    49.7908037
                ]
            },
            "properties": {
                "name": "Alte Universit\u00e4t"
            }
        },
        {
            "type": "Feature",
            "geometry": {
                "type": "Point",
                "coordinates": [
                    9.9470045,
                    48.4206167
                ]
            },
            "properties": {
                "name": "Universit\u00e4t Ulm (Campus West)"
            }
        },
        {
            "type": "Feature",
            "geometry": {
                "type": "Point",
                "coordinates": [
                    7.1843534,
                    53.3690121
                ]
            },
            "properties": {
                "name": "Hochschule Emden/Leer (Campus Emden)"
            }
        },
        {
            "type": "Feature",
            "geometry": {
                "type": "Point",
                "coordinates": [
                    7.8567203,
                    48.0035242
                ]
            },
            "properties": {
                "name": "Katholische Hochschule"
            }
        },
        {
            "type": "Feature",
            "geometry": {
                "type": "Point",
                "coordinates": [
                    13.3580527,
                    52.4269939
                ]
            },
            "properties": {
                "name": "FU Berlin GeoCampus"
            }
        },
        {
            "type": "Feature",
            "geometry": {
                "type": "Point",
                "coordinates": [
                    8.7549447,
                    51.7159841
                ]
            },
            "properties": {
                "name": "Theologische Fakult\u00e4t Paderborn"
            }
        },
        {
            "type": "Feature",
            "geometry": {
                "type": "Point",
                "coordinates": [
                    12.1968087,
                    48.5552941
                ]
            },
            "properties": {
                "name": "Hochschule Landshut / Hochschule f\u00fcr angewandte Wissenschaften"
            }
        },
        {
            "type": "Feature",
            "geometry": {
                "type": "Point",
                "coordinates": [
                    9.5967617,
                    47.6619215
                ]
            },
            "properties": {
                "name": "Elektronikschule Tettnang"
            }
        },
        {
            "type": "Feature",
            "geometry": {
                "type": "Point",
                "coordinates": [
                    9.8549227,
                    51.3494162
                ]
            },
            "properties": {
                "name": "Universit\u00e4t Kassel"
            }
        },
        {
            "type": "Feature",
            "geometry": {
                "type": "Point",
                "coordinates": [
                    7.360398,
                    49.2607409
                ]
            },
            "properties": {
                "name": "Hochschule Kaiserslautern, Standort Zweibr\u00fccken"
            }
        },
        {
            "type": "Feature",
            "geometry": {
                "type": "Point",
                "coordinates": [
                    10.526686,
                    52.2750824
                ]
            },
            "properties": {
                "name": "AStA TU Braunschweig"
            }
        },
        {
            "type": "Feature",
            "geometry": {
                "type": "Point",
                "coordinates": [
                    9.1232463,
                    51.1173945
                ]
            },
            "properties": {
                "name": "Berufsakademie Nordhessen"
            }
        },
        {
            "type": "Feature",
            "geometry": {
                "type": "Point",
                "coordinates": [
                    7.1348301,
                    51.5013255
                ]
            },
            "properties": {
                "name": "Fachhochschule f\u00fcr \u00f6ffentliche Verwaltung NRW, Zentralverwaltung"
            }
        },
        {
            "type": "Feature",
            "geometry": {
                "type": "Point",
                "coordinates": [
                    10.0218026,
                    53.554989
                ]
            },
            "properties": {
                "name": "Studierendenzentrum"
            }
        },
        {
            "type": "Feature",
            "geometry": {
                "type": "Point",
                "coordinates": [
                    9.9279759,
                    49.7993995
                ]
            },
            "properties": {
                "name": "Campus R\u00f6ntgenring"
            }
        },
        {
            "type": "Feature",
            "geometry": {
                "type": "Point",
                "coordinates": [
                    8.5714737,
                    49.3834643
                ]
            },
            "properties": {
                "name": "Fachhochschule Schwetzingen"
            }
        },
        {
            "type": "Feature",
            "geometry": {
                "type": "Point",
                "coordinates": [
                    12.3736416,
                    51.3377438
                ]
            },
            "properties": {
                "name": "Juridicum"
            }
        },
        {
            "type": "Feature",
            "geometry": {
                "type": "Point",
                "coordinates": [
                    8.0460594,
                    52.2715296
                ]
            },
            "properties": {
                "name": "Universit\u00e4tsgeb\u00e4ude 02"
            }
        },
        {
            "type": "Feature",
            "geometry": {
                "type": "Point",
                "coordinates": [
                    8.0441533,
                    52.2717986
                ]
            },
            "properties": {
                "name": "Universit\u00e4tsgeb\u00e4ude 14"
            }
        },
        {
            "type": "Feature",
            "geometry": {
                "type": "Point",
                "coordinates": [
                    11.9427501,
                    51.5046978
                ]
            },
            "properties": {
                "name": "Pharmakologie"
            }
        },
        {
            "type": "Feature",
            "geometry": {
                "type": "Point",
                "coordinates": [
                    8.0458378,
                    52.2727269
                ]
            },
            "properties": {
                "name": "Universit\u00e4tsgeb\u00e4ude 08 (AStA)"
            }
        },
        {
            "type": "Feature",
            "geometry": {
                "type": "Point",
                "coordinates": [
                    10.0062919,
                    48.4222927
                ]
            },
            "properties": {
                "name": "Hochschule Ulm \u2013 Campus B\u00f6fingen"
            }
        },
        {
            "type": "Feature",
            "geometry": {
                "type": "Point",
                "coordinates": [
                    8.0452872,
                    52.2715195
                ]
            },
            "properties": {
                "name": "Universit\u00e4tsgeb\u00e4ude 19"
            }
        },
        {
            "type": "Feature",
            "geometry": {
                "type": "Point",
                "coordinates": [
                    9.7234896,
                    52.3796299
                ]
            },
            "properties": {
                "name": "Leibniz Universit\u00e4t IT Services"
            }
        },
        {
            "type": "Feature",
            "geometry": {
                "type": "Point",
                "coordinates": [
                    8.0259672,
                    52.2842206
                ]
            },
            "properties": {
                "name": "Universit\u00e4tsgeb\u00e4ude 69 (Mathematik)"
            }
        },
        {
            "type": "Feature",
            "geometry": {
                "type": "Point",
                "coordinates": [
                    8.2082261,
                    48.0514527
                ]
            },
            "properties": {
                "name": "Hochschule Furtwangen University"
            }
        },
        {
            "type": "Feature",
            "geometry": {
                "type": "Point",
                "coordinates": [
                    13.3595911,
                    52.5537197
                ]
            },
            "properties": {
                "name": "Beuth Hochschule f\u00fcr Technik Berlin - Forum Seestra\u00dfe"
            }
        },
        {
            "type": "Feature",
            "geometry": {
                "type": "Point",
                "coordinates": [
                    14.9974426,
                    51.1490126
                ]
            },
            "properties": {
                "name": "Hochschule Zittau/G\u00f6rlitz GII"
            }
        },
        {
            "type": "Feature",
            "geometry": {
                "type": "Point",
                "coordinates": [
                    14.9859101,
                    51.1559526
                ]
            },
            "properties": {
                "name": "Volkshochschule"
            }
        },
        {
            "type": "Feature",
            "geometry": {
                "type": "Point",
                "coordinates": [
                    10.9528866,
                    50.2670283
                ]
            },
            "properties": {
                "name": "Medau Schule"
            }
        },
        {
            "type": "Feature",
            "geometry": {
                "type": "Point",
                "coordinates": [
                    8.0417358,
                    52.3219665
                ]
            },
            "properties": {
                "name": "Wabe Zentrum Klaus-Bahlsen-Haus"
            }
        },
        {
            "type": "Feature",
            "geometry": {
                "type": "Point",
                "coordinates": [
                    7.0892712,
                    50.7090619
                ]
            },
            "properties": {
                "name": "Universit\u00e4t-Bonn - \u00d6kologie der Kulturlandschaft \u2013 Tier\u00f6kologie"
            }
        },
        {
            "type": "Feature",
            "geometry": {
                "type": "Point",
                "coordinates": [
                    11.5795225,
                    48.1494272
                ]
            },
            "properties": {
                "name": "Fakult\u00e4t f\u00fcr Physik"
            }
        },
        {
            "type": "Feature",
            "geometry": {
                "type": "Point",
                "coordinates": [
                    11.5824286,
                    48.1508643
                ]
            },
            "properties": {
                "name": "Juristisches Seminar"
            }
        },
        {
            "type": "Feature",
            "geometry": {
                "type": "Point",
                "coordinates": [
                    9.6136558,
                    47.7797534
                ]
            },
            "properties": {
                "name": "DHBW Ravensburg"
            }
        },
        {
            "type": "Feature",
            "geometry": {
                "type": "Point",
                "coordinates": [
                    7.4584556,
                    51.4987869
                ]
            },
            "properties": {
                "name": "Sozialakademie"
            }
        },
        {
            "type": "Feature",
            "geometry": {
                "type": "Point",
                "coordinates": [
                    7.1138528,
                    49.2813324
                ]
            },
            "properties": {
                "name": "ASW Berufsakademie Saarland"
            }
        },
        {
            "type": "Feature",
            "geometry": {
                "type": "Point",
                "coordinates": [
                    6.9785687,
                    50.907029
                ]
            },
            "properties": {
                "name": "Universit\u00e4t zu K\u00f6ln \u00d6kologisches Rheinlabor"
            }
        },
        {
            "type": "Feature",
            "geometry": {
                "type": "Point",
                "coordinates": [
                    10.0373714,
                    47.6940173
                ]
            },
            "properties": {
                "name": "Naturwissenschaftlich Technische Akademie Isny"
            }
        },
        {
            "type": "Feature",
            "geometry": {
                "type": "Point",
                "coordinates": [
                    8.6588276,
                    49.8755406
                ]
            },
            "properties": {
                "name": "Institut f\u00fcr Papierfabrikation und Mechanische Verfahrenstechnik"
            }
        },
        {
            "type": "Feature",
            "geometry": {
                "type": "Point",
                "coordinates": [
                    8.658175,
                    49.8751166
                ]
            },
            "properties": {
                "name": "Institut f\u00fcr Allgemeine P\u00e4dagogik und Berufsp\u00e4dagogik"
            }
        },
        {
            "type": "Feature",
            "geometry": {
                "type": "Point",
                "coordinates": [
                    8.6587332,
                    49.8752474
                ]
            },
            "properties": {
                "name": "Institut f\u00fcr Papierfabrikation und Mechanische Verfahrenstechnik"
            }
        },
        {
            "type": "Feature",
            "geometry": {
                "type": "Point",
                "coordinates": [
                    8.6594332,
                    49.8754648
                ]
            },
            "properties": {
                "name": "Institut f\u00fcr Psychologie"
            }
        },
        {
            "type": "Feature",
            "geometry": {
                "type": "Point",
                "coordinates": [
                    8.6552588,
                    49.8738057
                ]
            },
            "properties": {
                "name": "TU Darmstadt/Schloss"
            }
        },
        {
            "type": "Feature",
            "geometry": {
                "type": "Point",
                "coordinates": [
                    8.6401291,
                    49.8715465
                ]
            },
            "properties": {
                "name": "Hochschulrechenzentrum"
            }
        },
        {
            "type": "Feature",
            "geometry": {
                "type": "Point",
                "coordinates": [
                    8.6316543,
                    49.873832
                ]
            },
            "properties": {
                "name": "Studienkolleg f\u00fcr ausl\u00e4ndische Studierende"
            }
        },
        {
            "type": "Feature",
            "geometry": {
                "type": "Point",
                "coordinates": [
                    9.9780535,
                    53.5680968
                ]
            },
            "properties": {
                "name": "Department Chemie"
            }
        },
        {
            "type": "Feature",
            "geometry": {
                "type": "Point",
                "coordinates": [
                    8.6574065,
                    49.8772519
                ]
            },
            "properties": {
                "name": "E24"
            }
        },
        {
            "type": "Feature",
            "geometry": {
                "type": "Point",
                "coordinates": [
                    8.6802909,
                    49.8694902
                ]
            },
            "properties": {
                "name": "Institut f\u00fcr Botanik/Zoologie"
            }
        },
        {
            "type": "Feature",
            "geometry": {
                "type": "Point",
                "coordinates": [
                    8.6409529,
                    49.8669582
                ]
            },
            "properties": {
                "name": "FB Elektrotechnik und Informationstechnik"
            }
        },
        {
            "type": "Feature",
            "geometry": {
                "type": "Point",
                "coordinates": [
                    8.2034216,
                    48.0556002
                ]
            },
            "properties": {
                "name": "HFU, Studio"
            }
        },
        {
            "type": "Feature",
            "geometry": {
                "type": "Point",
                "coordinates": [
                    8.8105601,
                    50.8100797
                ]
            },
            "properties": {
                "name": "HRZ"
            }
        },
        {
            "type": "Feature",
            "geometry": {
                "type": "Point",
                "coordinates": [
                    8.8106344,
                    50.8094125
                ]
            },
            "properties": {
                "name": "Fachbereich Mathematik und Informatik"
            }
        },
        {
            "type": "Feature",
            "geometry": {
                "type": "Point",
                "coordinates": [
                    8.8078907,
                    50.8112092
                ]
            },
            "properties": {
                "name": "Fachbereich Chemie"
            }
        },
        {
            "type": "Feature",
            "geometry": {
                "type": "Point",
                "coordinates": [
                    9.6181066,
                    52.4254793
                ]
            },
            "properties": {
                "name": "Produktionstechnisches Zentrum Hannover"
            }
        },
        {
            "type": "Feature",
            "geometry": {
                "type": "Point",
                "coordinates": [
                    8.8092932,
                    50.8116192
                ]
            },
            "properties": {
                "name": "Biomedizinisches Forschungszentrum"
            }
        },
        {
            "type": "Feature",
            "geometry": {
                "type": "Point",
                "coordinates": [
                    8.8086797,
                    50.8072874
                ]
            },
            "properties": {
                "name": "Fachbereich Biologie"
            }
        },
        {
            "type": "Feature",
            "geometry": {
                "type": "Point",
                "coordinates": [
                    7.6032744,
                    51.965925
                ]
            },
            "properties": {
                "name": "Institut f\u00fcr Mathematische Logik"
            }
        },
        {
            "type": "Feature",
            "geometry": {
                "type": "Point",
                "coordinates": [
                    11.5942831,
                    48.1500233
                ]
            },
            "properties": {
                "name": "Ludwig-Maximilians-Universit\u00e4t"
            }
        },
        {
            "type": "Feature",
            "geometry": {
                "type": "Point",
                "coordinates": [
                    11.5783793,
                    49.9324705
                ]
            },
            "properties": {
                "name": "G\u00e4stehaus Uni Bayreuth"
            }
        },
        {
            "type": "Feature",
            "geometry": {
                "type": "Point",
                "coordinates": [
                    8.6586388,
                    49.8757121
                ]
            },
            "properties": {
                "name": "Institut f\u00fcr Druckmaschinen und Druckverfahren"
            }
        },
        {
            "type": "Feature",
            "geometry": {
                "type": "Point",
                "coordinates": [
                    8.2052705,
                    48.0528508
                ]
            },
            "properties": {
                "name": "HFU, L-Bau"
            }
        },
        {
            "type": "Feature",
            "geometry": {
                "type": "Point",
                "coordinates": [
                    8.2045609,
                    48.0535055
                ]
            },
            "properties": {
                "name": "HFU Akademie"
            }
        },
        {
            "type": "Feature",
            "geometry": {
                "type": "Point",
                "coordinates": [
                    12.0950931,
                    54.1837764
                ]
            },
            "properties": {
                "name": "Robbenstation"
            }
        },
        {
            "type": "Feature",
            "geometry": {
                "type": "Point",
                "coordinates": [
                    12.3801382,
                    51.3405118
                ]
            },
            "properties": {
                "name": "Studentenwerk; Akademische Verwaltung"
            }
        },
        {
            "type": "Feature",
            "geometry": {
                "type": "Point",
                "coordinates": [
                    7.8480627,
                    47.9917148
                ]
            },
            "properties": {
                "name": "Institut f\u00fcr IT im Gesundheitswesen"
            }
        },
        {
            "type": "Feature",
            "geometry": {
                "type": "Point",
                "coordinates": [
                    11.4594415,
                    48.1044213
                ]
            },
            "properties": {
                "name": "Max-Planck-Institut f\u00fcr Biochemie"
            }
        },
        {
            "type": "Feature",
            "geometry": {
                "type": "Point",
                "coordinates": [
                    12.8223578,
                    53.4178039
                ]
            },
            "properties": {
                "name": "Faule Ort"
            }
        },
        {
            "type": "Feature",
            "geometry": {
                "type": "Point",
                "coordinates": [
                    11.9573148,
                    51.4906101
                ]
            },
            "properties": {
                "name": "Burg Giebichenstein Kunsthochschule Halle"
            }
        },
        {
            "type": "Feature",
            "geometry": {
                "type": "Point",
                "coordinates": [
                    7.6198025,
                    51.9619772
                ]
            },
            "properties": {
                "name": "Fachbereich Wirtschaftswissenschaften"
            }
        },
        {
            "type": "Feature",
            "geometry": {
                "type": "Point",
                "coordinates": [
                    7.6226397,
                    51.9626596
                ]
            },
            "properties": {
                "name": "FB 2 Kath.-Theol. Fakult\u00e4t"
            }
        },
        {
            "type": "Feature",
            "geometry": {
                "type": "Point",
                "coordinates": [
                    7.6206041,
                    51.961741
                ]
            },
            "properties": {
                "name": "FB 3 Rechtswissenschaften"
            }
        },
        {
            "type": "Feature",
            "geometry": {
                "type": "Point",
                "coordinates": [
                    7.6010794,
                    51.9606985
                ]
            },
            "properties": {
                "name": "Fachbereich 5: Medizin"
            }
        },
        {
            "type": "Feature",
            "geometry": {
                "type": "Point",
                "coordinates": [
                    7.6232569,
                    51.9618091
                ]
            },
            "properties": {
                "name": "FB 8 Geschichte/Philosophie"
            }
        },
        {
            "type": "Feature",
            "geometry": {
                "type": "Point",
                "coordinates": [
                    7.6232315,
                    51.9650051
                ]
            },
            "properties": {
                "name": "Philologie"
            }
        },
        {
            "type": "Feature",
            "geometry": {
                "type": "Point",
                "coordinates": [
                    7.598431,
                    51.9672295
                ]
            },
            "properties": {
                "name": "FB 11 Physik"
            }
        },
        {
            "type": "Feature",
            "geometry": {
                "type": "Point",
                "coordinates": [
                    7.615201,
                    51.965342
                ]
            },
            "properties": {
                "name": "Biologie"
            }
        },
        {
            "type": "Feature",
            "geometry": {
                "type": "Point",
                "coordinates": [
                    7.7584065,
                    49.4472496
                ]
            },
            "properties": {
                "name": "Hochschule Kaiserslautern, Standort Schoenstra\u00dfe"
            }
        },
        {
            "type": "Feature",
            "geometry": {
                "type": "Point",
                "coordinates": [
                    8.7767136,
                    50.8253239
                ]
            },
            "properties": {
                "name": "Studentendorf"
            }
        },
        {
            "type": "Feature",
            "geometry": {
                "type": "Point",
                "coordinates": [
                    9.7226944,
                    52.3797374
                ]
            },
            "properties": {
                "name": "HLRN-III"
            }
        },
        {
            "type": "Feature",
            "geometry": {
                "type": "Point",
                "coordinates": [
                    9.7228342,
                    52.379462
                ]
            },
            "properties": {
                "name": "Philosophische Fakult\u00e4t"
            }
        },
        {
            "type": "Feature",
            "geometry": {
                "type": "Point",
                "coordinates": [
                    9.9759099,
                    53.5674512
                ]
            },
            "properties": {
                "name": "Institut f\u00fcr Pharmazie"
            }
        },
        {
            "type": "Feature",
            "geometry": {
                "type": "Point",
                "coordinates": [
                    9.9740457,
                    53.5682928
                ]
            },
            "properties": {
                "name": "Fachbereich Geowissenschaften"
            }
        },
        {
            "type": "Feature",
            "geometry": {
                "type": "Point",
                "coordinates": [
                    9.9741505,
                    53.5679125
                ]
            },
            "properties": {
                "name": "Fachbereich Mathematik"
            }
        },
        {
            "type": "Feature",
            "geometry": {
                "type": "Point",
                "coordinates": [
                    9.9778354,
                    53.569194
                ]
            },
            "properties": {
                "name": "Fachbereich Evangelische Theologie"
            }
        },
        {
            "type": "Feature",
            "geometry": {
                "type": "Point",
                "coordinates": [
                    8.8091789,
                    50.8119479
                ]
            },
            "properties": {
                "name": "Institut f\u00fcr Virologie"
            }
        },
        {
            "type": "Feature",
            "geometry": {
                "type": "Point",
                "coordinates": [
                    9.9340209,
                    49.7927777
                ]
            },
            "properties": {
                "name": "Musikhochschule"
            }
        },
        {
            "type": "Feature",
            "geometry": {
                "type": "Point",
                "coordinates": [
                    12.1151111,
                    54.0769061
                ]
            },
            "properties": {
                "name": "Fakult\u00e4t f\u00fcr Maschinenbau und Schiffstechnik"
            }
        },
        {
            "type": "Feature",
            "geometry": {
                "type": "Point",
                "coordinates": [
                    12.0977832,
                    54.0750253
                ]
            },
            "properties": {
                "name": "Agrar- und Umweltwissenschaftliche Fakult\u00e4t"
            }
        },
        {
            "type": "Feature",
            "geometry": {
                "type": "Point",
                "coordinates": [
                    13.3755499,
                    54.0983735
                ]
            },
            "properties": {
                "name": "Baustelle"
            }
        },
        {
            "type": "Feature",
            "geometry": {
                "type": "Point",
                "coordinates": [
                    13.3747348,
                    54.0977288
                ]
            },
            "properties": {
                "name": "Institut f\u00fcr Anatomie und Zellbiologie"
            }
        },
        {
            "type": "Feature",
            "geometry": {
                "type": "Point",
                "coordinates": [
                    8.7702482,
                    50.8048061
                ]
            },
            "properties": {
                "name": "Fachbereich Psychologie"
            }
        },
        {
            "type": "Feature",
            "geometry": {
                "type": "Point",
                "coordinates": [
                    12.3775362,
                    51.3372008
                ]
            },
            "properties": {
                "name": "Fakult\u00e4t f\u00fcr Geschichte, Kunst- und Orientwissenschaften"
            }
        },
        {
            "type": "Feature",
            "geometry": {
                "type": "Point",
                "coordinates": [
                    8.656253,
                    49.8780638
                ]
            },
            "properties": {
                "name": "Chemische Technologie I"
            }
        },
        {
            "type": "Feature",
            "geometry": {
                "type": "Point",
                "coordinates": [
                    8.6558635,
                    49.8785165
                ]
            },
            "properties": {
                "name": "Technikum"
            }
        },
        {
            "type": "Feature",
            "geometry": {
                "type": "Point",
                "coordinates": [
                    8.6350905,
                    49.8725375
                ]
            },
            "properties": {
                "name": "CRISP"
            }
        },
        {
            "type": "Feature",
            "geometry": {
                "type": "Point",
                "coordinates": [
                    8.8820734,
                    51.9286673
                ]
            },
            "properties": {
                "name": "Hochschule f\u00fcr Musik"
            }
        },
        {
            "type": "Feature",
            "geometry": {
                "type": "Point",
                "coordinates": [
                    12.0627324,
                    54.1452201
                ]
            },
            "properties": {
                "name": "Landesinstitut f\u00fcr Schule und Ausbildung"
            }
        },
        {
            "type": "Feature",
            "geometry": {
                "type": "Point",
                "coordinates": [
                    12.3735613,
                    51.3379784
                ]
            },
            "properties": {
                "name": "Institut f\u00fcr Kommunikations- und Medienwissenschaft"
            }
        },
        {
            "type": "Feature",
            "geometry": {
                "type": "Point",
                "coordinates": [
                    12.6862452,
                    54.4305354
                ]
            },
            "properties": {
                "name": "Biologische Station Universit\u00e4t Rostock"
            }
        },
        {
            "type": "Feature",
            "geometry": {
                "type": "Point",
                "coordinates": [
                    8.7803607,
                    50.8168178
                ]
            },
            "properties": {
                "name": "Evangelisches Studentenwohnheim"
            }
        },
        {
            "type": "Feature",
            "geometry": {
                "type": "Point",
                "coordinates": [
                    9.1765098,
                    47.7632607
                ]
            },
            "properties": {
                "name": "Akademie Schloss Rauenstein"
            }
        },
        {
            "type": "Feature",
            "geometry": {
                "type": "Point",
                "coordinates": [
                    11.5893823,
                    48.1553787
                ]
            },
            "properties": {
                "name": "Universit\u00e4ts-Reitschule"
            }
        },
        {
            "type": "Feature",
            "geometry": {
                "type": "Point",
                "coordinates": [
                    9.9759018,
                    53.569841
                ]
            },
            "properties": {
                "name": "Carl Friedrich von Weizs\u00e4cker-Zentrum f\u00fcr Naturwissenschaft und Friedensforschung"
            }
        },
        {
            "type": "Feature",
            "geometry": {
                "type": "Point",
                "coordinates": [
                    9.9756505,
                    53.5698027
                ]
            },
            "properties": {
                "name": "Institut f\u00fcr die Geschichte der deutschen Juden"
            }
        },
        {
            "type": "Feature",
            "geometry": {
                "type": "Point",
                "coordinates": [
                    9.9755916,
                    53.5696047
                ]
            },
            "properties": {
                "name": "Forschungsstelle f\u00fcr Zeitgeschichte Hamburg"
            }
        },
        {
            "type": "Feature",
            "geometry": {
                "type": "Point",
                "coordinates": [
                    9.9761062,
                    53.5697141
                ]
            },
            "properties": {
                "name": "Institut f\u00fcr Friedensforschung und Sicherheitspolitik an der Universit\u00e4t Hamburg"
            }
        },
        {
            "type": "Feature",
            "geometry": {
                "type": "Point",
                "coordinates": [
                    9.9753908,
                    53.5679326
                ]
            },
            "properties": {
                "name": "Centrum f\u00fcr Erdsystemforschung und Nachhaltigkeit"
            }
        },
        {
            "type": "Feature",
            "geometry": {
                "type": "Point",
                "coordinates": [
                    9.9742063,
                    53.5678537
                ]
            },
            "properties": {
                "name": "Erhaltungsprinzipien in der Modellierung"
            }
        },
        {
            "type": "Feature",
            "geometry": {
                "type": "Point",
                "coordinates": [
                    8.7639282,
                    50.8034889
                ]
            },
            "properties": {
                "name": "Archivschule Marburg"
            }
        },
        {
            "type": "Feature",
            "geometry": {
                "type": "Point",
                "coordinates": [
                    9.9737206,
                    49.7861484
                ]
            },
            "properties": {
                "name": "Universit\u00e4t W\u00fcrzburg - Campus Nord"
            }
        },
        {
            "type": "Feature",
            "geometry": {
                "type": "Point",
                "coordinates": [
                    7.8450509,
                    47.9928537
                ]
            },
            "properties": {
                "name": "Professur f\u00fcr Umweltmeteorologie (Hauptgeb\u00e4ude)"
            }
        },
        {
            "type": "Feature",
            "geometry": {
                "type": "Point",
                "coordinates": [
                    8.7562927,
                    51.7159421
                ]
            },
            "properties": {
                "name": "Auditorium Maximum der Theologischen Fakult\u00e4t Paderborn"
            }
        },
        {
            "type": "Feature",
            "geometry": {
                "type": "Point",
                "coordinates": [
                    12.1260237,
                    54.0876056
                ]
            },
            "properties": {
                "name": "Theophil. F\u00f6rderverein"
            }
        },
        {
            "type": "Feature",
            "geometry": {
                "type": "Point",
                "coordinates": [
                    8.0410807,
                    52.2725498
                ]
            },
            "properties": {
                "name": "Universit\u00e4tsgeb\u00e4ude 42 / Villa virtUOS"
            }
        },
        {
            "type": "Feature",
            "geometry": {
                "type": "Point",
                "coordinates": [
                    8.0462319,
                    52.2711539
                ]
            },
            "properties": {
                "name": "Universit\u00e4tsgeb\u00e4ude 15"
            }
        },
        {
            "type": "Feature",
            "geometry": {
                "type": "Point",
                "coordinates": [
                    13.2744637,
                    52.3160466
                ]
            },
            "properties": {
                "name": "Oberstufenzentrum Teltow-Fl\u00e4ming Abteilung 1"
            }
        },
        {
            "type": "Feature",
            "geometry": {
                "type": "Point",
                "coordinates": [
                    8.8103002,
                    50.8091838
                ]
            },
            "properties": {
                "name": "WZMW / Struktur- & Technologie- Forschungslabor"
            }
        },
        {
            "type": "Feature",
            "geometry": {
                "type": "Point",
                "coordinates": [
                    13.1186658,
                    54.5848877
                ]
            },
            "properties": {
                "name": "Institut f\u00fcr \u00d6kologie"
            }
        },
        {
            "type": "Feature",
            "geometry": {
                "type": "Point",
                "coordinates": [
                    11.029682,
                    49.5943814
                ]
            },
            "properties": {
                "name": "Lehrstuhl f\u00fcr Zuverl\u00e4ssige Schaltungen und Systeme"
            }
        },
        {
            "type": "Feature",
            "geometry": {
                "type": "Point",
                "coordinates": [
                    11.0246011,
                    49.5440188
                ]
            },
            "properties": {
                "name": "Lehrstuhl f\u00fcr Hochfrequenztechnik"
            }
        },
        {
            "type": "Feature",
            "geometry": {
                "type": "Point",
                "coordinates": [
                    11.0286627,
                    49.5943537
                ]
            },
            "properties": {
                "name": "Lehrstuhl f\u00fcr Bioverfahrenstechnik"
            }
        },
        {
            "type": "Feature",
            "geometry": {
                "type": "Point",
                "coordinates": [
                    9.9772812,
                    53.5680052
                ]
            },
            "properties": {
                "name": "Institut f\u00fcr Anorganische Chemie"
            }
        },
        {
            "type": "Feature",
            "geometry": {
                "type": "Point",
                "coordinates": [
                    9.9784657,
                    53.56852
                ]
            },
            "properties": {
                "name": "Institut f\u00fcr organische Chemie"
            }
        },
        {
            "type": "Feature",
            "geometry": {
                "type": "Point",
                "coordinates": [
                    9.9779807,
                    53.5688143
                ]
            },
            "properties": {
                "name": "Institut f\u00fcr Biochemie und Molekularbiologie"
            }
        },
        {
            "type": "Feature",
            "geometry": {
                "type": "Point",
                "coordinates": [
                    13.3149908,
                    52.5116111
                ]
            },
            "properties": {
                "name": "bbw Hochschule"
            }
        },
        {
            "type": "Feature",
            "geometry": {
                "type": "Point",
                "coordinates": [
                    7.0985248,
                    50.7350518
                ]
            },
            "properties": {
                "name": "Max-Planck-Institut f\u00fcr Mathematik"
            }
        },
        {
            "type": "Feature",
            "geometry": {
                "type": "Point",
                "coordinates": [
                    8.0500866,
                    52.2841876
                ]
            },
            "properties": {
                "name": "Universit\u00e4tsgeb\u00e4ude 54"
            }
        },
        {
            "type": "Feature",
            "geometry": {
                "type": "Point",
                "coordinates": [
                    8.0479081,
                    52.2704936
                ]
            },
            "properties": {
                "name": "Universit\u00e4tsgeb\u00e4ude 01 - HVZ"
            }
        },
        {
            "type": "Feature",
            "geometry": {
                "type": "Point",
                "coordinates": [
                    11.7485582,
                    49.4998729
                ]
            },
            "properties": {
                "name": "Berufsfachschule f\u00fcr Musik"
            }
        },
        {
            "type": "Feature",
            "geometry": {
                "type": "Point",
                "coordinates": [
                    11.8925845,
                    51.6107352
                ]
            },
            "properties": {
                "name": "Martin-Luther-Universit\u00e4t Landwirtschaftliche Fakult\u00e4t Lehr- und Versuchsstation"
            }
        },
        {
            "type": "Feature",
            "geometry": {
                "type": "Point",
                "coordinates": [
                    7.596815,
                    51.968266
                ]
            },
            "properties": {
                "name": "Institut f\u00fcr Mineralogie"
            }
        },
        {
            "type": "Feature",
            "geometry": {
                "type": "Point",
                "coordinates": [
                    7.5968279,
                    51.9680535
                ]
            },
            "properties": {
                "name": "Institut f\u00fcr Geologie und Pal\u00e4ontologie"
            }
        },
        {
            "type": "Feature",
            "geometry": {
                "type": "Point",
                "coordinates": [
                    7.5979709,
                    51.9669865
                ]
            },
            "properties": {
                "name": "Institut f\u00fcr Planetologie"
            }
        },
        {
            "type": "Feature",
            "geometry": {
                "type": "Point",
                "coordinates": [
                    7.596832,
                    51.9684329
                ]
            },
            "properties": {
                "name": "Institut f\u00fcr Geophysik"
            }
        },
        {
            "type": "Feature",
            "geometry": {
                "type": "Point",
                "coordinates": [
                    8.0254379,
                    52.2836093
                ]
            },
            "properties": {
                "name": "Universit\u00e4tsgeb\u00e4ude 31 (AVZ)"
            }
        },
        {
            "type": "Feature",
            "geometry": {
                "type": "Point",
                "coordinates": [
                    8.0460977,
                    52.2716854
                ]
            },
            "properties": {
                "name": "Universit\u00e4tsgeb\u00e4ude 03"
            }
        },
        {
            "type": "Feature",
            "geometry": {
                "type": "Point",
                "coordinates": [
                    8.0476369,
                    52.2715325
                ]
            },
            "properties": {
                "name": "Universit\u00e4tsgeb\u00e4ude 04"
            }
        },
        {
            "type": "Feature",
            "geometry": {
                "type": "Point",
                "coordinates": [
                    8.0459657,
                    52.2726674
                ]
            },
            "properties": {
                "name": "Universit\u00e4tsgeb\u00e4ude 07 (Germanistik)"
            }
        },
        {
            "type": "Feature",
            "geometry": {
                "type": "Point",
                "coordinates": [
                    8.0457204,
                    52.2731726
                ]
            },
            "properties": {
                "name": "Universit\u00e4tsgeb\u00e4ude 10"
            }
        },
        {
            "type": "Feature",
            "geometry": {
                "type": "Point",
                "coordinates": [
                    8.0442156,
                    52.2712701
                ]
            },
            "properties": {
                "name": "Universit\u00e4tsgeb\u00e4ude 11"
            }
        },
        {
            "type": "Feature",
            "geometry": {
                "type": "Point",
                "coordinates": [
                    8.043592,
                    52.2716272
                ]
            },
            "properties": {
                "name": "Universit\u00e4tsgeb\u00e4ude 12"
            }
        },
        {
            "type": "Feature",
            "geometry": {
                "type": "Point",
                "coordinates": [
                    8.0449071,
                    52.2715861
                ]
            },
            "properties": {
                "name": "Universit\u00e4tsgeb\u00e4ude 13"
            }
        },
        {
            "type": "Feature",
            "geometry": {
                "type": "Point",
                "coordinates": [
                    8.0470196,
                    52.270224
                ]
            },
            "properties": {
                "name": "Universit\u00e4tsgeb\u00e4ude 17"
            }
        },
        {
            "type": "Feature",
            "geometry": {
                "type": "Point",
                "coordinates": [
                    8.0466873,
                    52.2700348
                ]
            },
            "properties": {
                "name": "Universit\u00e4tsgeb\u00e4ude 18"
            }
        },
        {
            "type": "Feature",
            "geometry": {
                "type": "Point",
                "coordinates": [
                    8.0391113,
                    52.2720947
                ]
            },
            "properties": {
                "name": "Universit\u00e4tsgeb\u00e4ude 20"
            }
        },
        {
            "type": "Feature",
            "geometry": {
                "type": "Point",
                "coordinates": [
                    8.0397963,
                    52.2722885
                ]
            },
            "properties": {
                "name": "Universit\u00e4tsgeb\u00e4ude 21"
            }
        },
        {
            "type": "Feature",
            "geometry": {
                "type": "Point",
                "coordinates": [
                    8.0388458,
                    52.2720716
                ]
            },
            "properties": {
                "name": "Universit\u00e4tsgeb\u00e4ude 25"
            }
        },
        {
            "type": "Feature",
            "geometry": {
                "type": "Point",
                "coordinates": [
                    8.0386166,
                    52.2720551
                ]
            },
            "properties": {
                "name": "Universit\u00e4tsgeb\u00e4ude 27"
            }
        },
        {
            "type": "Feature",
            "geometry": {
                "type": "Point",
                "coordinates": [
                    8.0391544,
                    52.2728097
                ]
            },
            "properties": {
                "name": "Universit\u00e4tsgeb\u00e4ude 28"
            }
        },
        {
            "type": "Feature",
            "geometry": {
                "type": "Point",
                "coordinates": [
                    8.0372415,
                    52.2740703
                ]
            },
            "properties": {
                "name": "Universit\u00e4tsgeb\u00e4ude 29"
            }
        },
        {
            "type": "Feature",
            "geometry": {
                "type": "Point",
                "coordinates": [
                    8.0226021,
                    52.28249
                ]
            },
            "properties": {
                "name": "Universit\u00e4tsgeb\u00e4ude 35 (Biologie)"
            }
        },
        {
            "type": "Feature",
            "geometry": {
                "type": "Point",
                "coordinates": [
                    8.0243862,
                    52.2846307
                ]
            },
            "properties": {
                "name": "Universit\u00e4tsgeb\u00e4ude 34 (Chemie)"
            }
        },
        {
            "type": "Feature",
            "geometry": {
                "type": "Point",
                "coordinates": [
                    8.0266585,
                    52.2865436
                ]
            },
            "properties": {
                "name": "Psychosoziale Beratungsstelle"
            }
        },
        {
            "type": "Feature",
            "geometry": {
                "type": "Point",
                "coordinates": [
                    8.0414467,
                    52.2729853
                ]
            }
        },
        {
            "type": "Feature",
            "geometry": {
                "type": "Point",
                "coordinates": [
                    8.0420065,
                    52.27299
                ]
            }
        },
        {
            "type": "Feature",
            "geometry": {
                "type": "Point",
                "coordinates": [
                    8.0205986,
                    52.285792
                ]
            },
            "properties": {
                "name": "68"
            }
        },
        {
            "type": "Feature",
            "geometry": {
                "type": "Point",
                "coordinates": [
                    8.0249626,
                    52.282898
                ]
            },
            "properties": {
                "name": "AA"
            }
        },
        {
            "type": "Feature",
            "geometry": {
                "type": "Point",
                "coordinates": [
                    8.0244905,
                    52.2822801
                ]
            },
            "properties": {
                "name": "AB"
            }
        },
        {
            "type": "Feature",
            "geometry": {
                "type": "Point",
                "coordinates": [
                    8.0239203,
                    52.2833922
                ]
            },
            "properties": {
                "name": "AD"
            }
        },
        {
            "type": "Feature",
            "geometry": {
                "type": "Point",
                "coordinates": [
                    8.0239219,
                    52.2825932
                ]
            },
            "properties": {
                "name": "AC"
            }
        },
        {
            "type": "Feature",
            "geometry": {
                "type": "Point",
                "coordinates": [
                    8.0227345,
                    52.2834781
                ]
            },
            "properties": {
                "name": "Universit\u00e4tsgeb\u00e4ude 67 (Biologie)"
            }
        },
        {
            "type": "Feature",
            "geometry": {
                "type": "Point",
                "coordinates": [
                    8.0213758,
                    52.2762716
                ]
            },
            "properties": {
                "name": "FB"
            }
        },
        {
            "type": "Feature",
            "geometry": {
                "type": "Point",
                "coordinates": [
                    8.0232765,
                    52.277742
                ]
            },
            "properties": {
                "name": "CA (G\u00e4stehaus)"
            }
        },
        {
            "type": "Feature",
            "geometry": {
                "type": "Point",
                "coordinates": [
                    8.0242079,
                    52.2778204
                ]
            },
            "properties": {
                "name": "CB (Pr\u00e4sidium)"
            }
        },
        {
            "type": "Feature",
            "geometry": {
                "type": "Point",
                "coordinates": [
                    8.0248811,
                    52.2778198
                ]
            },
            "properties": {
                "name": "CC (ZSB)"
            }
        },
        {
            "type": "Feature",
            "geometry": {
                "type": "Point",
                "coordinates": [
                    8.0254176,
                    52.277901
                ]
            },
            "properties": {
                "name": "CD (Int. B\u00fcro)"
            }
        },
        {
            "type": "Feature",
            "geometry": {
                "type": "Point",
                "coordinates": [
                    8.0259634,
                    52.27786
                ]
            },
            "properties": {
                "name": "CE"
            }
        },
        {
            "type": "Feature",
            "geometry": {
                "type": "Point",
                "coordinates": [
                    8.0266132,
                    52.2779073
                ]
            },
            "properties": {
                "name": "CF"
            }
        },
        {
            "type": "Feature",
            "geometry": {
                "type": "Point",
                "coordinates": [
                    8.0272203,
                    52.2776214
                ]
            },
            "properties": {
                "name": "CG (Mehrzweckhalle)"
            }
        },
        {
            "type": "Feature",
            "geometry": {
                "type": "Point",
                "coordinates": [
                    8.0272928,
                    52.2772336
                ]
            },
            "properties": {
                "name": "CH"
            }
        },
        {
            "type": "Feature",
            "geometry": {
                "type": "Point",
                "coordinates": [
                    8.0267698,
                    52.2771728
                ]
            },
            "properties": {
                "name": "CJ"
            }
        },
        {
            "type": "Feature",
            "geometry": {
                "type": "Point",
                "coordinates": [
                    8.0260321,
                    52.2771237
                ]
            },
            "properties": {
                "name": "CK"
            }
        },
        {
            "type": "Feature",
            "geometry": {
                "type": "Point",
                "coordinates": [
                    8.0252655,
                    52.2771189
                ]
            },
            "properties": {
                "name": "CL"
            }
        },
        {
            "type": "Feature",
            "geometry": {
                "type": "Point",
                "coordinates": [
                    8.0380669,
                    52.3030262
                ]
            },
            "properties": {
                "name": "Hochschulgeb\u00e4ude HR"
            }
        },
        {
            "type": "Feature",
            "geometry": {
                "type": "Point",
                "coordinates": [
                    8.0229341,
                    52.2774229
                ]
            },
            "properties": {
                "name": "CN (Fakult\u00e4t WiSo)"
            }
        },
        {
            "type": "Feature",
            "geometry": {
                "type": "Point",
                "coordinates": [
                    8.0389069,
                    52.3030949
                ]
            },
            "properties": {
                "name": "Hochschulgeb\u00e4ude HA"
            }
        },
        {
            "type": "Feature",
            "geometry": {
                "type": "Point",
                "coordinates": [
                    8.0371774,
                    52.3036025
                ]
            },
            "properties": {
                "name": "Hochschulgeb\u00e4ude HO"
            }
        },
        {
            "type": "Feature",
            "geometry": {
                "type": "Point",
                "coordinates": [
                    8.0371345,
                    52.3041995
                ]
            },
            "properties": {
                "name": "Hochschulgeb\u00e4ude HN"
            }
        },
        {
            "type": "Feature",
            "geometry": {
                "type": "Point",
                "coordinates": [
                    8.0370487,
                    52.3045308
                ]
            },
            "properties": {
                "name": "Hochschulgeb\u00e4ude HM"
            }
        },
        {
            "type": "Feature",
            "geometry": {
                "type": "Point",
                "coordinates": [
                    8.0381752,
                    52.3037566
                ]
            },
            "properties": {
                "name": "Hochschulgeb\u00e4ude HP"
            }
        },
        {
            "type": "Feature",
            "geometry": {
                "type": "Point",
                "coordinates": [
                    8.0392911,
                    52.3033892
                ]
            },
            "properties": {
                "name": "Hochschulgeb\u00e4ude HB"
            }
        },
        {
            "type": "Feature",
            "geometry": {
                "type": "Point",
                "coordinates": [
                    8.0381053,
                    52.3044947
                ]
            },
            "properties": {
                "name": "Hochschulgeb\u00e4ude HK"
            }
        },
        {
            "type": "Feature",
            "geometry": {
                "type": "Point",
                "coordinates": [
                    8.0380143,
                    52.3048456
                ]
            },
            "properties": {
                "name": "Hochschulgeb\u00e4ude HL"
            }
        },
        {
            "type": "Feature",
            "geometry": {
                "type": "Point",
                "coordinates": [
                    8.0384648,
                    52.304826
                ]
            },
            "properties": {
                "name": "Hochschulgeb\u00e4ude HH"
            }
        },
        {
            "type": "Feature",
            "geometry": {
                "type": "Point",
                "coordinates": [
                    8.0400955,
                    52.3032251
                ]
            },
            "properties": {
                "name": "Hochschulgeb\u00e4ude HC"
            }
        },
        {
            "type": "Feature",
            "geometry": {
                "type": "Point",
                "coordinates": [
                    8.0405891,
                    52.3039469
                ]
            },
            "properties": {
                "name": "Hochschulgeb\u00e4ude HD"
            }
        },
        {
            "type": "Feature",
            "geometry": {
                "type": "Point",
                "coordinates": [
                    8.0412652,
                    52.3034581
                ]
            },
            "properties": {
                "name": "Fachhochschulgeb\u00e4ude HE"
            }
        },
        {
            "type": "Feature",
            "geometry": {
                "type": "Point",
                "coordinates": [
                    8.0398821,
                    52.3047135
                ]
            },
            "properties": {
                "name": "Hochschulgeb\u00e4ude HG"
            }
        },
        {
            "type": "Feature",
            "geometry": {
                "type": "Point",
                "coordinates": [
                    8.0405302,
                    52.3049834
                ]
            },
            "properties": {
                "name": "Hochschulgeb\u00e4ude HF"
            }
        },
        {
            "type": "Feature",
            "geometry": {
                "type": "Point",
                "coordinates": [
                    8.0408348,
                    52.3216798
                ]
            },
            "properties": {
                "name": "Versuchsbetrieb Waldhof"
            }
        },
        {
            "type": "Feature",
            "geometry": {
                "type": "Point",
                "coordinates": [
                    6.6285167,
                    49.7522377
                ]
            },
            "properties": {
                "name": "Universit\u00e4t Trier: Psychobiologie"
            }
        },
        {
            "type": "Feature",
            "geometry": {
                "type": "Point",
                "coordinates": [
                    7.5977034,
                    51.9679736
                ]
            },
            "properties": {
                "name": "FB 12 AC/PC II"
            }
        },
        {
            "type": "Feature",
            "geometry": {
                "type": "Point",
                "coordinates": [
                    7.5983882,
                    51.9679817
                ]
            },
            "properties": {
                "name": "FB 12 AC/PC I"
            }
        },
        {
            "type": "Feature",
            "geometry": {
                "type": "Point",
                "coordinates": [
                    13.3750805,
                    54.0961345
                ]
            },
            "properties": {
                "name": "Alte Zahnklinik"
            }
        },
        {
            "type": "Feature",
            "geometry": {
                "type": "Point",
                "coordinates": [
                    13.3808419,
                    54.0974746
                ]
            },
            "properties": {
                "name": "Zoologisches Institut und Museum"
            }
        },
        {
            "type": "Feature",
            "geometry": {
                "type": "Point",
                "coordinates": [
                    7.5988636,
                    51.9665516
                ]
            },
            "properties": {
                "name": "Institut f\u00fcr Kernphysik"
            }
        },
        {
            "type": "Feature",
            "geometry": {
                "type": "Point",
                "coordinates": [
                    12.114422,
                    54.0774339
                ]
            },
            "properties": {
                "name": "Fakult\u00e4t f\u00fcr Informatik und Elektrotechnik"
            }
        },
        {
            "type": "Feature",
            "geometry": {
                "type": "Point",
                "coordinates": [
                    13.3849589,
                    54.0965261
                ]
            },
            "properties": {
                "name": "Institut f\u00fcr Rechtsmedizin"
            }
        },
        {
            "type": "Feature",
            "geometry": {
                "type": "Point",
                "coordinates": [
                    8.0269039,
                    50.9102711
                ]
            },
            "properties": {
                "name": "K"
            }
        },
        {
            "type": "Feature",
            "geometry": {
                "type": "Point",
                "coordinates": [
                    8.1646772,
                    53.1523837
                ]
            },
            "properties": {
                "name": "Carl von Ossietzky Universit\u00e4t, Campus Wechloy"
            }
        },
        {
            "type": "Feature",
            "geometry": {
                "type": "Point",
                "coordinates": [
                    6.9890218,
                    51.0316934
                ]
            },
            "properties": {
                "name": "FernUniversit\u00e4t Studienzentrum Leverkusen"
            }
        },
        {
            "type": "Feature",
            "geometry": {
                "type": "Point",
                "coordinates": [
                    8.2795281,
                    52.7214266
                ]
            },
            "properties": {
                "name": "Fachhochschule f\u00fcr Wirtschaft und Technik Vechta/Diepholz/Oldenburg"
            }
        },
        {
            "type": "Feature",
            "geometry": {
                "type": "Point",
                "coordinates": [
                    8.2772786,
                    49.9943998
                ]
            },
            "properties": {
                "name": "Architekturinstitut der HS Mainz"
            }
        },
        {
            "type": "Feature",
            "geometry": {
                "type": "Point",
                "coordinates": [
                    8.0483092,
                    52.2693977
                ]
            },
            "properties": {
                "name": "Universit\u00e4tsgeb\u00e4ude 44"
            }
        },
        {
            "type": "Feature",
            "geometry": {
                "type": "Point",
                "coordinates": [
                    7.1070688,
                    50.7006782
                ]
            },
            "properties": {
                "name": "Dekanat, Fachschaft"
            }
        },
        {
            "type": "Feature",
            "geometry": {
                "type": "Point",
                "coordinates": [
                    8.6508929,
                    49.4141772
                ]
            },
            "properties": {
                "name": "SRH Hochschule"
            }
        },
        {
            "type": "Feature",
            "geometry": {
                "type": "Point",
                "coordinates": [
                    8.521087,
                    50.5513922
                ]
            },
            "properties": {
                "name": "THM StudiumPlus (A1)"
            }
        },
        {
            "type": "Feature",
            "geometry": {
                "type": "Point",
                "coordinates": [
                    11.4607153,
                    48.1056993
                ]
            },
            "properties": {
                "name": "Max-Planck-Institut f\u00fcr Neurobiologie"
            }
        },
        {
            "type": "Feature",
            "geometry": {
                "type": "Point",
                "coordinates": [
                    10.7876793,
                    52.4258086
                ]
            },
            "properties": {
                "name": "Ostfalia Hochschule f\u00fcr angewandte Wissenschaften"
            }
        },
        {
            "type": "Feature",
            "geometry": {
                "type": "Point",
                "coordinates": [
                    8.6564852,
                    50.1152862
                ]
            },
            "properties": {
                "name": "Institut f\u00fcr Geschichte der Arabische-Islamischen Wissenschaften"
            }
        },
        {
            "type": "Feature",
            "geometry": {
                "type": "Point",
                "coordinates": [
                    8.6554739,
                    50.5663409
                ]
            },
            "properties": {
                "name": "JLU Fachbereich Medizin - GRIPS"
            }
        },
        {
            "type": "Feature",
            "geometry": {
                "type": "Point",
                "coordinates": [
                    8.6461244,
                    50.5989848
                ]
            },
            "properties": {
                "name": "Oberer Hardthof"
            }
        },
        {
            "type": "Feature",
            "geometry": {
                "type": "Point",
                "coordinates": [
                    10.530331,
                    52.2753162
                ]
            },
            "properties": {
                "name": "Carl-Friedrich-Gau\u00df-Fakult\u00e4t (FK1)"
            }
        },
        {
            "type": "Feature",
            "geometry": {
                "type": "Point",
                "coordinates": [
                    10.5296274,
                    52.2750083
                ]
            },
            "properties": {
                "name": "Studienservice-Center"
            }
        },
        {
            "type": "Feature",
            "geometry": {
                "type": "Point",
                "coordinates": [
                    9.7778098,
                    49.491622
                ]
            },
            "properties": {
                "name": "DHBW Mosbach - Campus Bad Mergentheim"
            }
        },
        {
            "type": "Feature",
            "geometry": {
                "type": "Point",
                "coordinates": [
                    10.5379135,
                    52.2770567
                ]
            },
            "properties": {
                "name": "Fakult\u00e4t f\u00fcr Maschinenbau"
            }
        },
        {
            "type": "Feature",
            "geometry": {
                "type": "Point",
                "coordinates": [
                    9.7171292,
                    52.3857503
                ]
            },
            "properties": {
                "name": "Institut f\u00fcr Mineralogie"
            }
        },
        {
            "type": "Feature",
            "geometry": {
                "type": "Point",
                "coordinates": [
                    10.3785148,
                    52.0880854
                ]
            },
            "properties": {
                "name": "Ostfalia - Hochschule f\u00fcr angewandte Wissenschaften"
            }
        },
        {
            "type": "Feature",
            "geometry": {
                "type": "Point",
                "coordinates": [
                    7.5759264,
                    51.9758997
                ]
            },
            "properties": {
                "name": "Sozialberatung des Studentenwerks M\u00fcnster"
            }
        },
        {
            "type": "Feature",
            "geometry": {
                "type": "Point",
                "coordinates": [
                    12.3994415,
                    51.3235937
                ]
            }
        },
        {
            "type": "Feature",
            "geometry": {
                "type": "Point",
                "coordinates": [
                    12.3988246,
                    51.3235937
                ]
            },
            "properties": {
                "name": "RegMedNet.org"
            }
        },
        {
            "type": "Feature",
            "geometry": {
                "type": "Point",
                "coordinates": [
                    12.3990767,
                    51.3235904
                ]
            },
            "properties": {
                "name": "Paul Wuisman Laboratories"
            }
        },
        {
            "type": "Feature",
            "geometry": {
                "type": "Point",
                "coordinates": [
                    14.9988773,
                    51.1486813
                ]
            },
            "properties": {
                "name": "Hochschule Zittau/G\u00f6rlitz GI"
            }
        },
        {
            "type": "Feature",
            "geometry": {
                "type": "Point",
                "coordinates": [
                    9.4779124,
                    51.3125562
                ]
            },
            "properties": {
                "name": "Fraunhofer IWES Kassel"
            }
        },
        {
            "type": "Feature",
            "geometry": {
                "type": "Point",
                "coordinates": [
                    9.0492579,
                    48.5115122
                ]
            },
            "properties": {
                "name": "Universit\u00e4t T\u00fcbingen, Physiologische \u00d6kologie der Tiere"
            }
        },
        {
            "type": "Feature",
            "geometry": {
                "type": "Point",
                "coordinates": [
                    7.5988482,
                    51.9661313
                ]
            },
            "properties": {
                "name": "Institut f\u00fcr Theoretische Physik"
            }
        },
        {
            "type": "Feature",
            "geometry": {
                "type": "Point",
                "coordinates": [
                    10.6813994,
                    53.8647461
                ]
            },
            "properties": {
                "name": "Musikhochschule L\u00fcbeck"
            }
        },
        {
            "type": "Feature",
            "geometry": {
                "type": "Point",
                "coordinates": [
                    11.5828372,
                    48.1550564
                ]
            },
            "properties": {
                "name": "Rachel Carson Center for Environment and Society"
            }
        },
        {
            "type": "Feature",
            "geometry": {
                "type": "Point",
                "coordinates": [
                    7.602632,
                    51.9658042
                ]
            },
            "properties": {
                "name": "FB 10 Mathematik"
            }
        },
        {
            "type": "Feature",
            "geometry": {
                "type": "Point",
                "coordinates": [
                    7.6032947,
                    51.966231
                ]
            },
            "properties": {
                "name": "Institut f\u00fcr Informatik"
            }
        },
        {
            "type": "Feature",
            "geometry": {
                "type": "Point",
                "coordinates": [
                    10.4125354,
                    53.2407999
                ]
            },
            "properties": {
                "name": "Mensa"
            }
        },
        {
            "type": "Feature",
            "geometry": {
                "type": "Point",
                "coordinates": [
                    13.3793,
                    54.0946547
                ]
            },
            "properties": {
                "name": "Institut f\u00fcr Philosophie"
            }
        },
        {
            "type": "Feature",
            "geometry": {
                "type": "Point",
                "coordinates": [
                    13.3793298,
                    54.0947829
                ]
            },
            "properties": {
                "name": "Institut f\u00fcr Politikwissenschaften"
            }
        },
        {
            "type": "Feature",
            "geometry": {
                "type": "Point",
                "coordinates": [
                    7.6000056,
                    51.9740914
                ]
            },
            "properties": {
                "name": "Universit\u00e4tsarchiv"
            }
        },
        {
            "type": "Feature",
            "geometry": {
                "type": "Point",
                "coordinates": [
                    11.5553422,
                    48.1425373
                ]
            },
            "properties": {
                "name": "FOM Hochschule Oekonomie Management"
            }
        },
        {
            "type": "Feature",
            "geometry": {
                "type": "Point",
                "coordinates": [
                    6.9302981,
                    50.926623
                ]
            },
            "properties": {
                "name": "Institut f\u00fcr Afrikanistik"
            }
        },
        {
            "type": "Feature",
            "geometry": {
                "type": "Point",
                "coordinates": [
                    6.9310458,
                    50.924612
                ]
            },
            "properties": {
                "name": "B\u00fcros K\u00f6lner Studierendenschaft"
            }
        },
        {
            "type": "Feature",
            "geometry": {
                "type": "Point",
                "coordinates": [
                    6.935405,
                    50.9277101
                ]
            },
            "properties": {
                "name": "Biochemie (Haus 1)"
            }
        },
        {
            "type": "Feature",
            "geometry": {
                "type": "Point",
                "coordinates": [
                    12.0813024,
                    54.170882
                ]
            },
            "properties": {
                "name": "Juristische Fakult\u00e4t"
            }
        },
        {
            "type": "Feature",
            "geometry": {
                "type": "Point",
                "coordinates": [
                    8.9034761,
                    52.0169471
                ]
            },
            "properties": {
                "name": "Centrum Industrial IT (CIIT)"
            }
        },
        {
            "type": "Feature",
            "geometry": {
                "type": "Point",
                "coordinates": [
                    8.9034842,
                    52.0167406
                ]
            },
            "properties": {
                "name": "Institut f\u00fcr industrielle Informationstechnik - inIT"
            }
        },
        {
            "type": "Feature",
            "geometry": {
                "type": "Point",
                "coordinates": [
                    11.0309917,
                    49.5954554
                ]
            },
            "properties": {
                "name": "Lehrstuhl f\u00fcr Sinologie/Japanologie"
            }
        },
        {
            "type": "Feature",
            "geometry": {
                "type": "Point",
                "coordinates": [
                    11.0044018,
                    49.5907357
                ]
            },
            "properties": {
                "name": "Lehrstuhl f\u00fcr Fertigungsmesstechnik"
            }
        },
        {
            "type": "Feature",
            "geometry": {
                "type": "Point",
                "coordinates": [
                    6.0800356,
                    50.769081
                ]
            },
            "properties": {
                "name": "FH Aachen: Studierendensekretariat, Allgemeiner Studierendenausschuss"
            }
        },
        {
            "type": "Feature",
            "geometry": {
                "type": "Point",
                "coordinates": [
                    8.919272,
                    50.8266398
                ]
            },
            "properties": {
                "name": "Bieneninstitut Kirchhain"
            }
        },
        {
            "type": "Feature",
            "geometry": {
                "type": "Point",
                "coordinates": [
                    8.287532,
                    52.7286248
                ]
            },
            "properties": {
                "name": "Au\u00dfenstelle UNI-Vechta"
            }
        },
        {
            "type": "Feature",
            "geometry": {
                "type": "Point",
                "coordinates": [
                    8.2916194,
                    52.7338582
                ]
            },
            "properties": {
                "name": "Au\u00dfenstelle UNI-Vechta"
            }
        },
        {
            "type": "Feature",
            "geometry": {
                "type": "Point",
                "coordinates": [
                    8.3015009,
                    52.7297173
                ]
            },
            "properties": {
                "name": "Au\u00dfenstelle UNI-Vechta"
            }
        },
        {
            "type": "Feature",
            "geometry": {
                "type": "Point",
                "coordinates": [
                    8.2821783,
                    52.729359
                ]
            },
            "properties": {
                "name": "Au\u00dfenstelle UNI-Vechta"
            }
        },
        {
            "type": "Feature",
            "geometry": {
                "type": "Point",
                "coordinates": [
                    7.8444116,
                    47.992271
                ]
            },
            "properties": {
                "name": "Rechtswissenschaftliche Fakult\u00e4t"
            }
        },
        {
            "type": "Feature",
            "geometry": {
                "type": "Point",
                "coordinates": [
                    7.8445024,
                    47.9922393
                ]
            },
            "properties": {
                "name": "Kriminologie und Wirtschaftsstrafrecht"
            }
        },
        {
            "type": "Feature",
            "geometry": {
                "type": "Point",
                "coordinates": [
                    6.078745,
                    50.7687337
                ]
            },
            "properties": {
                "name": "FH Aachen: Fachbereich Gestaltung Kommunikationsdesign Produktdesign"
            }
        },
        {
            "type": "Feature",
            "geometry": {
                "type": "Point",
                "coordinates": [
                    6.0794714,
                    50.7688375
                ]
            },
            "properties": {
                "name": "FH Aachen: Automobiltechnik & Labor f\u00fcr Luft- und Raumfahrt"
            }
        },
        {
            "type": "Feature",
            "geometry": {
                "type": "Point",
                "coordinates": [
                    12.0790983,
                    54.1720834
                ]
            },
            "properties": {
                "name": "Institut f\u00fcr Automatisierungstechnik"
            }
        },
        {
            "type": "Feature",
            "geometry": {
                "type": "Point",
                "coordinates": [
                    12.0784417,
                    54.1718573
                ]
            },
            "properties": {
                "name": "Institut f\u00fcr Nachrichtentechnik"
            }
        },
        {
            "type": "Feature",
            "geometry": {
                "type": "Point",
                "coordinates": [
                    6.0628114,
                    50.7728503
                ]
            },
            "properties": {
                "name": "Institut f\u00fcr Thermoprozesstechnik GmbH an der FH Aachen"
            }
        },
        {
            "type": "Feature",
            "geometry": {
                "type": "Point",
                "coordinates": [
                    11.0044391,
                    49.5907414
                ]
            },
            "properties": {
                "name": "Computer Chemie Centrum"
            }
        },
        {
            "type": "Feature",
            "geometry": {
                "type": "Point",
                "coordinates": [
                    7.6245879,
                    51.9475301
                ]
            },
            "properties": {
                "name": "Zentrum f\u00fcr Lehrerbildung WWU"
            }
        },
        {
            "type": "Feature",
            "geometry": {
                "type": "Point",
                "coordinates": [
                    9.7128454,
                    52.3667141
                ]
            },
            "properties": {
                "name": "Gesellschaftswissenschaftliches Institut Hannover e. V."
            }
        },
        {
            "type": "Feature",
            "geometry": {
                "type": "Point",
                "coordinates": [
                    13.2939396,
                    52.4609534
                ]
            },
            "properties": {
                "name": "FB Veterin\u00e4rmedizin"
            }
        },
        {
            "type": "Feature",
            "geometry": {
                "type": "Point",
                "coordinates": [
                    13.2937859,
                    52.4616094
                ]
            },
            "properties": {
                "name": "FB Geschichts- und Kulturwissenschaften"
            }
        },
        {
            "type": "Feature",
            "geometry": {
                "type": "Point",
                "coordinates": [
                    13.2942022,
                    52.4612833
                ]
            },
            "properties": {
                "name": "FB Geschichts- und Kulturwissenschaften"
            }
        },
        {
            "type": "Feature",
            "geometry": {
                "type": "Point",
                "coordinates": [
                    13.2891169,
                    52.4702459
                ]
            },
            "properties": {
                "name": "FU Frankreich-Zentrum"
            }
        },
        {
            "type": "Feature",
            "geometry": {
                "type": "Point",
                "coordinates": [
                    13.2889954,
                    52.4703316
                ]
            },
            "properties": {
                "name": "FU Italien-Zentrum"
            }
        },
        {
            "type": "Feature",
            "geometry": {
                "type": "Point",
                "coordinates": [
                    8.025104,
                    52.2847053
                ]
            },
            "properties": {
                "name": "Universit\u00e4tsgeb\u00e4ude 32 (Physik)"
            }
        },
        {
            "type": "Feature",
            "geometry": {
                "type": "Point",
                "coordinates": [
                    8.0277245,
                    52.2824159
                ]
            },
            "properties": {
                "name": "Universit\u00e4tsgeb\u00e4ude 63"
            }
        },
        {
            "type": "Feature",
            "geometry": {
                "type": "Point",
                "coordinates": [
                    8.0230169,
                    52.2829951
                ]
            },
            "properties": {
                "name": "66 (Reithalle)"
            }
        },
        {
            "type": "Feature",
            "geometry": {
                "type": "Point",
                "coordinates": [
                    8.0049075,
                    52.2906253
                ]
            },
            "properties": {
                "name": "Universit\u00e4tsgeb\u00e4ude 70"
            }
        },
        {
            "type": "Feature",
            "geometry": {
                "type": "Point",
                "coordinates": [
                    8.6958229,
                    49.4073649
                ]
            },
            "properties": {
                "name": "Juristisches Seminar der Universit\u00e4t Heidelberg"
            }
        },
        {
            "type": "Feature",
            "geometry": {
                "type": "Point",
                "coordinates": [
                    8.0238561,
                    52.2821664
                ]
            },
            "properties": {
                "name": "AF"
            }
        },
        {
            "type": "Feature",
            "geometry": {
                "type": "Point",
                "coordinates": [
                    8.024078,
                    52.2841939
                ]
            },
            "properties": {
                "name": "AE"
            }
        },
        {
            "type": "Feature",
            "geometry": {
                "type": "Point",
                "coordinates": [
                    11.0178888,
                    49.6053737
                ]
            },
            "properties": {
                "name": "Institut f\u00fcr Praktische Theologie, Lehrstuhl f\u00fcr Missions- und Religionswissenschaft"
            }
        },
        {
            "type": "Feature",
            "geometry": {
                "type": "Point",
                "coordinates": [
                    8.2076889,
                    48.0520762
                ]
            },
            "properties": {
                "name": "Aula"
            }
        },
        {
            "type": "Feature",
            "geometry": {
                "type": "Point",
                "coordinates": [
                    7.6062173,
                    51.9601016
                ]
            },
            "properties": {
                "name": "AStA der Fachhochschule"
            }
        },
        {
            "type": "Feature",
            "geometry": {
                "type": "Point",
                "coordinates": [
                    13.392283,
                    52.5242273
                ]
            },
            "properties": {
                "name": "Parit\u00e4tische Akademie Berlin gGmbH"
            }
        },
        {
            "type": "Feature",
            "geometry": {
                "type": "Point",
                "coordinates": [
                    9.9698039,
                    53.5566607
                ]
            },
            "properties": {
                "name": "SAE Institute"
            }
        },
        {
            "type": "Feature",
            "geometry": {
                "type": "Point",
                "coordinates": [
                    6.695465,
                    51.1973932
                ]
            },
            "properties": {
                "name": "FernUniversit\u00e4t in Hagen - Regionalzentrum Neuss"
            }
        },
        {
            "type": "Feature",
            "geometry": {
                "type": "Point",
                "coordinates": [
                    8.708462,
                    49.4099529
                ]
            },
            "properties": {
                "name": "Institut f\u00fcr Kunstgeschichte Ostasiens"
            }
        },