{
    "type": "FeatureCollection",
    "features": [
        {
            "type": "Feature",
            "geometry": {
                "type": "Point",
                "coordinates": [
                    -9.065571,
                    53.2840636
                ]
            },
            "properties": {
                "name": "Cairnes Business School"
            }
        },
        {
            "type": "Feature",
            "geometry": {
                "type": "Point",
                "coordinates": [
                    -8.3051249,
                    51.8422818
                ]
            },
            "properties": {
                "name": "Coastal and Marine Resources Centre, UCC"
            }
        },
        {
            "type": "Feature",
            "geometry": {
                "type": "Point",
                "coordinates": [
                    -6.5965802,
                    53.3792776
                ]
            },
            "properties": {
                "name": "Saint Patrick's College Maynooth and Pontifical University"
            }
        },
        {
            "type": "Feature",
            "geometry": {
                "type": "Point",
                "coordinates": [
                    -6.598368,
                    53.3802737
                ]
            },
            "properties": {
                "name": "National University of Ireland Maynooth"
            }
        },
        {
            "type": "Feature",
            "geometry": {
                "type": "Point",
                "coordinates": [
                    -9.5992614,
                    53.2643723
                ]
            },
            "properties": {
                "name": "\u00c1ras Mh\u00e1irt\u00edn U\u00ed Chadhain"
            }
        },
        {
            "type": "Feature",
            "geometry": {
                "type": "Point",
                "coordinates": [
                    -6.268177,
                    53.336672
                ]
            },
            "properties": {
                "name": "Antenna & High Frequency Research Centre"
            }
        },
        {
            "type": "Feature",
            "geometry": {
                "type": "Point",
                "coordinates": [
                    -6.2598095,
                    53.3530106
                ]
            },
            "properties": {
                "name": "Dublin Institute of Technology - Tourism and Food Faculty"
            }
        },
        {
            "type": "Feature",
            "geometry": {
                "type": "Point",
                "coordinates": [
                    -8.483885,
                    51.900418
                ]
            },
            "properties": {
                "name": "Distillery House UCC"
            }
        },
        {
            "type": "Feature",
            "geometry": {
                "type": "Point",
                "coordinates": [
                    -7.2553834,
                    52.6469389
                ]
            },
            "properties": {
                "name": "NUIM Killkeny Campus"
            }
        },
        {
            "type": "Feature",
            "geometry": {
                "type": "Point",
                "coordinates": [
                    -6.2553677,
                    53.3382439
                ]
            },
            "properties": {
                "name": "Boston College - Ireland"
            }
        },
        {
            "type": "Feature",
            "geometry": {
                "type": "Point",
                "coordinates": [
                    -6.3086178,
                    53.3085321
                ]
            },
            "properties": {
                "name": "Kimmage Development Studies Centre"
            }
        },
        {
            "type": "Feature",
            "geometry": {
                "type": "Point",
                "coordinates": [
                    -6.2565016,
                    53.346116
                ]
            },
            "properties": {
                "name": "Griffith College"
            }
        },
        {
            "type": "Feature",
            "geometry": {
                "type": "Point",
                "coordinates": [
                    -6.2353682,
                    53.3110416
                ]
            },
            "properties": {
                "name": "UCD Richview"
            }
        },
        {
            "type": "Feature",
            "geometry": {
                "type": "Point",
                "coordinates": [
                    -8.4930946,
                    51.8936762
                ]
            },
            "properties": {
                "name": "University College Cork Main Campus"
            }
        },
        {
            "type": "Feature",
            "geometry": {
                "type": "Point",
                "coordinates": [
                    -6.2559934,
                    53.3711709
                ]
            },
            "properties": {
                "name": "Dublin City University Saint Patrick's Campus"
            }
        },
        {
            "type": "Feature",
            "geometry": {
                "type": "Point",
                "coordinates": [
                    -6.268641,
                    53.351221
                ]
            },
            "properties": {
                "name": "Dublin Institute of Technology - Bolton Street"
            }
        },
        {
            "type": "Feature",
            "geometry": {
                "type": "Point",
                "coordinates": [
                    -6.6015647,
                    53.3837599
                ]
            },
            "properties": {
                "name": "Arts Building"
            }
        },
        {
            "type": "Feature",
            "geometry": {
                "type": "Point",
                "coordinates": [
                    -6.600935,
                    53.3847353
                ]
            },
            "properties": {
                "name": "North Campus"
            }
        },
        {
            "type": "Feature",
            "geometry": {
                "type": "Point",
                "coordinates": [
                    -6.6007766,
                    53.3793919
                ]
            },
            "properties": {
                "name": "South Campus"
            }
        },
        {
            "type": "Feature",
            "geometry": {
                "type": "Point",
                "coordinates": [
                    -7.1396922,
                    52.2463058
                ]
            },
            "properties": {
                "name": "Waterford Institute of Technology, Cork Road Campus"
            }
        },
        {
            "type": "Feature",
            "geometry": {
                "type": "Point",
                "coordinates": [
                    -7.1820949,
                    52.2529248
                ]
            },
            "properties": {
                "name": "Waterford Institute of Technology, West Campus"
            }
        },
        {
            "type": "Feature",
            "geometry": {
                "type": "Point",
                "coordinates": [
                    -8.5703056,
                    52.6730814
                ]
            },
            "properties": {
                "name": "University of Limerick"
            }
        },
        {
            "type": "Feature",
            "geometry": {
                "type": "Point",
                "coordinates": [
                    -8.5723055,
                    52.6799017
                ]
            },
            "properties": {
                "name": "University of Limerick"
            }
        },
        {
            "type": "Feature",
            "geometry": {
                "type": "Point",
                "coordinates": [
                    -6.3021184,
                    53.37254
                ]
            },
            "properties": {
                "name": "DIT Sports Broombridge"
            }
        },
        {
            "type": "Feature",
            "geometry": {
                "type": "Point",
                "coordinates": [
                    -6.24874,
                    53.3437703
                ]
            },
            "properties": {
                "name": "Goldsmith Hall (Trinity College, Dublin)"
            }
        },
        {
            "type": "Feature",
            "geometry": {
                "type": "Point",
                "coordinates": [
                    -6.6025418,
                    53.3839945
                ]
            },
            "properties": {
                "name": "ArtsALT"
            }
        },
        {
            "type": "Feature",
            "geometry": {
                "type": "Point",
                "coordinates": [
                    -9.0108987,
                    53.2789018
                ]
            },
            "properties": {
                "name": "Galway and Mayo Institute of Technology"
            }
        },
        {
            "type": "Feature",
            "geometry": {
                "type": "Point",
                "coordinates": [
                    -6.3626961,
                    53.2910103
                ]
            },
            "properties": {
                "name": "Institute of Technology Tallaght"
            }
        },
        {
            "type": "Feature",
            "geometry": {
                "type": "Point",
                "coordinates": [
                    -6.2705531,
                    53.3818121
                ]
            },
            "properties": {
                "name": "Dublin City University Sports Campus"
            }
        },
        {
            "type": "Feature",
            "geometry": {
                "type": "Point",
                "coordinates": [
                    -6.9350075,
                    52.825778
                ]
            },
            "properties": {
                "name": "Institute of Technology Carlow"
            }
        },
        {
            "type": "Feature",
            "geometry": {
                "type": "Point",
                "coordinates": [
                    -8.5385542,
                    51.8856071
                ]
            },
            "properties": {
                "name": "Cork Institute of Technology"
            }
        },
        {
            "type": "Feature",
            "geometry": {
                "type": "Point",
                "coordinates": [
                    -8.5343445,
                    51.8839692
                ]
            },
            "properties": {
                "name": "Cork Institute of Technology"
            }
        },
        {
            "type": "Feature",
            "geometry": {
                "type": "Point",
                "coordinates": [
                    -6.2663892,
                    53.3244569
                ]
            },
            "properties": {
                "name": "Conservatory of Music and Drama"
            }
        },
        {
            "type": "Feature",
            "geometry": {
                "type": "Point",
                "coordinates": [
                    -8.4832415,
                    51.8980631
                ]
            },
            "properties": {
                "name": "UCC Lee Maltings"
            }
        },
        {
            "type": "Feature",
            "geometry": {
                "type": "Point",
                "coordinates": [
                    -6.2496105,
                    53.3565865
                ]
            },
            "properties": {
                "name": "Dublin Institute of Technology"
            }
        },
        {
            "type": "Feature",
            "geometry": {
                "type": "Point",
                "coordinates": [
                    -6.2785241,
                    53.3434837
                ]
            },
            "properties": {
                "name": "National College of Art & Design"
            }
        },
        {
            "type": "Feature",
            "geometry": {
                "type": "Point",
                "coordinates": [
                    -6.2770271,
                    53.3435696
                ]
            },
            "properties": {
                "name": "National College of Art & Design"
            }
        },
        {
            "type": "Feature",
            "geometry": {
                "type": "Point",
                "coordinates": [
                    -8.4837607,
                    51.8979051
                ]
            },
            "properties": {
                "name": "Tyndall National Institute"
            }
        },
        {
            "type": "Feature",
            "geometry": {
                "type": "Point",
                "coordinates": [
                    -6.3811007,
                    53.4053177
                ]
            },
            "properties": {
                "name": "Institute of Technology, Blanchardstown"
            }
        },
        {
            "type": "Feature",
            "geometry": {
                "type": "Point",
                "coordinates": [
                    -8.5005289,
                    51.8930674
                ]
            },
            "properties": {
                "name": "Western Gateway Building"
            }
        },
        {
            "type": "Feature",
            "geometry": {
                "type": "Point",
                "coordinates": [
                    -6.2627935,
                    53.3409164
                ]
            },
            "properties": {
                "name": "DIT - Conservatory of Music and Drama"
            }
        },
        {
            "type": "Feature",
            "geometry": {
                "type": "Point",
                "coordinates": [
                    -8.5005678,
                    51.8921038
                ]
            },
            "properties": {
                "name": "University College Cork Western Campus"
            }
        },
        {
            "type": "Feature",
            "geometry": {
                "type": "Point",
                "coordinates": [
                    -6.2299822,
                    53.3335791
                ]
            },
            "properties": {
                "name": "IPA - Institute of Public Administration"
            }
        },
        {
            "type": "Feature",
            "geometry": {
                "type": "Point",
                "coordinates": [
                    -8.4899555,
                    51.8940308
                ]
            }
        },
        {
            "type": "Feature",
            "geometry": {
                "type": "Point",
                "coordinates": [
                    -6.239204,
                    53.3421868
                ]
            },
            "properties": {
                "name": "The Lir"
            }
        },
        {
            "type": "Feature",
            "geometry": {
                "type": "Point",
                "coordinates": [
                    -6.2588819,
                    53.3850743
                ]
            },
            "properties": {
                "name": "Dublin City University Glasnevin Campus"
            }
        },
        {
            "type": "Feature",
            "geometry": {
                "type": "Point",
                "coordinates": [
                    -6.254975,
                    53.363759
                ]
            },
            "properties": {
                "name": "Dublin City University Mater Dei Campus"
            }
        },
        {
            "type": "Feature",
            "geometry": {
                "type": "Point",
                "coordinates": [
                    -6.2528335,
                    53.3649731
                ]
            },
            "properties": {
                "name": "Holy Cross College & Diocesan Centre"
            }
        },
        {
            "type": "Feature",
            "geometry": {
                "type": "Point",
                "coordinates": [
                    -6.2328399,
                    53.3730224
                ]
            },
            "properties": {
                "name": "Marino Institute of Education"
            }
        },
        {
            "type": "Feature",
            "geometry": {
                "type": "Point",
                "coordinates": [
                    -9.0583862,
                    53.2764252
                ]
            },
            "properties": {
                "name": "National University of Ireland, Galway"
            }
        },
        {
            "type": "Feature",
            "geometry": {
                "type": "Point",
                "coordinates": [
                    -9.9474824,
                    53.5525562
                ]
            },
            "properties": {
                "name": "GMIT Letterfrack"
            }
        },
        {
            "type": "Feature",
            "geometry": {
                "type": "Point",
                "coordinates": [
                    -8.5160699,
                    51.8951866
                ]
            },
            "properties": {
                "name": "UCC Environmental Research Institute"
            }
        },
        {
            "type": "Feature",
            "geometry": {
                "type": "Point",
                "coordinates": [
                    -6.1844361,
                    53.2958365
                ]
            },
            "properties": {
                "name": "UCD Michael Smurfit Graduate Business School"
            }
        },
        {
            "type": "Feature",
            "geometry": {
                "type": "Point",
                "coordinates": [
                    -6.2097864,
                    53.2785066
                ]
            },
            "properties": {
                "name": "RCSI Reservoir House"
            }
        },
        {
            "type": "Feature",
            "geometry": {
                "type": "Point",
                "coordinates": [
                    -9.9045195,
                    53.326734
                ]
            },
            "properties": {
                "name": "Mace Head Research Station"
            }
        },
        {
            "type": "Feature",
            "geometry": {
                "type": "Point",
                "coordinates": [
                    -6.3900683,
                    53.9831724
                ]
            },
            "properties": {
                "name": "Dundalk Institute of Technology - DKIT"
            }
        },
        {
            "type": "Feature",
            "geometry": {
                "type": "Point",
                "coordinates": [
                    -8.4848843,
                    51.8967245
                ]
            },
            "properties": {
                "name": "University College Cork"
            }
        },
        {
            "type": "Feature",
            "geometry": {
                "type": "Point",
                "coordinates": [
                    -9.0257371,
                    53.2835436
                ]
            },
            "properties": {
                "name": "Galway and Mayo Institute of Technology"
            }
        },
        {
            "type": "Feature",
            "geometry": {
                "type": "Point",
                "coordinates": [
                    -6.282336,
                    53.3555629
                ]
            },
            "properties": {
                "name": "Grangegorman Central Campus"
            }
        },
        {
            "type": "Feature",
            "geometry": {
                "type": "Point",
                "coordinates": [
                    -6.2595284,
                    53.3519173
                ]
            },
            "properties": {
                "name": "DIT College of Catering and Tourism"
            }
        },
        {
            "type": "Feature",
            "geometry": {
                "type": "Point",
                "coordinates": [
                    -9.0614867,
                    53.2810417
                ]
            },
            "properties": {
                "name": "NUI Galway (Main Campus)"
            }
        },
        {
            "type": "Feature",
            "geometry": {
                "type": "Point",
                "coordinates": [
                    -9.0735336,
                    53.2926644
                ]
            },
            "properties": {
                "name": "Dangan Sports Centre (NUIG)"
            }
        },
        {
            "type": "Feature",
            "geometry": {
                "type": "Point",
                "coordinates": [
                    -6.2544481,
                    53.3437325
                ]
            },
            "properties": {
                "name": "Trinity College, Dublin"
            }
        },
        {
            "type": "Feature",
            "geometry": {
                "type": "Point",
                "coordinates": [
                    -6.2472837,
                    53.3433509
                ]
            },
            "properties": {
                "name": "Trinity Biomedical Sciences Institute (Trinity College, Dublin)"
            }
        },
        {
            "type": "Feature",
            "geometry": {
                "type": "Point",
                "coordinates": [
                    -6.2627037,
                    53.3391625
                ]
            }
        },
        {
            "type": "Feature",
            "geometry": {
                "type": "Point",
                "coordinates": [
                    -7.7055273,
                    52.3648005
                ]
            },
            "properties": {
                "name": "LIT Clonmel Campus"
            }
        },
        {
            "type": "Feature",
            "geometry": {
                "type": "Point",
                "coordinates": [
                    -6.2496924,
                    53.3423029
                ]
            },
            "properties": {
                "name": "Royal Irish Academy of Music"
            }
        },
        {
            "type": "Feature",
            "geometry": {
                "type": "Point",
                "coordinates": [
                    -7.7430464,
                    52.3579808
                ]
            },
            "properties": {
                "name": "Questum Enterprise Centre"
            }
        },
        {
            "type": "Feature",
            "geometry": {
                "type": "Point",
                "coordinates": [
                    -6.2468053,
                    53.3437838
                ]
            },
            "properties": {
                "name": "Westland Square (Trinity College, Dublin)"
            }
        },
        {
            "type": "Feature",
            "geometry": {
                "type": "Point",
                "coordinates": [
                    -6.2501684,
                    53.3420248
                ]
            },
            "properties": {
                "name": "Dunlop Oriel House (Trinity College, Dublin)"
            }
        },
        {
            "type": "Feature",
            "geometry": {
                "type": "Point",
                "coordinates": [
                    -6.2706677,
                    53.376346
                ]
            },
            "properties": {
                "name": "Dublin City University Innovation Campus"
            }
        },
        {
            "type": "Feature",
            "geometry": {
                "type": "Point",
                "coordinates": [
                    -6.1522795,
                    53.2800739
                ]
            },
            "properties": {
                "name": "Dun Laoghaire Institute of Art, Design, and Technology"
            }
        },
        {
            "type": "Feature",
            "geometry": {
                "type": "Point",
                "coordinates": [
                    -6.2835295,
                    53.3486305
                ]
            },
            "properties": {
                "name": "Law Society of Ireland"
            }
        },
        {
            "type": "Feature",
            "geometry": {
                "type": "Point",
                "coordinates": [
                    -8.6160109,
                    52.6598341
                ]
            },
            "properties": {
                "name": "LCFE Main Campus"
            }
        },
        {
            "type": "Feature",
            "geometry": {
                "type": "Point",
                "coordinates": [
                    -8.2624586,
                    52.1631842
                ]
            },
            "properties": {
                "name": "Food Biosciences"
            }
        },
        {
            "type": "Feature",
            "geometry": {
                "type": "Point",
                "coordinates": [
                    -6.2672789,
                    53.3388358
                ]
            },
            "properties": {
                "name": "Dublin Institute of Technology, Aungier Street Campus"
            }
        },
        {
            "type": "Feature",
            "geometry": {
                "type": "Point",
                "coordinates": [
                    -6.2678703,
                    53.3369528
                ]
            },
            "properties": {
                "name": "Dublin Institute of Technology, Kevin Street Campus"
            }
        },
        {
            "type": "Feature",
            "geometry": {
                "type": "Point",
                "coordinates": [
                    -7.8270381,
                    52.6865964
                ]
            },
            "properties": {
                "name": "LIT Thurles Campus"
            }
        },
        {
            "type": "Feature",
            "geometry": {
                "type": "Point",
                "coordinates": [
                    -9.1695423,
                    53.1036486
                ]
            },
            "properties": {
                "name": "Burren College of Art"
            }
        },
        {
            "type": "Feature",
            "geometry": {
                "type": "Point",
                "coordinates": [
                    -8.4622778,
                    54.2786593
                ]
            },
            "properties": {
                "name": "Sligo Institute of Technology"
            }
        },
        {
            "type": "Feature",
            "geometry": {
                "type": "Point",
                "coordinates": [
                    -9.0729357,
                    53.2904283
                ]
            },
            "properties": {
                "name": "National University of Ireland, Galway"
            }
        },
        {
            "type": "Feature",
            "geometry": {
                "type": "Point",
                "coordinates": [
                    -8.3834921,
                    54.2595136
                ]
            },
            "properties": {
                "name": "St. Angela\u2019s College"
            }
        },
        {
            "type": "Feature",
            "geometry": {
                "type": "Point",
                "coordinates": [
                    -6.2632527,
                    53.3394127
                ]
            },
            "properties": {
                "name": "Royal College of Surgeons in Ireland"
            }
        },
        {
            "type": "Feature",
            "geometry": {
                "type": "Point",
                "coordinates": [
                    -6.2232224,
                    53.306846
                ]
            },
            "properties": {
                "name": "University College Dublin (Belfield Campus)"
            }
        },
        {
            "type": "Feature",
            "geometry": {
                "type": "Point",
                "coordinates": [
                    -6.2576587,
                    53.3466419
                ]
            },
            "properties": {
                "name": "School of Nursing and Midwifery (Trinity College, Dublin)"
            }
        },
        {
            "type": "Feature",
            "geometry": {
                "type": "Point",
                "coordinates": [
                    -6.5331039,
                    53.300079
                ]
            },
            "properties": {
                "name": "University College Dublin - Lyons Research Farm"
            }
        },
        {
            "type": "Feature",
            "geometry": {
                "type": "Point",
                "coordinates": [
                    -6.2484746,
                    53.37108
                ]
            },
            "properties": {
                "name": "Dublin City University All Hallows Campus"
            }
        },
        {
            "type": "Feature",
            "geometry": {
                "type": "Point",
                "coordinates": [
                    -6.2716012,
                    53.3528955
                ]
            },
            "properties": {
                "name": "The Honorable Society of King's Inns"
            }
        }
    ],
    "crs": {
        "type": "name",
        "properties": {
            "name": "urn:ogc:def:crs:OGC:1.3:CRS84"
        }
    }
}