{
    "type": "FeatureCollection",
    "features": [
        {
            "type": "Feature",
            "geometry": {
                "type": "Point",
                "coordinates": [
                    4.46391,
                    51.914277
                ]
            },
            "properties": {
                "name": "Lido"
            }
        },
        {
            "type": "Feature",
            "geometry": {
                "type": "Point",
                "coordinates": [
                    4.463283,
                    51.913969
                ]
            },
            "properties": {
                "name": "OQ"
            }
        },
        {
            "type": "Feature",
            "geometry": {
                "type": "Point",
                "coordinates": [
                    4.477322,
                    51.911098
                ]
            },
            "properties": {
                "name": "Piek"
            }
        },
        {
            "type": "Feature",
            "geometry": {
                "type": "Point",
                "coordinates": [
                    4.477225,
                    51.911176
                ]
            },
            "properties": {
                "name": "Mon Cheri"
            }
        },
        {
            "type": "Feature",
            "geometry": {
                "type": "Point",
                "coordinates": [
                    5.0726181,
                    52.3237968
                ]
            },
            "properties": {
                "name": "Fata Morgana"
            }
        },
        {
            "type": "Feature",
            "geometry": {
                "type": "Point",
                "coordinates": [
                    4.7706456,
                    51.5976339
                ]
            },
            "properties": {
                "name": "Club reeperbahn"
            }
        },
        {
            "type": "Feature",
            "geometry": {
                "type": "Point",
                "coordinates": [
                    4.8996679,
                    52.373811
                ]
            },
            "properties": {
                "name": "Bananenbar"
            }
        },
        {
            "type": "Feature",
            "geometry": {
                "type": "Point",
                "coordinates": [
                    4.8966022,
                    52.3741695
                ]
            },
            "properties": {
                "name": "La Vie"
            }
        },
        {
            "type": "Feature",
            "geometry": {
                "type": "Point",
                "coordinates": [
                    4.8968182,
                    52.3739938
                ]
            },
            "properties": {
                "name": "La Vie en Proost"
            }
        },
        {
            "type": "Feature",
            "geometry": {
                "type": "Point",
                "coordinates": [
                    4.8969218,
                    52.3739659
                ]
            },
            "properties": {
                "name": "Roos"
            }
        },
        {
            "type": "Feature",
            "geometry": {
                "type": "Point",
                "coordinates": [
                    4.8975494,
                    52.3724389
                ]
            },
            "properties": {
                "name": "Theatre 97"
            }
        },
        {
            "type": "Feature",
            "geometry": {
                "type": "Point",
                "coordinates": [
                    4.8986156,
                    52.3733072
                ]
            },
            "properties": {
                "name": "Casa Rosso"
            }
        },
        {
            "type": "Feature",
            "geometry": {
                "type": "Point",
                "coordinates": [
                    4.8982895,
                    52.3730388
                ]
            },
            "properties": {
                "name": "Sex Palace"
            }
        },
        {
            "type": "Feature",
            "geometry": {
                "type": "Point",
                "coordinates": [
                    4.8981114,
                    52.372439
                ]
            },
            "properties": {
                "name": "Casa Rosso"
            }
        },
        {
            "type": "Feature",
            "geometry": {
                "type": "Point",
                "coordinates": [
                    -69.9064618,
                    12.4326955
                ]
            },
            "properties": {
                "name": "Chica Cafe"
            }
        },
        {
            "type": "Feature",
            "geometry": {
                "type": "Point",
                "coordinates": [
                    -69.9063962,
                    12.4326767
                ]
            },
            "properties": {
                "name": "Fantasy Nightclub"
            }
        }
    ],
    "crs": {
        "type": "name",
        "properties": {
            "name": "urn:ogc:def:crs:OGC:1.3:CRS84"
        }
    }
}