{
    "type": "FeatureCollection",
    "features": [
        {
            "type": "Feature",
            "geometry": {
                "type": "Point",
                "coordinates": [
                    8.1094431,
                    53.5186346
                ]
            },
            "properties": {
                "name": "Aphrodite-Bar das gelbe Haus"
            }
        },
        {
            "type": "Feature",
            "geometry": {
                "type": "Point",
                "coordinates": [
                    9.8770144,
                    52.5826553
                ]
            }
        },
        {
            "type": "Feature",
            "geometry": {
                "type": "Point",
                "coordinates": [
                    8.45356,
                    48.0767696
                ]
            },
            "properties": {
                "name": "FKK Monaco"
            }
        },
        {
            "type": "Feature",
            "geometry": {
                "type": "Point",
                "coordinates": [
                    8.5651577,
                    50.130109
                ]
            },
            "properties": {
                "name": "Treff 188"
            }
        },
        {
            "type": "Feature",
            "geometry": {
                "type": "Point",
                "coordinates": [
                    11.6697494,
                    48.1341299
                ]
            },
            "properties": {
                "name": "Pascha M\u00fcnchen"
            }
        },
        {
            "type": "Feature",
            "geometry": {
                "type": "Point",
                "coordinates": [
                    11.6705219,
                    48.13418
                ]
            },
            "properties": {
                "name": "Anastasia Penthouse Club"
            }
        },
        {
            "type": "Feature",
            "geometry": {
                "type": "Point",
                "coordinates": [
                    8.0646298,
                    52.2809778
                ]
            },
            "properties": {
                "name": "Bolero (Bordell)"
            }
        },
        {
            "type": "Feature",
            "geometry": {
                "type": "Point",
                "coordinates": [
                    8.0959511,
                    52.2907281
                ]
            },
            "properties": {
                "name": "Nacht Club Haus-Bremen"
            }
        },
        {
            "type": "Feature",
            "geometry": {
                "type": "Point",
                "coordinates": [
                    10.1776321,
                    49.7482832
                ]
            },
            "properties": {
                "name": "Zaubermaus-Haus"
            }
        },
        {
            "type": "Feature",
            "geometry": {
                "type": "Point",
                "coordinates": [
                    13.3476764,
                    52.4819594
                ]
            },
            "properties": {
                "name": "Lustgarten"
            }
        },
        {
            "type": "Feature",
            "geometry": {
                "type": "Point",
                "coordinates": [
                    13.2980252,
                    52.5069389
                ]
            },
            "properties": {
                "name": "Club 77"
            }
        },
        {
            "type": "Feature",
            "geometry": {
                "type": "Point",
                "coordinates": [
                    9.7966632,
                    52.5569871
                ]
            }
        },
        {
            "type": "Feature",
            "geometry": {
                "type": "Point",
                "coordinates": [
                    8.8113126,
                    53.0811538
                ]
            },
            "properties": {
                "name": "Partytreff Bremen"
            }
        },
        {
            "type": "Feature",
            "geometry": {
                "type": "Point",
                "coordinates": [
                    8.7727835,
                    53.1010463
                ]
            },
            "properties": {
                "name": "Stra\u00dfenstrich Bremen Cuxhavener Stra\u00dfe"
            }
        },
        {
            "type": "Feature",
            "geometry": {
                "type": "Point",
                "coordinates": [
                    8.7770536,
                    53.0981458
                ]
            },
            "properties": {
                "name": "Happy Night"
            }
        },
        {
            "type": "Feature",
            "geometry": {
                "type": "Point",
                "coordinates": [
                    8.7772824,
                    53.0980172
                ]
            },
            "properties": {
                "name": "Sterner Bar"
            }
        },
        {
            "type": "Feature",
            "geometry": {
                "type": "Point",
                "coordinates": [
                    8.7769588,
                    53.0979795
                ]
            },
            "properties": {
                "name": "Cin Cin"
            }
        },
        {
            "type": "Feature",
            "geometry": {
                "type": "Point",
                "coordinates": [
                    12.4396478,
                    51.3576401
                ]
            },
            "properties": {
                "name": "FKK Saunaclub Leipzig"
            }
        },
        {
            "type": "Feature",
            "geometry": {
                "type": "Point",
                "coordinates": [
                    9.7379704,
                    52.3811365
                ]
            }
        },
        {
            "type": "Feature",
            "geometry": {
                "type": "Point",
                "coordinates": [
                    9.7377647,
                    52.3810299
                ]
            }
        },
        {
            "type": "Feature",
            "geometry": {
                "type": "Point",
                "coordinates": [
                    9.7376001,
                    52.3809329
                ]
            }
        },
        {
            "type": "Feature",
            "geometry": {
                "type": "Point",
                "coordinates": [
                    9.7372935,
                    52.3807956
                ]
            }
        },
        {
            "type": "Feature",
            "geometry": {
                "type": "Point",
                "coordinates": [
                    9.7372025,
                    52.3807448
                ]
            }
        },
        {
            "type": "Feature",
            "geometry": {
                "type": "Point",
                "coordinates": [
                    9.7370959,
                    52.38069
                ]
            }
        },
        {
            "type": "Feature",
            "geometry": {
                "type": "Point",
                "coordinates": [
                    9.7370062,
                    52.3806432
                ]
            }
        },
        {
            "type": "Feature",
            "geometry": {
                "type": "Point",
                "coordinates": [
                    9.7366097,
                    52.3804809
                ]
            }
        },
        {
            "type": "Feature",
            "geometry": {
                "type": "Point",
                "coordinates": [
                    9.7365375,
                    52.3805249
                ]
            }
        },
        {
            "type": "Feature",
            "geometry": {
                "type": "Point",
                "coordinates": [
                    9.7364682,
                    52.3805743
                ]
            }
        },
        {
            "type": "Feature",
            "geometry": {
                "type": "Point",
                "coordinates": [
                    9.7364075,
                    52.3806201
                ]
            }
        },
        {
            "type": "Feature",
            "geometry": {
                "type": "Point",
                "coordinates": [
                    9.7363324,
                    52.3806642
                ]
            }
        },
        {
            "type": "Feature",
            "geometry": {
                "type": "Point",
                "coordinates": [
                    6.4463517,
                    51.162501
                ]
            },
            "properties": {
                "name": "Paradies"
            }
        },
        {
            "type": "Feature",
            "geometry": {
                "type": "Point",
                "coordinates": [
                    6.860823,
                    51.1743938
                ]
            },
            "properties": {
                "name": "Dolce Vita Erotic Lounge"
            }
        },
        {
            "type": "Feature",
            "geometry": {
                "type": "Point",
                "coordinates": [
                    7.7300796,
                    49.4449127
                ]
            },
            "properties": {
                "name": "FKK Club Tantra"
            }
        },
        {
            "type": "Feature",
            "geometry": {
                "type": "Point",
                "coordinates": [
                    9.9618505,
                    53.5480898
                ]
            }
        },
        {
            "type": "Feature",
            "geometry": {
                "type": "Point",
                "coordinates": [
                    6.9031071,
                    49.2479422
                ]
            }
        },
        {
            "type": "Feature",
            "geometry": {
                "type": "Point",
                "coordinates": [
                    13.4292983,
                    52.5542998
                ]
            },
            "properties": {
                "name": "Salon Berger"
            }
        },
        {
            "type": "Feature",
            "geometry": {
                "type": "Point",
                "coordinates": [
                    8.2410204,
                    48.7557246
                ]
            },
            "properties": {
                "name": "Villa Ascona"
            }
        },
        {
            "type": "Feature",
            "geometry": {
                "type": "Point",
                "coordinates": [
                    9.9593282,
                    53.5496983
                ]
            },
            "properties": {
                "name": "Eros Laufhaus"
            }
        },
        {
            "type": "Feature",
            "geometry": {
                "type": "Point",
                "coordinates": [
                    11.5895945,
                    48.1881572
                ]
            },
            "properties": {
                "name": "Palazzo der Sinne"
            }
        },
        {
            "type": "Feature",
            "geometry": {
                "type": "Point",
                "coordinates": [
                    10.047172,
                    53.5473962
                ]
            },
            "properties": {
                "name": "FKK Club Babylon"
            }
        },
        {
            "type": "Feature",
            "geometry": {
                "type": "Point",
                "coordinates": [
                    9.2239804,
                    49.1545752
                ]
            },
            "properties": {
                "name": "Je t' aime"
            }
        },
        {
            "type": "Feature",
            "geometry": {
                "type": "Point",
                "coordinates": [
                    13.4224537,
                    52.5396884
                ]
            },
            "properties": {
                "name": "Maison d'envie"
            }
        },
        {
            "type": "Feature",
            "geometry": {
                "type": "Point",
                "coordinates": [
                    7.612651,
                    51.9724887
                ]
            },
            "properties": {
                "name": "Haus 58"
            }
        },
        {
            "type": "Feature",
            "geometry": {
                "type": "Point",
                "coordinates": [
                    8.4160602,
                    49.0087558
                ]
            },
            "properties": {
                "name": "Eroscenter Haus 5"
            }
        },
        {
            "type": "Feature",
            "geometry": {
                "type": "Point",
                "coordinates": [
                    13.3519236,
                    52.5413237
                ]
            },
            "properties": {
                "name": "Alte Manier"
            }
        },
        {
            "type": "Feature",
            "geometry": {
                "type": "Point",
                "coordinates": [
                    9.6372201,
                    54.1841749
                ]
            }
        },
        {
            "type": "Feature",
            "geometry": {
                "type": "Point",
                "coordinates": [
                    7.7026133,
                    50.3491157
                ]
            }
        },
        {
            "type": "Feature",
            "geometry": {
                "type": "Point",
                "coordinates": [
                    9.6323142,
                    54.1758091
                ]
            }
        },
        {
            "type": "Feature",
            "geometry": {
                "type": "Point",
                "coordinates": [
                    9.9687221,
                    48.4012275
                ]
            },
            "properties": {
                "name": "Eroscenter Ulm"
            }
        },
        {
            "type": "Feature",
            "geometry": {
                "type": "Point",
                "coordinates": [
                    9.7326736,
                    52.3751237
                ]
            }
        },
        {
            "type": "Feature",
            "geometry": {
                "type": "Point",
                "coordinates": [
                    9.1000471,
                    54.1944795
                ]
            },
            "properties": {
                "name": "Red Roses"
            }
        },
        {
            "type": "Feature",
            "geometry": {
                "type": "Point",
                "coordinates": [
                    13.4729885,
                    52.5131437
                ]
            },
            "properties": {
                "name": "Jessner 6"
            }
        },
        {
            "type": "Feature",
            "geometry": {
                "type": "Point",
                "coordinates": [
                    13.4442231,
                    52.461292
                ]
            },
            "properties": {
                "name": "Stella Diskret"
            }
        },
        {
            "type": "Feature",
            "geometry": {
                "type": "Point",
                "coordinates": [
                    13.4449376,
                    52.5537574
                ]
            },
            "properties": {
                "name": "Flair"
            }
        },
        {
            "type": "Feature",
            "geometry": {
                "type": "Point",
                "coordinates": [
                    8.225835,
                    53.07914
                ]
            }
        },
        {
            "type": "Feature",
            "geometry": {
                "type": "Point",
                "coordinates": [
                    13.3216873,
                    52.5211323
                ]
            },
            "properties": {
                "name": "Sexkino Tinas Oase"
            }
        },
        {
            "type": "Feature",
            "geometry": {
                "type": "Point",
                "coordinates": [
                    7.8341301,
                    47.9923802
                ]
            },
            "properties": {
                "name": "Villa Freiburg"
            }
        },
        {
            "type": "Feature",
            "geometry": {
                "type": "Point",
                "coordinates": [
                    12.3021833,
                    51.3448551
                ]
            },
            "properties": {
                "name": "L.u.v. Lounge"
            }
        },
        {
            "type": "Feature",
            "geometry": {
                "type": "Point",
                "coordinates": [
                    13.324929,
                    52.5017252
                ]
            },
            "properties": {
                "name": "Salon Deluxe Berlin"
            }
        },
        {
            "type": "Feature",
            "geometry": {
                "type": "Point",
                "coordinates": [
                    13.3144384,
                    52.5066167
                ]
            },
            "properties": {
                "name": "Club Mona"
            }
        },
        {
            "type": "Feature",
            "geometry": {
                "type": "Point",
                "coordinates": [
                    13.4293824,
                    52.4824572
                ]
            },
            "properties": {
                "name": "Mausi Richter"
            }
        },
        {
            "type": "Feature",
            "geometry": {
                "type": "Point",
                "coordinates": [
                    8.3630069,
                    49.6273245
                ]
            },
            "properties": {
                "name": "FKK Club Feigenblatt"
            }
        },
        {
            "type": "Feature",
            "geometry": {
                "type": "Point",
                "coordinates": [
                    9.9706527,
                    48.3958378
                ]
            },
            "properties": {
                "name": "K\u00e4ssbohrerstra\u00dfe 9"
            }
        },
        {
            "type": "Feature",
            "geometry": {
                "type": "Point",
                "coordinates": [
                    6.9809823,
                    49.242933
                ]
            },
            "properties": {
                "name": "Villa Paris"
            }
        },
        {
            "type": "Feature",
            "geometry": {
                "type": "Point",
                "coordinates": [
                    13.4145111,
                    52.5575699
                ]
            },
            "properties": {
                "name": "Salon Rubin"
            }
        },
        {
            "type": "Feature",
            "geometry": {
                "type": "Point",
                "coordinates": [
                    11.5463537,
                    48.2027292
                ]
            },
            "properties": {
                "name": "Penthouse Bizarr"
            }
        },
        {
            "type": "Feature",
            "geometry": {
                "type": "Point",
                "coordinates": [
                    8.0365687,
                    52.243719
                ]
            },
            "properties": {
                "name": "Totalclub Osnabr\u00fcck"
            }
        },
        {
            "type": "Feature",
            "geometry": {
                "type": "Point",
                "coordinates": [
                    10.671779,
                    53.8651359
                ]
            },
            "properties": {
                "name": "Club Hotel L\u00fcbeck"
            }
        },
        {
            "type": "Feature",
            "geometry": {
                "type": "Point",
                "coordinates": [
                    13.4605013,
                    52.5141324
                ]
            },
            "properties": {
                "name": "Queens"
            }
        },
        {
            "type": "Feature",
            "geometry": {
                "type": "Point",
                "coordinates": [
                    13.3966922,
                    52.4917339
                ]
            },
            "properties": {
                "name": "Club 44"
            }
        },
        {
            "type": "Feature",
            "geometry": {
                "type": "Point",
                "coordinates": [
                    13.4613747,
                    52.5089687
                ]
            },
            "properties": {
                "name": "Seume-Erotic Massagen"
            }
        },
        {
            "type": "Feature",
            "geometry": {
                "type": "Point",
                "coordinates": [
                    13.4020456,
                    52.4985734
                ]
            },
            "properties": {
                "name": "Haus Latina"
            }
        },
        {
            "type": "Feature",
            "geometry": {
                "type": "Point",
                "coordinates": [
                    13.4629259,
                    52.5090419
                ]
            },
            "properties": {
                "name": "Rose Thaimodelle"
            }
        },
        {
            "type": "Feature",
            "geometry": {
                "type": "Point",
                "coordinates": [
                    8.8094192,
                    53.0924234
                ]
            },
            "properties": {
                "name": "Denice"
            }
        },
        {
            "type": "Feature",
            "geometry": {
                "type": "Point",
                "coordinates": [
                    8.6542666,
                    53.0188687
                ]
            },
            "properties": {
                "name": "Redbox"
            }
        },
        {
            "type": "Feature",
            "geometry": {
                "type": "Point",
                "coordinates": [
                    8.436087,
                    52.895259
                ]
            }
        },
        {
            "type": "Feature",
            "geometry": {
                "type": "Point",
                "coordinates": [
                    7.6065322,
                    53.3333365
                ]
            },
            "properties": {
                "name": "Haus Salom\u00e9 6"
            }
        },
        {
            "type": "Feature",
            "geometry": {
                "type": "Point",
                "coordinates": [
                    13.379614,
                    52.5514171
                ]
            },
            "properties": {
                "name": "Ute's Nachtbar"
            }
        },
        {
            "type": "Feature",
            "geometry": {
                "type": "Point",
                "coordinates": [
                    13.3401706,
                    52.527756
                ]
            },
            "properties": {
                "name": "Asia Sex und Thaimassage"
            }
        },
        {
            "type": "Feature",
            "geometry": {
                "type": "Point",
                "coordinates": [
                    13.3707346,
                    52.5585824
                ]
            },
            "properties": {
                "name": "absolut tabu"
            }
        },
        {
            "type": "Feature",
            "geometry": {
                "type": "Point",
                "coordinates": [
                    13.3484322,
                    52.5348115
                ]
            },
            "properties": {
                "name": "Amante"
            }
        },
        {
            "type": "Feature",
            "geometry": {
                "type": "Point",
                "coordinates": [
                    13.385074,
                    52.555466
                ]
            },
            "properties": {
                "name": "Zimmervermietung"
            }
        },
        {
            "type": "Feature",
            "geometry": {
                "type": "Point",
                "coordinates": [
                    13.375497,
                    52.553585
                ]
            },
            "properties": {
                "name": "Sexkino Happy Night"
            }
        },
        {
            "type": "Feature",
            "geometry": {
                "type": "Point",
                "coordinates": [
                    13.350102,
                    52.531456
                ]
            },
            "properties": {
                "name": "Maria Brasil"
            }
        },
        {
            "type": "Feature",
            "geometry": {
                "type": "Point",
                "coordinates": [
                    13.3174705,
                    52.5310676
                ]
            },
            "properties": {
                "name": "Perla-Eroktik"
            }
        },
        {
            "type": "Feature",
            "geometry": {
                "type": "Point",
                "coordinates": [
                    13.378041,
                    52.543785
                ]
            },
            "properties": {
                "name": "Freudenhaus Hase"
            }
        },
        {
            "type": "Feature",
            "geometry": {
                "type": "Point",
                "coordinates": [
                    13.3767308,
                    52.5599332
                ]
            },
            "properties": {
                "name": "Thaimodelle"
            }
        },
        {
            "type": "Feature",
            "geometry": {
                "type": "Point",
                "coordinates": [
                    13.3450939,
                    52.5347085
                ]
            },
            "properties": {
                "name": "Kira"
            }
        },
        {
            "type": "Feature",
            "geometry": {
                "type": "Point",
                "coordinates": [
                    13.5641397,
                    52.5715495
                ]
            },
            "properties": {
                "name": "Sweet-Dream-Angel"
            }
        },
        {
            "type": "Feature",
            "geometry": {
                "type": "Point",
                "coordinates": [
                    13.5656742,
                    52.5724178
                ]
            },
            "properties": {
                "name": "Jyli Thai und Asia Girls"
            }
        },
        {
            "type": "Feature",
            "geometry": {
                "type": "Point",
                "coordinates": [
                    13.5184247,
                    52.5280678
                ]
            },
            "properties": {
                "name": "bei Julia Massagen"
            }
        },
        {
            "type": "Feature",
            "geometry": {
                "type": "Point",
                "coordinates": [
                    13.502475,
                    52.510666
                ]
            },
            "properties": {
                "name": "Fantasy Bar"
            }
        },
        {
            "type": "Feature",
            "geometry": {
                "type": "Point",
                "coordinates": [
                    13.4517021,
                    52.5228749
                ]
            },
            "properties": {
                "name": "Carena"
            }
        },
        {
            "type": "Feature",
            "geometry": {
                "type": "Point",
                "coordinates": [
                    13.4301393,
                    52.4852651
                ]
            },
            "properties": {
                "name": "La Dolce Vita I"
            }
        },
        {
            "type": "Feature",
            "geometry": {
                "type": "Point",
                "coordinates": [
                    13.4345694,
                    52.4902716
                ]
            },
            "properties": {
                "name": "La Dolce Vita II"
            }
        },
        {
            "type": "Feature",
            "geometry": {
                "type": "Point",
                "coordinates": [
                    13.430672,
                    52.48468
                ]
            },
            "properties": {
                "name": "Lust auf Sommer"
            }
        },
        {
            "type": "Feature",
            "geometry": {
                "type": "Point",
                "coordinates": [
                    13.3150098,
                    52.4483198
                ]
            },
            "properties": {
                "name": "Monas Roses"
            }
        },
        {
            "type": "Feature",
            "geometry": {
                "type": "Point",
                "coordinates": [
                    13.408027,
                    52.564182
                ]
            },
            "properties": {
                "name": "Salon Pankow"
            }
        },
        {
            "type": "Feature",
            "geometry": {
                "type": "Point",
                "coordinates": [
                    13.302361,
                    52.50853
                ]
            },
            "properties": {
                "name": "La Folie"
            }
        },
        {
            "type": "Feature",
            "geometry": {
                "type": "Point",
                "coordinates": [
                    6.5817632,
                    50.9391611
                ]
            },
            "properties": {
                "name": "Saunaclub Babylon"
            }
        },
        {
            "type": "Feature",
            "geometry": {
                "type": "Point",
                "coordinates": [
                    13.1900423,
                    52.5325609
                ]
            },
            "properties": {
                "name": "Appartment Ewa"
            }
        },
        {
            "type": "Feature",
            "geometry": {
                "type": "Point",
                "coordinates": [
                    13.4217318,
                    52.5736733
                ]
            },
            "properties": {
                "name": "Platinium-Girls"
            }
        },
        {
            "type": "Feature",
            "geometry": {
                "type": "Point",
                "coordinates": [
                    13.324599,
                    52.4665111
                ]
            },
            "properties": {
                "name": "Agentur EUB Berlin"
            }
        },
        {
            "type": "Feature",
            "geometry": {
                "type": "Point",
                "coordinates": [
                    13.3216637,
                    52.5690013
                ]
            },
            "properties": {
                "name": "Pension Schilling"
            }
        },
        {
            "type": "Feature",
            "geometry": {
                "type": "Point",
                "coordinates": [
                    13.3346566,
                    52.47123
                ]
            },
            "properties": {
                "name": "Paradies Girls"
            }
        },
        {
            "type": "Feature",
            "geometry": {
                "type": "Point",
                "coordinates": [
                    13.3841877,
                    52.4393936
                ]
            },
            "properties": {
                "name": "Mariendorfer K\u00f6nig"
            }
        },
        {
            "type": "Feature",
            "geometry": {
                "type": "Point",
                "coordinates": [
                    13.3090973,
                    52.5682736
                ]
            },
            "properties": {
                "name": "Klix 37"
            }
        },
        {
            "type": "Feature",
            "geometry": {
                "type": "Point",
                "coordinates": [
                    13.365839,
                    52.5533389
                ]
            },
            "properties": {
                "name": "Fuchs 34"
            }
        },
        {
            "type": "Feature",
            "geometry": {
                "type": "Point",
                "coordinates": [
                    13.3885812,
                    52.5523625
                ]
            },
            "properties": {
                "name": "Mona Lisa Erotik"
            }
        },
        {
            "type": "Feature",
            "geometry": {
                "type": "Point",
                "coordinates": [
                    13.4467229,
                    52.478638
                ]
            },
            "properties": {
                "name": "Lady Blond"
            }
        },
        {
            "type": "Feature",
            "geometry": {
                "type": "Point",
                "coordinates": [
                    13.4843863,
                    52.4640405
                ]
            },
            "properties": {
                "name": "Diamond Girls Berlin"
            }
        },
        {
            "type": "Feature",
            "geometry": {
                "type": "Point",
                "coordinates": [
                    13.4277582,
                    52.4874544
                ]
            },
            "properties": {
                "name": "MAC"
            }
        },
        {
            "type": "Feature",
            "geometry": {
                "type": "Point",
                "coordinates": [
                    13.3097153,
                    52.4794996
                ]
            },
            "properties": {
                "name": "Van Kampen"
            }
        },
        {
            "type": "Feature",
            "geometry": {
                "type": "Point",
                "coordinates": [
                    13.3818033,
                    52.4587684
                ]
            },
            "properties": {
                "name": "Schr\u00f6der"
            }
        },
        {
            "type": "Feature",
            "geometry": {
                "type": "Point",
                "coordinates": [
                    13.406128,
                    52.554638
                ]
            },
            "properties": {
                "name": "Sanuk Thaimassage 1"
            }
        },
        {
            "type": "Feature",
            "geometry": {
                "type": "Point",
                "coordinates": [
                    13.3471369,
                    52.5504618
                ]
            },
            "properties": {
                "name": "Sophie Sonne"
            }
        },
        {
            "type": "Feature",
            "geometry": {
                "type": "Point",
                "coordinates": [
                    13.3129996,
                    52.5023582
                ]
            },
            "properties": {
                "name": "Monrouge"
            }
        },
        {
            "type": "Feature",
            "geometry": {
                "type": "Point",
                "coordinates": [
                    13.5776935,
                    52.4435862
                ]
            },
            "properties": {
                "name": "Moskau-Modelle"
            }
        },
        {
            "type": "Feature",
            "geometry": {
                "type": "Point",
                "coordinates": [
                    13.3172035,
                    52.615814
                ]
            },
            "properties": {
                "name": "Villa Hermsdorf"
            }
        },
        {
            "type": "Feature",
            "geometry": {
                "type": "Point",
                "coordinates": [
                    13.4706168,
                    52.5131147
                ]
            },
            "properties": {
                "name": "Club Amor"
            }
        },
        {
            "type": "Feature",
            "geometry": {
                "type": "Point",
                "coordinates": [
                    13.426722,
                    52.486332
                ]
            },
            "properties": {
                "name": "Suntharee"
            }
        },
        {
            "type": "Feature",
            "geometry": {
                "type": "Point",
                "coordinates": [
                    13.3625303,
                    52.5467525
                ]
            },
            "properties": {
                "name": "Mond-Erotik"
            }
        },
        {
            "type": "Feature",
            "geometry": {
                "type": "Point",
                "coordinates": [
                    13.4482225,
                    52.5522923
                ]
            },
            "properties": {
                "name": "Club 59"
            }
        },
        {
            "type": "Feature",
            "geometry": {
                "type": "Point",
                "coordinates": [
                    13.4535669,
                    52.5478742
                ]
            },
            "properties": {
                "name": "Ninas Oase"
            }
        },
        {
            "type": "Feature",
            "geometry": {
                "type": "Point",
                "coordinates": [
                    13.29227,
                    52.498196
                ]
            },
            "properties": {
                "name": "Starlight-Modelle"
            }
        },
        {
            "type": "Feature",
            "geometry": {
                "type": "Point",
                "coordinates": [
                    9.4219673,
                    54.812549
                ]
            },
            "properties": {
                "name": "Red Rose"
            }
        },
        {
            "type": "Feature",
            "geometry": {
                "type": "Point",
                "coordinates": [
                    10.1648635,
                    49.7506359
                ]
            },
            "properties": {
                "name": "Villa 66"
            }
        },
        {
            "type": "Feature",
            "geometry": {
                "type": "Point",
                "coordinates": [
                    10.4005058,
                    53.2469549
                ]
            },
            "properties": {
                "name": "L\u00fcneburg Modelle"
            }
        },
        {
            "type": "Feature",
            "geometry": {
                "type": "Point",
                "coordinates": [
                    13.309967,
                    52.57917
                ]
            },
            "properties": {
                "name": "l'affaire Berlin"
            }
        },
        {
            "type": "Feature",
            "geometry": {
                "type": "Point",
                "coordinates": [
                    13.454499,
                    52.474854
                ]
            },
            "properties": {
                "name": "Sonnen Thaimassage 209"
            }
        },
        {
            "type": "Feature",
            "geometry": {
                "type": "Point",
                "coordinates": [
                    6.9994168,
                    49.2341056
                ]
            },
            "properties": {
                "name": "City Love Pension"
            }
        },
        {
            "type": "Feature",
            "geometry": {
                "type": "Point",
                "coordinates": [
                    9.2982381,
                    48.8208034
                ]
            },
            "properties": {
                "name": "Eroscenter Waiblingen"
            }
        },
        {
            "type": "Feature",
            "geometry": {
                "type": "Point",
                "coordinates": [
                    8.6905552,
                    50.1137784
                ]
            },
            "properties": {
                "name": "Haus 7-9"
            }
        },
        {
            "type": "Feature",
            "geometry": {
                "type": "Point",
                "coordinates": [
                    13.4517952,
                    52.4891617
                ]
            },
            "properties": {
                "name": "Angel II"
            }
        },
        {
            "type": "Feature",
            "geometry": {
                "type": "Point",
                "coordinates": [
                    13.4374383,
                    52.4641946
                ]
            },
            "properties": {
                "name": "Kleines Versteck"
            }
        },
        {
            "type": "Feature",
            "geometry": {
                "type": "Point",
                "coordinates": [
                    13.305803,
                    52.525364
                ]
            },
            "properties": {
                "name": "Sexkino 41"
            }
        },
        {
            "type": "Feature",
            "geometry": {
                "type": "Point",
                "coordinates": [
                    13.379733,
                    52.57025
                ]
            },
            "properties": {
                "name": "Sahla Modelle"
            }
        },
        {
            "type": "Feature",
            "geometry": {
                "type": "Point",
                "coordinates": [
                    11.0571004,
                    49.4110805
                ]
            },
            "properties": {
                "name": "Donaustra\u00dfe 105"
            }
        },
        {
            "type": "Feature",
            "geometry": {
                "type": "Point",
                "coordinates": [
                    13.3676011,
                    52.5303409
                ]
            },
            "properties": {
                "name": "Garden of Eden"
            }
        },
        {
            "type": "Feature",
            "geometry": {
                "type": "Point",
                "coordinates": [
                    8.3552019,
                    51.450546
                ]
            },
            "properties": {
                "name": "Hauptstra\u00dfe 4"
            }
        },
        {
            "type": "Feature",
            "geometry": {
                "type": "Point",
                "coordinates": [
                    13.569551,
                    52.67249
                ]
            },
            "properties": {
                "name": "Night Club Bernau"
            }
        },
        {
            "type": "Feature",
            "geometry": {
                "type": "Point",
                "coordinates": [
                    8.7709424,
                    51.4178221
                ]
            },
            "properties": {
                "name": "Parkschloss Dali"
            }
        },
        {
            "type": "Feature",
            "geometry": {
                "type": "Point",
                "coordinates": [
                    13.315803,
                    52.564365
                ]
            },
            "properties": {
                "name": "Jet Club"
            }
        },
        {
            "type": "Feature",
            "geometry": {
                "type": "Point",
                "coordinates": [
                    13.6983224,
                    51.0698387
                ]
            },
            "properties": {
                "name": "Atelier Exposure"
            }
        },
        {
            "type": "Feature",
            "geometry": {
                "type": "Point",
                "coordinates": [
                    13.5768018,
                    52.4548872
                ]
            },
            "properties": {
                "name": "Oase Massagen"
            }
        },
        {
            "type": "Feature",
            "geometry": {
                "type": "Point",
                "coordinates": [
                    10.5759388,
                    52.4962051
                ]
            },
            "properties": {
                "name": "Liebesmobil"
            }
        },
        {
            "type": "Feature",
            "geometry": {
                "type": "Point",
                "coordinates": [
                    13.5643661,
                    52.4130769
                ]
            },
            "properties": {
                "name": "EMMY Thaimassage"
            }
        },
        {
            "type": "Feature",
            "geometry": {
                "type": "Point",
                "coordinates": [
                    13.510153,
                    52.4639147
                ]
            },
            "properties": {
                "name": "Sommer Modelle"
            }
        },
        {
            "type": "Feature",
            "geometry": {
                "type": "Point",
                "coordinates": [
                    13.3155369,
                    52.577
                ]
            },
            "properties": {
                "name": "Anna's Oase"
            }
        },
        {
            "type": "Feature",
            "geometry": {
                "type": "Point",
                "coordinates": [
                    10.1665052,
                    54.3228307
                ]
            },
            "properties": {
                "name": "Pension 27"
            }
        },
        {
            "type": "Feature",
            "geometry": {
                "type": "Point",
                "coordinates": [
                    13.5773349,
                    52.44614
                ]
            },
            "properties": {
                "name": "Asia-Galerie"
            }
        },
        {
            "type": "Feature",
            "geometry": {
                "type": "Point",
                "coordinates": [
                    10.613627,
                    54.1385871
                ]
            },
            "properties": {
                "name": "Lido-Club"
            }
        },
        {
            "type": "Feature",
            "geometry": {
                "type": "Point",
                "coordinates": [
                    13.4339002,
                    52.5540809
                ]
            },
            "properties": {
                "name": "Fantasy Massagen"
            }
        },
        {
            "type": "Feature",
            "geometry": {
                "type": "Point",
                "coordinates": [
                    8.6721917,
                    48.862222
                ]
            },
            "properties": {
                "name": "Waldschl\u00f6sschen"
            }
        },
        {
            "type": "Feature",
            "geometry": {
                "type": "Point",
                "coordinates": [
                    7.0476329,
                    51.5604759
                ]
            },
            "properties": {
                "name": "Partyclub Casino"
            }
        },
        {
            "type": "Feature",
            "geometry": {
                "type": "Point",
                "coordinates": [
                    13.4635523,
                    52.5158311
                ]
            },
            "properties": {
                "name": "Joko Asia Girls"
            }
        },
        {
            "type": "Feature",
            "geometry": {
                "type": "Point",
                "coordinates": [
                    13.4730697,
                    52.448984
                ]
            },
            "properties": {
                "name": "Le Bar"
            }
        },
        {
            "type": "Feature",
            "geometry": {
                "type": "Point",
                "coordinates": [
                    13.3942242,
                    52.4886363
                ]
            },
            "properties": {
                "name": "Kino 3"
            }
        },
        {
            "type": "Feature",
            "geometry": {
                "type": "Point",
                "coordinates": [
                    13.2975833,
                    52.5066498
                ]
            },
            "properties": {
                "name": "Club Valentino"
            }
        },
        {
            "type": "Feature",
            "geometry": {
                "type": "Point",
                "coordinates": [
                    7.4154011,
                    53.0740175
                ]
            },
            "properties": {
                "name": "Club 2000"
            }
        },
        {
            "type": "Feature",
            "geometry": {
                "type": "Point",
                "coordinates": [
                    10.3271989,
                    47.7150917
                ]
            },
            "properties": {
                "name": "FKK Club Monik"
            }
        },
        {
            "type": "Feature",
            "geometry": {
                "type": "Point",
                "coordinates": [
                    13.011669,
                    52.8130941
                ]
            },
            "properties": {
                "name": "Pension Dom\u00e4ne"
            }
        },
        {
            "type": "Feature",
            "geometry": {
                "type": "Point",
                "coordinates": [
                    8.7927527,
                    50.0031797
                ]
            },
            "properties": {
                "name": "FKK Dietzenbach"
            }
        },
        {
            "type": "Feature",
            "geometry": {
                "type": "Point",
                "coordinates": [
                    7.3654437,
                    51.9307306
                ]
            },
            "properties": {
                "name": "Lovefucktory"
            }
        },
        {
            "type": "Feature",
            "geometry": {
                "type": "Point",
                "coordinates": [
                    13.3455108,
                    52.5474914
                ]
            },
            "properties": {
                "name": "Dao's Thaimassage"
            }
        },
        {
            "type": "Feature",
            "geometry": {
                "type": "Point",
                "coordinates": [
                    13.4405358,
                    52.4712168
                ]
            },
            "properties": {
                "name": "Elke's Kuschel WG"
            }
        },
        {
            "type": "Feature",
            "geometry": {
                "type": "Point",
                "coordinates": [
                    11.461517,
                    53.8962591
                ]
            },
            "properties": {
                "name": "Maxims Bar"
            }
        },
        {
            "type": "Feature",
            "geometry": {
                "type": "Point",
                "coordinates": [
                    7.10395,
                    50.7369323
                ]
            },
            "properties": {
                "name": "Club Kleopatra"
            }
        },
        {
            "type": "Feature",
            "geometry": {
                "type": "Point",
                "coordinates": [
                    9.0002328,
                    51.5730614
                ]
            },
            "properties": {
                "name": "Nr. 80"
            }
        },
        {
            "type": "Feature",
            "geometry": {
                "type": "Point",
                "coordinates": [
                    13.4631263,
                    52.4980483
                ]
            },
            "properties": {
                "name": "Vegas Berlin"
            }
        },
        {
            "type": "Feature",
            "geometry": {
                "type": "Point",
                "coordinates": [
                    13.4231246,
                    52.5062811
                ]
            },
            "properties": {
                "name": "Club Sternchen"
            }
        },
        {
            "type": "Feature",
            "geometry": {
                "type": "Point",
                "coordinates": [
                    13.4117289,
                    52.5489108
                ]
            },
            "properties": {
                "name": "Maya Mapan Thai Massage"
            }
        },
        {
            "type": "Feature",
            "geometry": {
                "type": "Point",
                "coordinates": [
                    13.2743568,
                    52.6968296
                ]
            },
            "properties": {
                "name": "Sommer"
            }
        },
        {
            "type": "Feature",
            "geometry": {
                "type": "Point",
                "coordinates": [
                    13.4415643,
                    52.466513
                ]
            },
            "properties": {
                "name": "Petersen"
            }
        },
        {
            "type": "Feature",
            "geometry": {
                "type": "Point",
                "coordinates": [
                    13.3508999,
                    52.4804779
                ]
            },
            "properties": {
                "name": "Chili 24"
            }
        },
        {
            "type": "Feature",
            "geometry": {
                "type": "Point",
                "coordinates": [
                    6.9993851,
                    49.2341893
                ]
            }
        },
        {
            "type": "Feature",
            "geometry": {
                "type": "Point",
                "coordinates": [
                    6.1885347,
                    50.8424334
                ]
            },
            "properties": {
                "name": "Haus Carmen"
            }
        },
        {
            "type": "Feature",
            "geometry": {
                "type": "Point",
                "coordinates": [
                    6.1422741,
                    50.8075873
                ]
            },
            "properties": {
                "name": "Kims Privat Club"
            }
        },
        {
            "type": "Feature",
            "geometry": {
                "type": "Point",
                "coordinates": [
                    8.5151962,
                    51.4689222
                ]
            }
        },
        {
            "type": "Feature",
            "geometry": {
                "type": "Point",
                "coordinates": [
                    10.0200261,
                    53.5498298
                ]
            },
            "properties": {
                "name": "Geiz Oase"
            }
        },
        {
            "type": "Feature",
            "geometry": {
                "type": "Point",
                "coordinates": [
                    7.0116747,
                    49.2293829
                ]
            },
            "properties": {
                "name": "My Lord Tabledance Bar"
            }
        },
        {
            "type": "Feature",
            "geometry": {
                "type": "Point",
                "coordinates": [
                    9.7226068,
                    50.4842509
                ]
            },
            "properties": {
                "name": "Das 5 Element"
            }
        },
        {
            "type": "Feature",
            "geometry": {
                "type": "Point",
                "coordinates": [
                    13.4315841,
                    52.4812075
                ]
            },
            "properties": {
                "name": "Lustoase Renni"
            }
        },
        {
            "type": "Feature",
            "geometry": {
                "type": "Point",
                "coordinates": [
                    6.7979028,
                    51.2311739
                ]
            },
            "properties": {
                "name": "V.I.P. Club"
            }
        },
        {
            "type": "Feature",
            "geometry": {
                "type": "Point",
                "coordinates": [
                    8.2606577,
                    50.0012762
                ]
            },
            "properties": {
                "name": "Crazy Sexy"
            }
        },
        {
            "type": "Feature",
            "geometry": {
                "type": "Point",
                "coordinates": [
                    13.3135189,
                    52.5689149
                ]
            },
            "properties": {
                "name": "Bei Loreen"
            }
        },
        {
            "type": "Feature",
            "geometry": {
                "type": "Point",
                "coordinates": [
                    9.982465,
                    48.3943044
                ]
            },
            "properties": {
                "name": "Alter Herzog"
            }
        },
        {
            "type": "Feature",
            "geometry": {
                "type": "Point",
                "coordinates": [
                    12.0127377,
                    51.4781712
                ]
            },
            "properties": {
                "name": "Eros-Center"
            }
        },
        {
            "type": "Feature",
            "geometry": {
                "type": "Point",
                "coordinates": [
                    13.345827,
                    52.5298986
                ]
            },
            "properties": {
                "name": "Moulin Rouge"
            }
        },
        {
            "type": "Feature",
            "geometry": {
                "type": "Point",
                "coordinates": [
                    13.312369,
                    52.5684716
                ]
            },
            "properties": {
                "name": "Thai-Team-Gl\u00fcck"
            }
        },
        {
            "type": "Feature",
            "geometry": {
                "type": "Point",
                "coordinates": [
                    7.1480765,
                    51.2636284
                ]
            },
            "properties": {
                "name": "Club Perle"
            }
        },
        {
            "type": "Feature",
            "geometry": {
                "type": "Point",
                "coordinates": [
                    13.3496774,
                    52.4814587
                ]
            },
            "properties": {
                "name": "Aston"
            }
        },
        {
            "type": "Feature",
            "geometry": {
                "type": "Point",
                "coordinates": [
                    13.3794061,
                    52.5512983
                ]
            },
            "properties": {
                "name": "Surprise-Bar"
            }
        },
        {
            "type": "Feature",
            "geometry": {
                "type": "Point",
                "coordinates": [
                    6.1069089,
                    50.8548019
                ]
            },
            "properties": {
                "name": "Red Lady Bar"
            }
        },
        {
            "type": "Feature",
            "geometry": {
                "type": "Point",
                "coordinates": [
                    7.10649,
                    50.7390382
                ]
            },
            "properties": {
                "name": "Top Secret"
            }
        },
        {
            "type": "Feature",
            "geometry": {
                "type": "Point",
                "coordinates": [
                    7.1043624,
                    50.7221815
                ]
            },
            "properties": {
                "name": "Club 111"
            }
        },
        {
            "type": "Feature",
            "geometry": {
                "type": "Point",
                "coordinates": [
                    6.9403722,
                    50.9553774
                ]
            },
            "properties": {
                "name": "Pascha Club 11. Etage"
            }
        },
        {
            "type": "Feature",
            "geometry": {
                "type": "Point",
                "coordinates": [
                    12.1311322,
                    51.8002063
                ]
            },
            "properties": {
                "name": "Garten Eden"
            }
        },
        {
            "type": "Feature",
            "geometry": {
                "type": "Point",
                "coordinates": [
                    11.5949963,
                    52.1290302
                ]
            }
        },
        {
            "type": "Feature",
            "geometry": {
                "type": "Point",
                "coordinates": [
                    10.8504102,
                    53.9366557
                ]
            },
            "properties": {
                "name": "Neue Kate"
            }
        },
        {
            "type": "Feature",
            "geometry": {
                "type": "Point",
                "coordinates": [
                    11.0325992,
                    49.4328585
                ]
            },
            "properties": {
                "name": "Edison 7"
            }
        },
        {
            "type": "Feature",
            "geometry": {
                "type": "Point",
                "coordinates": [
                    6.7377597,
                    51.4562557
                ]
            },
            "properties": {
                "name": "Club Heidi"
            }
        },
        {
            "type": "Feature",
            "geometry": {
                "type": "Point",
                "coordinates": [
                    8.5556729,
                    51.6516158
                ]
            },
            "properties": {
                "name": "Tempel der Lust"
            }
        },
        {
            "type": "Feature",
            "geometry": {
                "type": "Point",
                "coordinates": [
                    8.6968632,
                    52.3087619
                ]
            },
            "properties": {
                "name": "Aparthotel La Vie"
            }
        },
        {
            "type": "Feature",
            "geometry": {
                "type": "Point",
                "coordinates": [
                    6.4446275,
                    51.1426866
                ]
            },
            "properties": {
                "name": "Privat-Sunshine"
            }
        },
        {
            "type": "Feature",
            "geometry": {
                "type": "Point",
                "coordinates": [
                    8.4867833,
                    53.4873936
                ]
            },
            "properties": {
                "name": "Club L'Amour"
            }
        },
        {
            "type": "Feature",
            "geometry": {
                "type": "Point",
                "coordinates": [
                    13.5502295,
                    52.4417781
                ]
            },
            "properties": {
                "name": "Maria Rot"
            }
        },
        {
            "type": "Feature",
            "geometry": {
                "type": "Point",
                "coordinates": [
                    8.2126579,
                    53.113732
                ]
            },
            "properties": {
                "name": "Olexia"
            }
        },
        {
            "type": "Feature",
            "geometry": {
                "type": "Point",
                "coordinates": [
                    11.979606,
                    51.752605
                ]
            },
            "properties": {
                "name": "Rose"
            }
        },
        {
            "type": "Feature",
            "geometry": {
                "type": "Point",
                "coordinates": [
                    7.2437386,
                    51.3120584
                ]
            },
            "properties": {
                "name": "Girls 4 U - Wuppertal"
            }
        },
        {
            "type": "Feature",
            "geometry": {
                "type": "Point",
                "coordinates": [
                    10.1419126,
                    54.3227025
                ]
            },
            "properties": {
                "name": "Le Club Priv\u00e9"
            }
        },
        {
            "type": "Feature",
            "geometry": {
                "type": "Point",
                "coordinates": [
                    10.3121243,
                    47.722035
                ]
            },
            "properties": {
                "name": "M10"
            }
        },
        {
            "type": "Feature",
            "geometry": {
                "type": "Point",
                "coordinates": [
                    11.1480627,
                    52.8525627
                ]
            },
            "properties": {
                "name": "Altmarkengels"
            }
        },
        {
            "type": "Feature",
            "geometry": {
                "type": "Point",
                "coordinates": [
                    6.575541,
                    51.3319412
                ]
            }
        },
        {
            "type": "Feature",
            "geometry": {
                "type": "Point",
                "coordinates": [
                    6.5767573,
                    51.33224
                ]
            }
        },
        {
            "type": "Feature",
            "geometry": {
                "type": "Point",
                "coordinates": [
                    8.3766664,
                    52.5113778
                ]
            },
            "properties": {
                "name": "Angie"
            }
        },
        {
            "type": "Feature",
            "geometry": {
                "type": "Point",
                "coordinates": [
                    6.5140242,
                    51.2698511
                ]
            },
            "properties": {
                "name": "Royal Passion"
            }
        },
        {
            "type": "Feature",
            "geometry": {
                "type": "Point",
                "coordinates": [
                    6.2405014,
                    51.8308404
                ]
            },
            "properties": {
                "name": "Partytreff Emmerich"
            }
        },
        {
            "type": "Feature",
            "geometry": {
                "type": "Point",
                "coordinates": [
                    10.2188399,
                    53.4816758
                ]
            },
            "properties": {
                "name": "FKK Club Romeo"
            }
        },
        {
            "type": "Feature",
            "geometry": {
                "type": "Point",
                "coordinates": [
                    6.5720786,
                    51.4159117
                ]
            },
            "properties": {
                "name": "Red Lounge 244"
            }
        },
        {
            "type": "Feature",
            "geometry": {
                "type": "Point",
                "coordinates": [
                    11.0984695,
                    49.4867564
                ]
            },
            "properties": {
                "name": "FKK Oasis"
            }
        },
        {
            "type": "Feature",
            "geometry": {
                "type": "Point",
                "coordinates": [
                    9.9168944,
                    53.5977048
                ]
            },
            "properties": {
                "name": "Fantasy Lounge"
            }
        },
        {
            "type": "Feature",
            "geometry": {
                "type": "Point",
                "coordinates": [
                    10.8601255,
                    52.4368956
                ]
            },
            "properties": {
                "name": "Bada Bing Club"
            }
        },
        {
            "type": "Feature",
            "geometry": {
                "type": "Point",
                "coordinates": [
                    8.6681917,
                    53.0382873
                ]
            },
            "properties": {
                "name": "Haus 73"
            }
        },
        {
            "type": "Feature",
            "geometry": {
                "type": "Point",
                "coordinates": [
                    7.34523,
                    52.5306243
                ]
            },
            "properties": {
                "name": "Verona Kaiser in Lingen"
            }
        },
        {
            "type": "Feature",
            "geometry": {
                "type": "Point",
                "coordinates": [
                    8.866017,
                    54.1287472
                ]
            }
        },
        {
            "type": "Feature",
            "geometry": {
                "type": "Point",
                "coordinates": [
                    11.5348179,
                    51.9349067
                ]
            },
            "properties": {
                "name": "Paradise Nightclub"
            }
        },
        {
            "type": "Feature",
            "geometry": {
                "type": "Point",
                "coordinates": [
                    13.4414765,
                    52.466559
                ]
            },
            "properties": {
                "name": "Kaisers Relaxkino"
            }
        },
        {
            "type": "Feature",
            "geometry": {
                "type": "Point",
                "coordinates": [
                    13.4412734,
                    52.5498508
                ]
            },
            "properties": {
                "name": "Nori & Thai"
            }
        },
        {
            "type": "Feature",
            "geometry": {
                "type": "Point",
                "coordinates": [
                    13.3204964,
                    52.5671353
                ]
            },
            "properties": {
                "name": "Polnische Lady's"
            }
        },
        {
            "type": "Feature",
            "geometry": {
                "type": "Point",
                "coordinates": [
                    10.0034248,
                    53.3443743
                ]
            },
            "properties": {
                "name": "FKK Club Harmony"
            }
        },
        {
            "type": "Feature",
            "geometry": {
                "type": "Point",
                "coordinates": [
                    13.4393282,
                    52.423929
                ]
            },
            "properties": {
                "name": "Bei Lucy"
            }
        },
        {
            "type": "Feature",
            "geometry": {
                "type": "Point",
                "coordinates": [
                    6.7525951,
                    51.4309847
                ]
            },
            "properties": {
                "name": "Haus 27"
            }
        },
        {
            "type": "Feature",
            "geometry": {
                "type": "Point",
                "coordinates": [
                    6.7530304,
                    51.4306037
                ]
            },
            "properties": {
                "name": "Palace Inn Night Club"
            }
        },
        {
            "type": "Feature",
            "geometry": {
                "type": "Point",
                "coordinates": [
                    6.7533951,
                    51.4312437
                ]
            },
            "properties": {
                "name": "Vulkantreff Bar Cafe"
            }
        },
        {
            "type": "Feature",
            "geometry": {
                "type": "Point",
                "coordinates": [
                    8.6378454,
                    52.0420471
                ]
            },
            "properties": {
                "name": "Jolie-Rafaela"
            }
        },
        {
            "type": "Feature",
            "geometry": {
                "type": "Point",
                "coordinates": [
                    13.3894204,
                    52.5637757
                ]
            },
            "properties": {
                "name": "Klassemodell"
            }
        },
        {
            "type": "Feature",
            "geometry": {
                "type": "Point",
                "coordinates": [
                    6.1326349,
                    50.8347357
                ]
            },
            "properties": {
                "name": "Eichh\u00f6rnchen Bar"
            }
        },
        {
            "type": "Feature",
            "geometry": {
                "type": "Point",
                "coordinates": [
                    6.8248807,
                    51.3075735
                ]
            },
            "properties": {
                "name": "Acapulco Gold"
            }
        },
        {
            "type": "Feature",
            "geometry": {
                "type": "Point",
                "coordinates": [
                    9.565657,
                    54.5257009
                ]
            },
            "properties": {
                "name": "Villa Erotica"
            }
        },
        {
            "type": "Feature",
            "geometry": {
                "type": "Point",
                "coordinates": [
                    7.0854382,
                    50.858482
                ]
            },
            "properties": {
                "name": "Cat-Exclusiv"
            }
        },
        {
            "type": "Feature",
            "geometry": {
                "type": "Point",
                "coordinates": [
                    6.9379782,
                    51.4694123
                ]
            },
            "properties": {
                "name": "Club Schloss 145"
            }
        },
        {
            "type": "Feature",
            "geometry": {
                "type": "Point",
                "coordinates": [
                    6.4605414,
                    51.2101703
                ]
            },
            "properties": {
                "name": "Cafe-Erotica"
            }
        },
        {
            "type": "Feature",
            "geometry": {
                "type": "Point",
                "coordinates": [
                    7.6097971,
                    51.9873497
                ]
            },
            "properties": {
                "name": "Die Wunschfabrik"
            }
        },
        {
            "type": "Feature",
            "geometry": {
                "type": "Point",
                "coordinates": [
                    7.6096791,
                    51.9873761
                ]
            },
            "properties": {
                "name": "Studio WF"
            }
        },
        {
            "type": "Feature",
            "geometry": {
                "type": "Point",
                "coordinates": [
                    6.8314112,
                    51.2026693
                ]
            },
            "properties": {
                "name": "Verw\u00f6hnmassagen und mehr ..."
            }
        },
        {
            "type": "Feature",
            "geometry": {
                "type": "Point",
                "coordinates": [
                    6.8655614,
                    51.1750699
                ]
            },
            "properties": {
                "name": "Club Wellness"
            }
        },
        {
            "type": "Feature",
            "geometry": {
                "type": "Point",
                "coordinates": [
                    6.7717985,
                    51.2038605
                ]
            },
            "properties": {
                "name": "Tamaras Team"
            }
        },
        {
            "type": "Feature",
            "geometry": {
                "type": "Point",
                "coordinates": [
                    7.1140155,
                    50.9862086
                ]
            },
            "properties": {
                "name": "Time-X Club"
            }
        },
        {
            "type": "Feature",
            "geometry": {
                "type": "Point",
                "coordinates": [
                    6.7672887,
                    51.3776532
                ]
            },
            "properties": {
                "name": "Charisma"
            }
        },
        {
            "type": "Feature",
            "geometry": {
                "type": "Point",
                "coordinates": [
                    6.7039321,
                    51.4165021
                ]
            },
            "properties": {
                "name": "Mona & Freundinnen"
            }
        },
        {
            "type": "Feature",
            "geometry": {
                "type": "Point",
                "coordinates": [
                    6.9671815,
                    51.4424672
                ]
            },
            "properties": {
                "name": "Silvias Paradies"
            }
        },
        {
            "type": "Feature",
            "geometry": {
                "type": "Point",
                "coordinates": [
                    6.7535433,
                    51.4124292
                ]
            },
            "properties": {
                "name": "Infinity Erotic"
            }
        },
        {
            "type": "Feature",
            "geometry": {
                "type": "Point",
                "coordinates": [
                    7.6216751,
                    51.5170823
                ]
            },
            "properties": {
                "name": "Freudenhaus Dortmund"
            }
        },
        {
            "type": "Feature",
            "geometry": {
                "type": "Point",
                "coordinates": [
                    6.7523436,
                    51.4209514
                ]
            },
            "properties": {
                "name": "Paradise"
            }
        },
        {
            "type": "Feature",
            "geometry": {
                "type": "Point",
                "coordinates": [
                    7.0766099,
                    51.4608947
                ]
            },
            "properties": {
                "name": "Viktoria und Freundinnen"
            }
        },
        {
            "type": "Feature",
            "geometry": {
                "type": "Point",
                "coordinates": [
                    6.9918551,
                    51.4841173
                ]
            },
            "properties": {
                "name": "Pussy Club Essen"
            }
        },
        {
            "type": "Feature",
            "geometry": {
                "type": "Point",
                "coordinates": [
                    6.6304343,
                    49.7520756
                ]
            },
            "properties": {
                "name": "Czech Babes"
            }
        },
        {
            "type": "Feature",
            "geometry": {
                "type": "Point",
                "coordinates": [
                    6.6303974,
                    49.7520557
                ]
            },
            "properties": {
                "name": "Trier privat"
            }
        },
        {
            "type": "Feature",
            "geometry": {
                "type": "Point",
                "coordinates": [
                    8.5718551,
                    49.1270333
                ]
            },
            "properties": {
                "name": "FKK Point"
            }
        },
        {
            "type": "Feature",
            "geometry": {
                "type": "Point",
                "coordinates": [
                    8.574182,
                    49.1256609
                ]
            },
            "properties": {
                "name": "FKK Pirates Park"
            }
        },
        {
            "type": "Feature",
            "geometry": {
                "type": "Point",
                "coordinates": [
                    8.8650906,
                    49.2583448
                ]
            },
            "properties": {
                "name": "FKK First"
            }
        },
        {
            "type": "Feature",
            "geometry": {
                "type": "Point",
                "coordinates": [
                    8.681893,
                    49.3639261
                ]
            },
            "properties": {
                "name": "25 Euro Club"
            }
        },
        {
            "type": "Feature",
            "geometry": {
                "type": "Point",
                "coordinates": [
                    9.2639725,
                    48.8189405
                ]
            },
            "properties": {
                "name": "FKK Safari - Stuttgart-Fellbach"
            }
        },
        {
            "type": "Feature",
            "geometry": {
                "type": "Point",
                "coordinates": [
                    10.0233844,
                    48.3886239
                ]
            },
            "properties": {
                "name": "FKK Safari - Neu-Ulm"
            }
        },
        {
            "type": "Feature",
            "geometry": {
                "type": "Point",
                "coordinates": [
                    8.2236195,
                    48.7511832
                ]
            },
            "properties": {
                "name": "Villa Palms"
            }
        },
        {
            "type": "Feature",
            "geometry": {
                "type": "Point",
                "coordinates": [
                    10.8827817,
                    49.9043853
                ]
            },
            "properties": {
                "name": "Cafe-Bar-Penthouse"
            }
        },
        {
            "type": "Feature",
            "geometry": {
                "type": "Point",
                "coordinates": [
                    10.8827121,
                    49.9043525
                ]
            },
            "properties": {
                "name": "Penthouse Bamberg"
            }
        },
        {
            "type": "Feature",
            "geometry": {
                "type": "Point",
                "coordinates": [
                    6.4399669,
                    51.1592207
                ]
            },
            "properties": {
                "name": "Saunaclub Rheydt"
            }
        },
        {
            "type": "Feature",
            "geometry": {
                "type": "Point",
                "coordinates": [
                    6.4534945,
                    51.1579978
                ]
            },
            "properties": {
                "name": "Bella's Team"
            }
        },
        {
            "type": "Feature",
            "geometry": {
                "type": "Point",
                "coordinates": [
                    9.4811011,
                    47.6515744
                ]
            },
            "properties": {
                "name": "Thai-Chalie"
            }
        },
        {
            "type": "Feature",
            "geometry": {
                "type": "Point",
                "coordinates": [
                    8.9978183,
                    48.6845764
                ]
            },
            "properties": {
                "name": "C33"
            }
        },
        {
            "type": "Feature",
            "geometry": {
                "type": "Point",
                "coordinates": [
                    9.222163,
                    48.4861666
                ]
            },
            "properties": {
                "name": "Eros Arena"
            }
        },
        {
            "type": "Feature",
            "geometry": {
                "type": "Point",
                "coordinates": [
                    8.6818814,
                    49.3641981
                ]
            },
            "properties": {
                "name": "Villa Royal"
            }
        },
        {
            "type": "Feature",
            "geometry": {
                "type": "Point",
                "coordinates": [
                    13.3953631,
                    52.4916813
                ]
            },
            "properties": {
                "name": "Anni Porsche"
            }
        },
        {
            "type": "Feature",
            "geometry": {
                "type": "Point",
                "coordinates": [
                    13.7870452,
                    51.0160293
                ]
            },
            "properties": {
                "name": "Boardinghouse Reick"
            }
        },
        {
            "type": "Feature",
            "geometry": {
                "type": "Point",
                "coordinates": [
                    13.8498174,
                    51.026439
                ]
            },
            "properties": {
                "name": "Hotgirls DD"
            }
        },
        {
            "type": "Feature",
            "geometry": {
                "type": "Point",
                "coordinates": [
                    9.2279718,
                    48.8119162
                ]
            },
            "properties": {
                "name": "Fest und Partyservice"
            }
        },
        {
            "type": "Feature",
            "geometry": {
                "type": "Point",
                "coordinates": [
                    8.5629722,
                    48.0649142
                ]
            },
            "properties": {
                "name": "FKK Club Aphrodite"
            }
        },
        {
            "type": "Feature",
            "geometry": {
                "type": "Point",
                "coordinates": [
                    8.6587912,
                    49.5354876
                ]
            },
            "properties": {
                "name": "Planet Poppclub Weinheim"
            }
        },
        {
            "type": "Feature",
            "geometry": {
                "type": "Point",
                "coordinates": [
                    7.2039705,
                    51.6144813
                ]
            },
            "properties": {
                "name": "Frauenpalast"
            }
        },
        {
            "type": "Feature",
            "geometry": {
                "type": "Point",
                "coordinates": [
                    6.4764323,
                    51.217015
                ]
            },
            "properties": {
                "name": "Privatclub Gold"
            }
        },
        {
            "type": "Feature",
            "geometry": {
                "type": "Point",
                "coordinates": [
                    9.7389166,
                    52.3714514
                ]
            },
            "properties": {
                "name": "Penthouse Hannover"
            }
        },
        {
            "type": "Feature",
            "geometry": {
                "type": "Point",
                "coordinates": [
                    6.6752311,
                    49.7724919
                ]
            },
            "properties": {
                "name": "Popphaus Trier"
            }
        },
        {
            "type": "Feature",
            "geometry": {
                "type": "Point",
                "coordinates": [
                    7.0980637,
                    51.2477952
                ]
            },
            "properties": {
                "name": "Sky Saunaclub"
            }
        },
        {
            "type": "Feature",
            "geometry": {
                "type": "Point",
                "coordinates": [
                    8.0676257,
                    50.6008111
                ]
            },
            "properties": {
                "name": "Sin City Sunrise"
            }
        },
        {
            "type": "Feature",
            "geometry": {
                "type": "Point",
                "coordinates": [
                    8.9218128,
                    52.2464378
                ]
            },
            "properties": {
                "name": "SG Labyrinth"
            }
        },
        {
            "type": "Feature",
            "geometry": {
                "type": "Point",
                "coordinates": [
                    8.0026499,
                    52.3545714
                ]
            },
            "properties": {
                "name": "Zeus FKK-Club"
            }
        },
        {
            "type": "Feature",
            "geometry": {
                "type": "Point",
                "coordinates": [
                    8.3959611,
                    49.0000391
                ]
            },
            "properties": {
                "name": "Studio Unlimited"
            }
        },
        {
            "type": "Feature",
            "geometry": {
                "type": "Point",
                "coordinates": [
                    11.1598771,
                    49.4134541
                ]
            },
            "properties": {
                "name": "FKK Venezia"
            }
        },
        {
            "type": "Feature",
            "geometry": {
                "type": "Point",
                "coordinates": [
                    10.9084166,
                    50.689502
                ]
            },
            "properties": {
                "name": "Zaubermaus Agentur Ilmenau"
            }
        },
        {
            "type": "Feature",
            "geometry": {
                "type": "Point",
                "coordinates": [
                    7.6643982,
                    51.3764447
                ]
            },
            "properties": {
                "name": "Villa Erotica"
            }
        },
        {
            "type": "Feature",
            "geometry": {
                "type": "Point",
                "coordinates": [
                    6.9649641,
                    51.572846
                ]
            },
            "properties": {
                "name": "Partytreff Palace"
            }
        },
        {
            "type": "Feature",
            "geometry": {
                "type": "Point",
                "coordinates": [
                    6.3948826,
                    51.2615455
                ]
            },
            "properties": {
                "name": "Club Isabella"
            }
        },
        {
            "type": "Feature",
            "geometry": {
                "type": "Point",
                "coordinates": [
                    6.3948747,
                    51.2617404
                ]
            },
            "properties": {
                "name": "Club Sommer"
            }
        },
        {
            "type": "Feature",
            "geometry": {
                "type": "Point",
                "coordinates": [
                    13.3471934,
                    52.481155
                ]
            },
            "properties": {
                "name": "Paola's Sex Kino"
            }
        },
        {
            "type": "Feature",
            "geometry": {
                "type": "Point",
                "coordinates": [
                    7.8655071,
                    49.8453246
                ]
            },
            "properties": {
                "name": "Lady77"
            }
        },
        {
            "type": "Feature",
            "geometry": {
                "type": "Point",
                "coordinates": [
                    7.2118328,
                    51.5736289
                ]
            },
            "properties": {
                "name": "S\u00fcder Sauna Club"
            }
        },
        {
            "type": "Feature",
            "geometry": {
                "type": "Point",
                "coordinates": [
                    7.4803407,
                    51.3561503
                ]
            },
            "properties": {
                "name": "Lauf Haus 5"
            }
        },
        {
            "type": "Feature",
            "geometry": {
                "type": "Point",
                "coordinates": [
                    7.1085573,
                    50.989093
                ]
            },
            "properties": {
                "name": "Modelle-Rheinland"
            }
        },
        {
            "type": "Feature",
            "geometry": {
                "type": "Point",
                "coordinates": [
                    7.4622737,
                    51.6728761
                ]
            },
            "properties": {
                "name": "Hanky Panky Club"
            }
        },
        {
            "type": "Feature",
            "geometry": {
                "type": "Point",
                "coordinates": [
                    6.7950983,
                    51.2298585
                ]
            },
            "properties": {
                "name": "Russian Team"
            }
        },
        {
            "type": "Feature",
            "geometry": {
                "type": "Point",
                "coordinates": [
                    6.7963571,
                    51.2247114
                ]
            },
            "properties": {
                "name": "Relax in Paradise"
            }
        },
        {
            "type": "Feature",
            "geometry": {
                "type": "Point",
                "coordinates": [
                    6.8004634,
                    51.2260436
                ]
            },
            "properties": {
                "name": "Erikas Team"
            }
        },
        {
            "type": "Feature",
            "geometry": {
                "type": "Point",
                "coordinates": [
                    6.802406,
                    51.2497215
                ]
            },
            "properties": {
                "name": "Susannas Institut f\u00fcr Wellness"
            }
        },
        {
            "type": "Feature",
            "geometry": {
                "type": "Point",
                "coordinates": [
                    13.5262479,
                    52.4836191
                ]
            },
            "properties": {
                "name": "Jasmin Thaimodelle"
            }
        },
        {
            "type": "Feature",
            "geometry": {
                "type": "Point",
                "coordinates": [
                    14.3213248,
                    51.7608705
                ]
            },
            "properties": {
                "name": "M\u00fcller Cottbus"
            }
        },
        {
            "type": "Feature",
            "geometry": {
                "type": "Point",
                "coordinates": [
                    12.5086986,
                    52.3807823
                ]
            },
            "properties": {
                "name": "Club 17"
            }
        },
        {
            "type": "Feature",
            "geometry": {
                "type": "Point",
                "coordinates": [
                    14.3254762,
                    51.7613394
                ]
            },
            "properties": {
                "name": "Winter Erotic"
            }
        },
        {
            "type": "Feature",
            "geometry": {
                "type": "Point",
                "coordinates": [
                    6.9410845,
                    50.9427376
                ]
            },
            "properties": {
                "name": "Massage & Relax K\u00f6ln"
            }
        },
        {
            "type": "Feature",
            "geometry": {
                "type": "Point",
                "coordinates": [
                    6.8202431,
                    51.1906162
                ]
            },
            "properties": {
                "name": "Massage & Relax D\u00fcsseldorf"
            }
        },
        {
            "type": "Feature",
            "geometry": {
                "type": "Point",
                "coordinates": [
                    13.345685,
                    52.4976262
                ]
            },
            "properties": {
                "name": "Bordell Caligula"
            }
        },
        {
            "type": "Feature",
            "geometry": {
                "type": "Point",
                "coordinates": [
                    7.7862947,
                    51.6455654
                ]
            },
            "properties": {
                "name": "Mc-Sex"
            }
        },
        {
            "type": "Feature",
            "geometry": {
                "type": "Point",
                "coordinates": [
                    9.7220185,
                    52.3731877
                ]
            },
            "properties": {
                "name": "Braun 8"
            }
        },
        {
            "type": "Feature",
            "geometry": {
                "type": "Point",
                "coordinates": [
                    9.732964,
                    52.382328
                ]
            },
            "properties": {
                "name": "M\u00e4dchen WG"
            }
        },
        {
            "type": "Feature",
            "geometry": {
                "type": "Point",
                "coordinates": [
                    7.0669149,
                    51.5250206
                ]
            },
            "properties": {
                "name": "Saunaclub Oase"
            }
        },
        {
            "type": "Feature",
            "geometry": {
                "type": "Point",
                "coordinates": [
                    10.5839733,
                    52.9617722
                ]
            },
            "properties": {
                "name": "Oase"
            }
        },