{
    "type": "FeatureCollection",
    "features": [
        {
            "type": "Feature",
            "geometry": {
                "type": "Point",
                "coordinates": [
                    14.1237921,
                    48.0413297
                ]
            },
            "properties": {
                "name": "Club zur Liebesschule"
            }
        },
        {
            "type": "Feature",
            "geometry": {
                "type": "Point",
                "coordinates": [
                    11.4007644,
                    47.2658588
                ]
            },
            "properties": {
                "name": "Lady O'"
            }
        },
        {
            "type": "Feature",
            "geometry": {
                "type": "Point",
                "coordinates": [
                    14.2824375,
                    46.6196964
                ]
            },
            "properties": {
                "name": "Laufhaus Tabaris"
            }
        },
        {
            "type": "Feature",
            "geometry": {
                "type": "Point",
                "coordinates": [
                    16.3964512,
                    48.190471
                ]
            },
            "properties": {
                "name": "Cafe d'Amour"
            }
        },
        {
            "type": "Feature",
            "geometry": {
                "type": "Point",
                "coordinates": [
                    14.3463347,
                    48.2907387
                ]
            },
            "properties": {
                "name": "Club de Paris"
            }
        },
        {
            "type": "Feature",
            "geometry": {
                "type": "Point",
                "coordinates": [
                    14.2897008,
                    48.3057081
                ]
            }
        },
        {
            "type": "Feature",
            "geometry": {
                "type": "Point",
                "coordinates": [
                    16.4079944,
                    48.1961783
                ]
            },
            "properties": {
                "name": "Studio VIP"
            }
        },
        {
            "type": "Feature",
            "geometry": {
                "type": "Point",
                "coordinates": [
                    13.0783481,
                    47.8233493
                ]
            },
            "properties": {
                "name": "Puderd\u00f6schen"
            }
        },
        {
            "type": "Feature",
            "geometry": {
                "type": "Point",
                "coordinates": [
                    13.562095,
                    47.2482987
                ]
            },
            "properties": {
                "name": "Freudenhaus"
            }
        },
        {
            "type": "Feature",
            "geometry": {
                "type": "Point",
                "coordinates": [
                    16.373868,
                    48.1830959
                ]
            },
            "properties": {
                "name": "Claudia's Bar"
            }
        },
        {
            "type": "Feature",
            "geometry": {
                "type": "Point",
                "coordinates": [
                    13.0779578,
                    47.8114524
                ]
            },
            "properties": {
                "name": "R\u00f6merhaus Juvavum"
            }
        },
        {
            "type": "Feature",
            "geometry": {
                "type": "Point",
                "coordinates": [
                    14.2477089,
                    48.2721146
                ]
            },
            "properties": {
                "name": "Herzl Bar"
            }
        },
        {
            "type": "Feature",
            "geometry": {
                "type": "Point",
                "coordinates": [
                    16.4088701,
                    48.194729
                ]
            },
            "properties": {
                "name": "Studio Armony"
            }
        },
        {
            "type": "Feature",
            "geometry": {
                "type": "Point",
                "coordinates": [
                    16.3022523,
                    48.1475065
                ]
            }
        },
        {
            "type": "Feature",
            "geometry": {
                "type": "Point",
                "coordinates": [
                    15.4284336,
                    47.0772201
                ]
            },
            "properties": {
                "name": "City Club"
            }
        },
        {
            "type": "Feature",
            "geometry": {
                "type": "Point",
                "coordinates": [
                    16.3876424,
                    48.2374419
                ]
            },
            "properties": {
                "name": "Studio 108"
            }
        },
        {
            "type": "Feature",
            "geometry": {
                "type": "Point",
                "coordinates": [
                    13.61858,
                    47.713116
                ]
            },
            "properties": {
                "name": "Nightclub Fantasie2"
            }
        },
        {
            "type": "Feature",
            "geometry": {
                "type": "Point",
                "coordinates": [
                    16.2276395,
                    47.8642556
                ]
            },
            "properties": {
                "name": "Roxane Bar"
            }
        },
        {
            "type": "Feature",
            "geometry": {
                "type": "Point",
                "coordinates": [
                    16.3440065,
                    48.2136869
                ]
            },
            "properties": {
                "name": "Lotus-Asia Studio"
            }
        },
        {
            "type": "Feature",
            "geometry": {
                "type": "Point",
                "coordinates": [
                    16.3483398,
                    48.1849603
                ]
            },
            "properties": {
                "name": "Erotik Studio Margareten"
            }
        },
        {
            "type": "Feature",
            "geometry": {
                "type": "Point",
                "coordinates": [
                    14.31165,
                    46.6229348
                ]
            },
            "properties": {
                "name": "Laufhaus \"Paradis\""
            }
        },
        {
            "type": "Feature",
            "geometry": {
                "type": "Point",
                "coordinates": [
                    16.3312775,
                    48.1912196
                ]
            },
            "properties": {
                "name": "Studio Cinderella"
            }
        },
        {
            "type": "Feature",
            "geometry": {
                "type": "Point",
                "coordinates": [
                    16.3704799,
                    48.2287801
                ]
            },
            "properties": {
                "name": "Studio 12B"
            }
        },
        {
            "type": "Feature",
            "geometry": {
                "type": "Point",
                "coordinates": [
                    16.3705604,
                    48.2287677
                ]
            },
            "properties": {
                "name": "Studio 20"
            }
        },
        {
            "type": "Feature",
            "geometry": {
                "type": "Point",
                "coordinates": [
                    16.371034,
                    48.2284291
                ]
            },
            "properties": {
                "name": "Kuscheloase"
            }
        },
        {
            "type": "Feature",
            "geometry": {
                "type": "Point",
                "coordinates": [
                    15.4237609,
                    47.0661877
                ]
            },
            "properties": {
                "name": "Chili's Erotic Crusing Club"
            }
        },
        {
            "type": "Feature",
            "geometry": {
                "type": "Point",
                "coordinates": [
                    16.3946305,
                    48.191901
                ]
            },
            "properties": {
                "name": "Extasis"
            }
        },
        {
            "type": "Feature",
            "geometry": {
                "type": "Point",
                "coordinates": [
                    16.3901269,
                    48.2734321
                ]
            },
            "properties": {
                "name": "Massage LiSi"
            }
        },
        {
            "type": "Feature",
            "geometry": {
                "type": "Point",
                "coordinates": [
                    11.7211831,
                    47.3597057
                ]
            },
            "properties": {
                "name": "La Rose"
            }
        },
        {
            "type": "Feature",
            "geometry": {
                "type": "Point",
                "coordinates": [
                    16.3173465,
                    48.1938146
                ]
            },
            "properties": {
                "name": "Studio 16"
            }
        },
        {
            "type": "Feature",
            "geometry": {
                "type": "Point",
                "coordinates": [
                    14.5025599,
                    48.4988614
                ]
            },
            "properties": {
                "name": "Nightclub Dolce Vita"
            }
        },
        {
            "type": "Feature",
            "geometry": {
                "type": "Point",
                "coordinates": [
                    16.3429899,
                    48.1814117
                ]
            },
            "properties": {
                "name": "East Roses"
            }
        },
        {
            "type": "Feature",
            "geometry": {
                "type": "Point",
                "coordinates": [
                    16.3649003,
                    48.2374037
                ]
            },
            "properties": {
                "name": "Studio 111"
            }
        },
        {
            "type": "Feature",
            "geometry": {
                "type": "Point",
                "coordinates": [
                    12.3900611,
                    47.4471172
                ]
            },
            "properties": {
                "name": "Gentlemen's Club"
            }
        },
        {
            "type": "Feature",
            "geometry": {
                "type": "Point",
                "coordinates": [
                    16.3278179,
                    48.1891683
                ]
            },
            "properties": {
                "name": "Zuckerpuppen"
            }
        },
        {
            "type": "Feature",
            "geometry": {
                "type": "Point",
                "coordinates": [
                    13.7250468,
                    48.0160432
                ]
            },
            "properties": {
                "name": "Amore Mio"
            }
        },
        {
            "type": "Feature",
            "geometry": {
                "type": "Point",
                "coordinates": [
                    16.2990321,
                    48.1899015
                ]
            },
            "properties": {
                "name": "Studio La Chica"
            }
        },
        {
            "type": "Feature",
            "geometry": {
                "type": "Point",
                "coordinates": [
                    16.9302107,
                    47.8445452
                ]
            },
            "properties": {
                "name": "Eva's Bar"
            }
        },
        {
            "type": "Feature",
            "geometry": {
                "type": "Point",
                "coordinates": [
                    16.3946674,
                    48.1964614
                ]
            },
            "properties": {
                "name": "Juchgasse 11"
            }
        },
        {
            "type": "Feature",
            "geometry": {
                "type": "Point",
                "coordinates": [
                    16.453055,
                    48.2282648
                ]
            },
            "properties": {
                "name": "Blonde Cousinen"
            }
        },
        {
            "type": "Feature",
            "geometry": {
                "type": "Point",
                "coordinates": [
                    16.388818,
                    48.2247847
                ]
            },
            "properties": {
                "name": "Studio Mona Lisa"
            }
        },
        {
            "type": "Feature",
            "geometry": {
                "type": "Point",
                "coordinates": [
                    16.3890755,
                    48.2235199
                ]
            },
            "properties": {
                "name": "Riesenrad Bar"
            }
        },
        {
            "type": "Feature",
            "geometry": {
                "type": "Point",
                "coordinates": [
                    16.388818,
                    48.2246775
                ]
            },
            "properties": {
                "name": "Studio Luna"
            }
        },
        {
            "type": "Feature",
            "geometry": {
                "type": "Point",
                "coordinates": [
                    15.4307018,
                    47.0670561
                ]
            },
            "properties": {
                "name": "Luna Bar"
            }
        },
        {
            "type": "Feature",
            "geometry": {
                "type": "Point",
                "coordinates": [
                    16.3840872,
                    48.2183944
                ]
            },
            "properties": {
                "name": "Pigalle"
            }
        },
        {
            "type": "Feature",
            "geometry": {
                "type": "Point",
                "coordinates": [
                    16.4074451,
                    48.1825361
                ]
            },
            "properties": {
                "name": "Lusthaus 21"
            }
        },
        {
            "type": "Feature",
            "geometry": {
                "type": "Point",
                "coordinates": [
                    16.3694064,
                    48.2013324
                ]
            },
            "properties": {
                "name": "Maxim"
            }
        },
        {
            "type": "Feature",
            "geometry": {
                "type": "Point",
                "coordinates": [
                    16.3312021,
                    48.2205444
                ]
            },
            "properties": {
                "name": "Ellena's Liebesnestchen"
            }
        },
        {
            "type": "Feature",
            "geometry": {
                "type": "Point",
                "coordinates": [
                    16.3289019,
                    48.2139681
                ]
            },
            "properties": {
                "name": "Studio 1"
            }
        },
        {
            "type": "Feature",
            "geometry": {
                "type": "Point",
                "coordinates": [
                    14.2571971,
                    46.6257706
                ]
            },
            "properties": {
                "name": "Babylon Klagenfurt"
            }
        },
        {
            "type": "Feature",
            "geometry": {
                "type": "Point",
                "coordinates": [
                    16.3770357,
                    48.2060887
                ]
            },
            "properties": {
                "name": "Babylon Wien"
            }
        },
        {
            "type": "Feature",
            "geometry": {
                "type": "Point",
                "coordinates": [
                    12.1580395,
                    47.5642606
                ]
            },
            "properties": {
                "name": "Saunaclub Atlantis"
            }
        },
        {
            "type": "Feature",
            "geometry": {
                "type": "Point",
                "coordinates": [
                    16.3541693,
                    48.1741272
                ]
            },
            "properties": {
                "name": "Laufhaus Vienna"
            }
        },
        {
            "type": "Feature",
            "geometry": {
                "type": "Point",
                "coordinates": [
                    16.3313425,
                    48.2082214
                ]
            },
            "properties": {
                "name": "Liebesh\u00fctte"
            }
        },
        {
            "type": "Feature",
            "geometry": {
                "type": "Point",
                "coordinates": [
                    16.3575855,
                    48.2123549
                ]
            },
            "properties": {
                "name": "Imperial Vienna"
            }
        },
        {
            "type": "Feature",
            "geometry": {
                "type": "Point",
                "coordinates": [
                    16.3634106,
                    48.191548
                ]
            },
            "properties": {
                "name": "Asien Girls"
            }
        },
        {
            "type": "Feature",
            "geometry": {
                "type": "Point",
                "coordinates": [
                    16.3633252,
                    48.1916138
                ]
            },
            "properties": {
                "name": "Studio 3A"
            }
        },
        {
            "type": "Feature",
            "geometry": {
                "type": "Point",
                "coordinates": [
                    16.3207606,
                    48.2164703
                ]
            },
            "properties": {
                "name": "Wichtel Studio 43"
            }
        },
        {
            "type": "Feature",
            "geometry": {
                "type": "Point",
                "coordinates": [
                    16.3444702,
                    48.1904584
                ]
            },
            "properties": {
                "name": "6hexen"
            }
        },
        {
            "type": "Feature",
            "geometry": {
                "type": "Point",
                "coordinates": [
                    16.3292583,
                    48.1910481
                ]
            },
            "properties": {
                "name": "Asia-Face"
            }
        },
        {
            "type": "Feature",
            "geometry": {
                "type": "Point",
                "coordinates": [
                    16.303226,
                    48.0384476
                ]
            },
            "properties": {
                "name": "Laufhaus Hasenohr"
            }
        },
        {
            "type": "Feature",
            "geometry": {
                "type": "Point",
                "coordinates": [
                    16.3267473,
                    48.1986715
                ]
            },
            "properties": {
                "name": "Nana Massage"
            }
        },
        {
            "type": "Feature",
            "geometry": {
                "type": "Point",
                "coordinates": [
                    16.3343388,
                    48.1977816
                ]
            },
            "properties": {
                "name": "Studio Elisabeth"
            }
        },
        {
            "type": "Feature",
            "geometry": {
                "type": "Point",
                "coordinates": [
                    16.3711547,
                    48.2071644
                ]
            },
            "properties": {
                "name": "Chez Nous"
            }
        },
        {
            "type": "Feature",
            "geometry": {
                "type": "Point",
                "coordinates": [
                    16.4621084,
                    48.2573182
                ]
            },
            "properties": {
                "name": "Vienna Gentlemen Club"
            }
        },
        {
            "type": "Feature",
            "geometry": {
                "type": "Point",
                "coordinates": [
                    16.3312199,
                    48.2205846
                ]
            },
            "properties": {
                "name": "Studio Prestige"
            }
        },
        {
            "type": "Feature",
            "geometry": {
                "type": "Point",
                "coordinates": [
                    16.3535965,
                    48.173558
                ]
            },
            "properties": {
                "name": "Girlswien"
            }
        },
        {
            "type": "Feature",
            "geometry": {
                "type": "Point",
                "coordinates": [
                    16.3357836,
                    48.1894751
                ]
            },
            "properties": {
                "name": "Girlswien"
            }
        },
        {
            "type": "Feature",
            "geometry": {
                "type": "Point",
                "coordinates": [
                    16.3798808,
                    48.2286843
                ]
            },
            "properties": {
                "name": "Girlswien"
            }
        },
        {
            "type": "Feature",
            "geometry": {
                "type": "Point",
                "coordinates": [
                    16.3771039,
                    48.18054
                ]
            },
            "properties": {
                "name": "Kontaktzone"
            }
        },
        {
            "type": "Feature",
            "geometry": {
                "type": "Point",
                "coordinates": [
                    16.365673,
                    48.2299387
                ]
            },
            "properties": {
                "name": "Studio Milady"
            }
        },
        {
            "type": "Feature",
            "geometry": {
                "type": "Point",
                "coordinates": [
                    16.3158769,
                    48.2167938
                ]
            },
            "properties": {
                "name": "Club 34"
            }
        },
        {
            "type": "Feature",
            "geometry": {
                "type": "Point",
                "coordinates": [
                    16.3085572,
                    48.1969613
                ]
            },
            "properties": {
                "name": "White Angels Studio"
            }
        },
        {
            "type": "Feature",
            "geometry": {
                "type": "Point",
                "coordinates": [
                    16.3105989,
                    48.1608298
                ]
            },
            "properties": {
                "name": "Mimis Studio"
            }
        },
        {
            "type": "Feature",
            "geometry": {
                "type": "Point",
                "coordinates": [
                    13.1089259,
                    47.3035978
                ]
            },
            "properties": {
                "name": "Jaqueline"
            }
        },
        {
            "type": "Feature",
            "geometry": {
                "type": "Point",
                "coordinates": [
                    13.8463833,
                    46.6155804
                ]
            },
            "properties": {
                "name": "Laufhaus Villach"
            }
        },
        {
            "type": "Feature",
            "geometry": {
                "type": "Point",
                "coordinates": [
                    16.3154791,
                    48.192476
                ]
            },
            "properties": {
                "name": "Laufhaus Rosi"
            }
        },
        {
            "type": "Feature",
            "geometry": {
                "type": "Point",
                "coordinates": [
                    16.3315668,
                    48.2087684
                ]
            },
            "properties": {
                "name": "Sissy-Salon Wien"
            }
        },
        {
            "type": "Feature",
            "geometry": {
                "type": "Point",
                "coordinates": [
                    16.3293109,
                    48.2059192
                ]
            },
            "properties": {
                "name": "Liebesh\u00fctte"
            }
        },
        {
            "type": "Feature",
            "geometry": {
                "type": "Point",
                "coordinates": [
                    16.3958813,
                    48.2559508
                ]
            },
            "properties": {
                "name": "Asia Studio"
            }
        },
        {
            "type": "Feature",
            "geometry": {
                "type": "Point",
                "coordinates": [
                    16.4929205,
                    48.2509476
                ]
            },
            "properties": {
                "name": "Studio Stadlau"
            }
        },
        {
            "type": "Feature",
            "geometry": {
                "type": "Point",
                "coordinates": [
                    16.3402901,
                    48.1849901
                ]
            },
            "properties": {
                "name": "Studio Arndtstra\u00dfe 24"
            }
        },
        {
            "type": "Feature",
            "geometry": {
                "type": "Point",
                "coordinates": [
                    16.4529148,
                    48.2283053
                ]
            },
            "properties": {
                "name": "Blonde Cousinen"
            }
        },
        {
            "type": "Feature",
            "geometry": {
                "type": "Point",
                "coordinates": [
                    16.3828639,
                    48.1447823
                ]
            },
            "properties": {
                "name": "Romantikstudio H7a"
            }
        },
        {
            "type": "Feature",
            "geometry": {
                "type": "Point",
                "coordinates": [
                    16.3131735,
                    48.1955065
                ]
            },
            "properties": {
                "name": "Studio Goldschlagstra\u00dfe"
            }
        },
        {
            "type": "Feature",
            "geometry": {
                "type": "Point",
                "coordinates": [
                    16.3147734,
                    48.2165735
                ]
            },
            "properties": {
                "name": "Eisblume"
            }
        },
        {
            "type": "Feature",
            "geometry": {
                "type": "Point",
                "coordinates": [
                    16.403518,
                    48.2231356
                ]
            },
            "properties": {
                "name": "Traummasseurinnen"
            }
        },
        {
            "type": "Feature",
            "geometry": {
                "type": "Point",
                "coordinates": [
                    16.3823155,
                    48.1629478
                ]
            },
            "properties": {
                "name": "Nurumassagen"
            }
        },
        {
            "type": "Feature",
            "geometry": {
                "type": "Point",
                "coordinates": [
                    16.3875527,
                    48.222258
                ]
            },
            "properties": {
                "name": "Charlie Love"
            }
        },
        {
            "type": "Feature",
            "geometry": {
                "type": "Point",
                "coordinates": [
                    16.3407146,
                    48.1912636
                ]
            },
            "properties": {
                "name": "Studio Hotlips"
            }
        },
        {
            "type": "Feature",
            "geometry": {
                "type": "Point",
                "coordinates": [
                    16.3330835,
                    48.1773107
                ]
            },
            "properties": {
                "name": "Studio Intim"
            }
        },
        {
            "type": "Feature",
            "geometry": {
                "type": "Point",
                "coordinates": [
                    16.4005928,
                    48.1932383
                ]
            },
            "properties": {
                "name": "Studio Paulusgasse 6"
            }
        },
        {
            "type": "Feature",
            "geometry": {
                "type": "Point",
                "coordinates": [
                    16.3358439,
                    48.189451
                ]
            },
            "properties": {
                "name": "Studio 14/1 B"
            }
        },
        {
            "type": "Feature",
            "geometry": {
                "type": "Point",
                "coordinates": [
                    16.3362729,
                    48.1894693
                ]
            },
            "properties": {
                "name": "Studio 5/A"
            }
        },
        {
            "type": "Feature",
            "geometry": {
                "type": "Point",
                "coordinates": [
                    16.3353563,
                    48.1891354
                ]
            },
            "properties": {
                "name": "Kontakt Cafe"
            }
        },
        {
            "type": "Feature",
            "geometry": {
                "type": "Point",
                "coordinates": [
                    16.3342682,
                    48.1882011
                ]
            },
            "properties": {
                "name": "Studio 19 C"
            }
        },
        {
            "type": "Feature",
            "geometry": {
                "type": "Point",
                "coordinates": [
                    16.3335912,
                    48.1882595
                ]
            },
            "properties": {
                "name": "Studio 34"
            }
        },
        {
            "type": "Feature",
            "geometry": {
                "type": "Point",
                "coordinates": [
                    16.3895599,
                    48.2165029
                ]
            },
            "properties": {
                "name": "Studio Lux"
            }
        },
        {
            "type": "Feature",
            "geometry": {
                "type": "Point",
                "coordinates": [
                    16.3951821,
                    48.2547178
                ]
            },
            "properties": {
                "name": "Yi Ting Studio"
            }
        },
        {
            "type": "Feature",
            "geometry": {
                "type": "Point",
                "coordinates": [
                    16.366303,
                    48.2325979
                ]
            },
            "properties": {
                "name": "Yukina"
            }
        },
        {
            "type": "Feature",
            "geometry": {
                "type": "Point",
                "coordinates": [
                    16.332773,
                    48.1968577
                ]
            },
            "properties": {
                "name": "Mini Bar"
            }
        },
        {
            "type": "Feature",
            "geometry": {
                "type": "Point",
                "coordinates": [
                    16.3339698,
                    48.1886682
                ]
            },
            "properties": {
                "name": "Studio Kranzgasse"
            }
        },
        {
            "type": "Feature",
            "geometry": {
                "type": "Point",
                "coordinates": [
                    16.336142,
                    48.190213
                ]
            },
            "properties": {
                "name": "Studio Lady-Lux"
            }
        },
        {
            "type": "Feature",
            "geometry": {
                "type": "Point",
                "coordinates": [
                    16.2515613,
                    47.8907418
                ]
            },
            "properties": {
                "name": "Laguna Bar"
            }
        },
        {
            "type": "Feature",
            "geometry": {
                "type": "Point",
                "coordinates": [
                    16.3337815,
                    48.1839311
                ]
            },
            "properties": {
                "name": "Studio Nr. 227"
            }
        },
        {
            "type": "Feature",
            "geometry": {
                "type": "Point",
                "coordinates": [
                    16.3823666,
                    48.2877705
                ]
            },
            "properties": {
                "name": "east diamonds"
            }
        },
        {
            "type": "Feature",
            "geometry": {
                "type": "Point",
                "coordinates": [
                    16.4099876,
                    48.1761917
                ]
            },
            "properties": {
                "name": "Hot Stella"
            }
        },
        {
            "type": "Feature",
            "geometry": {
                "type": "Point",
                "coordinates": [
                    16.4099855,
                    48.1764528
                ]
            },
            "properties": {
                "name": "Sexangels"
            }
        },
        {
            "type": "Feature",
            "geometry": {
                "type": "Point",
                "coordinates": [
                    14.321079,
                    48.3084402
                ]
            },
            "properties": {
                "name": "Laufhof Linz"
            }
        },
        {
            "type": "Feature",
            "geometry": {
                "type": "Point",
                "coordinates": [
                    16.33704,
                    48.2151963
                ]
            },
            "properties": {
                "name": "Aroma Tempel"
            }
        },
        {
            "type": "Feature",
            "geometry": {
                "type": "Point",
                "coordinates": [
                    16.3348532,
                    48.2048122
                ]
            },
            "properties": {
                "name": "Asia Studio"
            }
        },
        {
            "type": "Feature",
            "geometry": {
                "type": "Point",
                "coordinates": [
                    16.3305092,
                    48.2149544
                ]
            },
            "properties": {
                "name": "China Dream Girls"
            }
        },
        {
            "type": "Feature",
            "geometry": {
                "type": "Point",
                "coordinates": [
                    16.3301942,
                    48.2147816
                ]
            },
            "properties": {
                "name": "Club Doreen"
            }
        },
        {
            "type": "Feature",
            "geometry": {
                "type": "Point",
                "coordinates": [
                    16.3212161,
                    48.2152477
                ]
            }
        },
        {
            "type": "Feature",
            "geometry": {
                "type": "Point",
                "coordinates": [
                    16.3283913,
                    48.2127797
                ]
            },
            "properties": {
                "name": "Laufhaus Hellgasse"
            }
        },
        {
            "type": "Feature",
            "geometry": {
                "type": "Point",
                "coordinates": [
                    16.3311435,
                    48.2122043
                ]
            },
            "properties": {
                "name": "Studio 71"
            }
        },
        {
            "type": "Feature",
            "geometry": {
                "type": "Point",
                "coordinates": [
                    16.3270598,
                    48.2126267
                ]
            },
            "properties": {
                "name": "Studio 89"
            }
        },
        {
            "type": "Feature",
            "geometry": {
                "type": "Point",
                "coordinates": [
                    16.3269222,
                    48.2126563
                ]
            },
            "properties": {
                "name": "Studio 91"
            }
        },
        {
            "type": "Feature",
            "geometry": {
                "type": "Point",
                "coordinates": [
                    16.3302777,
                    48.2117911
                ]
            },
            "properties": {
                "name": "Studio Star"
            }
        },
        {
            "type": "Feature",
            "geometry": {
                "type": "Point",
                "coordinates": [
                    16.3419249,
                    48.2250611
                ]
            },
            "properties": {
                "name": "Asia Cocoon"
            }
        },
        {
            "type": "Feature",
            "geometry": {
                "type": "Point",
                "coordinates": [
                    16.3360574,
                    48.223299
                ]
            },
            "properties": {
                "name": "Massage MingMing"
            }
        },
        {
            "type": "Feature",
            "geometry": {
                "type": "Point",
                "coordinates": [
                    16.3168677,
                    48.193739
                ]
            },
            "properties": {
                "name": "Susumassage"
            }
        },
        {
            "type": "Feature",
            "geometry": {
                "type": "Point",
                "coordinates": [
                    16.3163748,
                    48.1928278
                ]
            },
            "properties": {
                "name": "Studio 1"
            }
        },
        {
            "type": "Feature",
            "geometry": {
                "type": "Point",
                "coordinates": [
                    16.3173034,
                    48.1937381
                ]
            },
            "properties": {
                "name": "Studio 14a"
            }
        },
        {
            "type": "Feature",
            "geometry": {
                "type": "Point",
                "coordinates": [
                    16.3994691,
                    48.2225367
                ]
            },
            "properties": {
                "name": "Studio Claudia"
            }
        },
        {
            "type": "Feature",
            "geometry": {
                "type": "Point",
                "coordinates": [
                    16.3993744,
                    48.2224898
                ]
            },
            "properties": {
                "name": "Studio Luna"
            }
        },
        {
            "type": "Feature",
            "geometry": {
                "type": "Point",
                "coordinates": [
                    16.4434003,
                    48.2332811
                ]
            },
            "properties": {
                "name": "studio4FUN"
            }
        },
        {
            "type": "Feature",
            "geometry": {
                "type": "Point",
                "coordinates": [
                    16.3197177,
                    48.1968166
                ]
            }
        },
        {
            "type": "Feature",
            "geometry": {
                "type": "Point",
                "coordinates": [
                    16.4088424,
                    48.2206322
                ]
            },
            "properties": {
                "name": "Mon-Cheri"
            }
        },
        {
            "type": "Feature",
            "geometry": {
                "type": "Point",
                "coordinates": [
                    16.3290897,
                    48.1996573
                ]
            },
            "properties": {
                "name": "Le Souterrain"
            }
        },
        {
            "type": "Feature",
            "geometry": {
                "type": "Point",
                "coordinates": [
                    16.3314709,
                    48.1965027
                ]
            },
            "properties": {
                "name": "Scandaleux"
            }
        },
        {
            "type": "Feature",
            "geometry": {
                "type": "Point",
                "coordinates": [
                    16.3367927,
                    48.1991246
                ]
            },
            "properties": {
                "name": "Tete a Tete"
            }
        },
        {
            "type": "Feature",
            "geometry": {
                "type": "Point",
                "coordinates": [
                    16.4156341,
                    48.260148
                ]
            },
            "properties": {
                "name": "Red Rose"
            }
        },
        {
            "type": "Feature",
            "geometry": {
                "type": "Point",
                "coordinates": [
                    16.3184787,
                    48.1958918
                ]
            },
            "properties": {
                "name": "Afrodita"
            }
        },
        {
            "type": "Feature",
            "geometry": {
                "type": "Point",
                "coordinates": [
                    16.3883979,
                    48.2241452
                ]
            },
            "properties": {
                "name": "Studio Loveplace"
            }
        },
        {
            "type": "Feature",
            "geometry": {
                "type": "Point",
                "coordinates": [
                    16.5309031,
                    47.8278222
                ]
            },
            "properties": {
                "name": "Arabella Nachtclub"
            }
        },
        {
            "type": "Feature",
            "geometry": {
                "type": "Point",
                "coordinates": [
                    16.3551255,
                    48.2319296
                ]
            },
            "properties": {
                "name": "EXZESS! Gentlemen Club"
            }
        },
        {
            "type": "Feature",
            "geometry": {
                "type": "Point",
                "coordinates": [
                    16.3389703,
                    48.19894
                ]
            },
            "properties": {
                "name": "Kabinensex"
            }
        },
        {
            "type": "Feature",
            "geometry": {
                "type": "Point",
                "coordinates": [
                    16.3389998,
                    48.1988632
                ]
            },
            "properties": {
                "name": "Manhattan Bar"
            }
        },
        {
            "type": "Feature",
            "geometry": {
                "type": "Point",
                "coordinates": [
                    16.3395942,
                    48.2100555
                ]
            },
            "properties": {
                "name": "White Angels"
            }
        },
        {
            "type": "Feature",
            "geometry": {
                "type": "Point",
                "coordinates": [
                    16.3492469,
                    48.223189
                ]
            },
            "properties": {
                "name": "bei Nicole"
            }
        },
        {
            "type": "Feature",
            "geometry": {
                "type": "Point",
                "coordinates": [
                    16.3549506,
                    48.2286032
                ]
            },
            "properties": {
                "name": "Imperium Studio"
            }
        },
        {
            "type": "Feature",
            "geometry": {
                "type": "Point",
                "coordinates": [
                    16.4008609,
                    48.220542
                ]
            },
            "properties": {
                "name": "Studio Max Winter Platz"
            }
        },
        {
            "type": "Feature",
            "geometry": {
                "type": "Point",
                "coordinates": [
                    16.401231,
                    48.2197217
                ]
            },
            "properties": {
                "name": "Local Jasmina"
            }
        },
        {
            "type": "Feature",
            "geometry": {
                "type": "Point",
                "coordinates": [
                    16.4011935,
                    48.2199022
                ]
            },
            "properties": {
                "name": "Studio Zanet"
            }
        },
        {
            "type": "Feature",
            "geometry": {
                "type": "Point",
                "coordinates": [
                    16.399316,
                    48.2194161
                ]
            },
            "properties": {
                "name": "Max Winter Laufhaus"
            }
        },
        {
            "type": "Feature",
            "geometry": {
                "type": "Point",
                "coordinates": [
                    16.3904912,
                    48.2160854
                ]
            },
            "properties": {
                "name": "Sex-Shop"
            }
        },
        {
            "type": "Feature",
            "geometry": {
                "type": "Point",
                "coordinates": [
                    16.385177,
                    48.2146551
                ]
            },
            "properties": {
                "name": "Studio"
            }
        },
        {
            "type": "Feature",
            "geometry": {
                "type": "Point",
                "coordinates": [
                    16.3999493,
                    48.2189292
                ]
            },
            "properties": {
                "name": "-"
            }
        },
        {
            "type": "Feature",
            "geometry": {
                "type": "Point",
                "coordinates": [
                    16.3413427,
                    48.2044634
                ]
            },
            "properties": {
                "name": "Sex Stern Peep Show"
            }
        },
        {
            "type": "Feature",
            "geometry": {
                "type": "Point",
                "coordinates": [
                    16.3453006,
                    48.2225934
                ]
            },
            "properties": {
                "name": "Cornea Lobas Studio-Bar"
            }
        },
        {
            "type": "Feature",
            "geometry": {
                "type": "Point",
                "coordinates": [
                    16.3895896,
                    48.2357099
                ]
            },
            "properties": {
                "name": "Studio 126"
            }
        },
        {
            "type": "Feature",
            "geometry": {
                "type": "Point",
                "coordinates": [
                    16.3878249,
                    48.2181043
                ]
            },
            "properties": {
                "name": "Lina"
            }
        },
        {
            "type": "Feature",
            "geometry": {
                "type": "Point",
                "coordinates": [
                    16.3887101,
                    48.2178621
                ]
            },
            "properties": {
                "name": "Domina Casandra"
            }
        },
        {
            "type": "Feature",
            "geometry": {
                "type": "Point",
                "coordinates": [
                    16.3399033,
                    48.1852166
                ]
            },
            "properties": {
                "name": "La Domin"
            }
        },
        {
            "type": "Feature",
            "geometry": {
                "type": "Point",
                "coordinates": [
                    14.0230068,
                    48.155808
                ]
            },
            "properties": {
                "name": "Pegasus Nightclub"
            }
        },
        {
            "type": "Feature",
            "geometry": {
                "type": "Point",
                "coordinates": [
                    11.0993363,
                    47.3160413
                ]
            },
            "properties": {
                "name": "La-Villa-Nightclub"
            }
        },
        {
            "type": "Feature",
            "geometry": {
                "type": "Point",
                "coordinates": [
                    14.269972,
                    48.2741747
                ]
            },
            "properties": {
                "name": "Laufhaus Linz"
            }
        },
        {
            "type": "Feature",
            "geometry": {
                "type": "Point",
                "coordinates": [
                    11.3997407,
                    47.2598143
                ]
            },
            "properties": {
                "name": "Maxim"
            }
        },
        {
            "type": "Feature",
            "geometry": {
                "type": "Point",
                "coordinates": [
                    13.0486007,
                    47.7964483
                ]
            },
            "properties": {
                "name": "Laufhaus Salzburg"
            }
        },
        {
            "type": "Feature",
            "geometry": {
                "type": "Point",
                "coordinates": [
                    15.6618489,
                    48.4083889
                ]
            },
            "properties": {
                "name": "Club Splash Krems"
            }
        },
        {
            "type": "Feature",
            "geometry": {
                "type": "Point",
                "coordinates": [
                    14.0669141,
                    48.0169361
                ]
            },
            "properties": {
                "name": "Laufhaus A9"
            }
        },
        {
            "type": "Feature",
            "geometry": {
                "type": "Point",
                "coordinates": [
                    13.6241128,
                    47.7004147
                ]
            },
            "properties": {
                "name": "Club Rubin"
            }
        },
        {
            "type": "Feature",
            "geometry": {
                "type": "Point",
                "coordinates": [
                    16.0009011,
                    47.2831421
                ]
            },
            "properties": {
                "name": "Pharao"
            }
        },
        {
            "type": "Feature",
            "geometry": {
                "type": "Point",
                "coordinates": [
                    15.9803853,
                    47.3146168
                ]
            },
            "properties": {
                "name": "Knusperh\u00e4uschen"
            }
        },
        {
            "type": "Feature",
            "geometry": {
                "type": "Point",
                "coordinates": [
                    15.4381559,
                    47.0578453
                ]
            },
            "properties": {
                "name": "Carisma"
            }
        },
        {
            "type": "Feature",
            "geometry": {
                "type": "Point",
                "coordinates": [
                    14.3501802,
                    48.2507226
                ]
            },
            "properties": {
                "name": "Scala Nightclub"
            }
        },
        {
            "type": "Feature",
            "geometry": {
                "type": "Point",
                "coordinates": [
                    11.4370261,
                    47.2653336
                ]
            },
            "properties": {
                "name": "Circolo Passion Saunaclub"
            }
        },
        {
            "type": "Feature",
            "geometry": {
                "type": "Point",
                "coordinates": [
                    15.452791,
                    47.0391975
                ]
            },
            "properties": {
                "name": "Inkognito Bar"
            }
        },
        {
            "type": "Feature",
            "geometry": {
                "type": "Point",
                "coordinates": [
                    13.1397956,
                    48.1019612
                ]
            },
            "properties": {
                "name": "Dolce Vita"
            }
        },
        {
            "type": "Feature",
            "geometry": {
                "type": "Point",
                "coordinates": [
                    13.0648647,
                    47.803624
                ]
            },
            "properties": {
                "name": "Pascha Salzburg"
            }
        },
        {
            "type": "Feature",
            "geometry": {
                "type": "Point",
                "coordinates": [
                    15.4655534,
                    47.0657259
                ]
            },
            "properties": {
                "name": "Erotikpark"
            }
        },
        {
            "type": "Feature",
            "geometry": {
                "type": "Point",
                "coordinates": [
                    12.9438226,
                    47.7674874
                ]
            },
            "properties": {
                "name": "Babylon Salzburg"
            }
        },
        {
            "type": "Feature",
            "geometry": {
                "type": "Point",
                "coordinates": [
                    15.4249421,
                    47.0685388
                ]
            },
            "properties": {
                "name": "OaseX"
            }
        },
        {
            "type": "Feature",
            "geometry": {
                "type": "Point",
                "coordinates": [
                    15.4201671,
                    47.0693555
                ]
            },
            "properties": {
                "name": "Pascha Graz"
            }
        },
        {
            "type": "Feature",
            "geometry": {
                "type": "Point",
                "coordinates": [
                    16.4006521,
                    48.1763078
                ]
            },
            "properties": {
                "name": "Goldentime FKK Saunaclub"
            }
        },
        {
            "type": "Feature",
            "geometry": {
                "type": "Point",
                "coordinates": [
                    14.2614079,
                    48.2084077
                ]
            },
            "properties": {
                "name": "Nightclub Fantasie"
            }
        },
        {
            "type": "Feature",
            "geometry": {
                "type": "Point",
                "coordinates": [
                    13.8214901,
                    46.6243001
                ]
            },
            "properties": {
                "name": "Nightclub L'Amour"
            }
        },
        {
            "type": "Feature",
            "geometry": {
                "type": "Point",
                "coordinates": [
                    14.5302463,
                    48.1961515
                ]
            },
            "properties": {
                "name": "Nachtclub St.Valentin"
            }
        },
        {
            "type": "Feature",
            "geometry": {
                "type": "Point",
                "coordinates": [
                    15.0884267,
                    47.3700641
                ]
            },
            "properties": {
                "name": "Love Haus"
            }
        },
        {
            "type": "Feature",
            "geometry": {
                "type": "Point",
                "coordinates": [
                    15.4308629,
                    47.0770373
                ]
            },
            "properties": {
                "name": "Nightclub Studio 66"
            }
        },
        {
            "type": "Feature",
            "geometry": {
                "type": "Point",
                "coordinates": [
                    15.2676159,
                    47.4063824
                ]
            },
            "properties": {
                "name": "Nachtbar Emanuella"
            }
        },
        {
            "type": "Feature",
            "geometry": {
                "type": "Point",
                "coordinates": [
                    15.4674936,
                    47.0299782
                ]
            },
            "properties": {
                "name": "Paradise Graz"
            }
        },
        {
            "type": "Feature",
            "geometry": {
                "type": "Point",
                "coordinates": [
                    15.4279312,
                    47.076616
                ]
            },
            "properties": {
                "name": "Laufhaus Josefigasse 61"
            }
        },
        {
            "type": "Feature",
            "geometry": {
                "type": "Point",
                "coordinates": [
                    15.4242076,
                    47.0801673
                ]
            },
            "properties": {
                "name": "Laufhaus Nord"
            }
        },
        {
            "type": "Feature",
            "geometry": {
                "type": "Point",
                "coordinates": [
                    13.8746777,
                    46.6067643
                ]
            },
            "properties": {
                "name": "Andiamo"
            }
        },
        {
            "type": "Feature",
            "geometry": {
                "type": "Point",
                "coordinates": [
                    15.0833714,
                    48.148072
                ]
            },
            "properties": {
                "name": "Laufhaus Splash"
            }
        },
        {
            "type": "Feature",
            "geometry": {
                "type": "Point",
                "coordinates": [
                    15.4284125,
                    47.0782933
                ]
            },
            "properties": {
                "name": "Erotik-Center Graz"
            }
        },
        {
            "type": "Feature",
            "geometry": {
                "type": "Point",
                "coordinates": [
                    15.487971,
                    47.0415942
                ]
            },
            "properties": {
                "name": "Secret Graz"
            }
        },
        {
            "type": "Feature",
            "geometry": {
                "type": "Point",
                "coordinates": [
                    16.1593157,
                    47.9337406
                ]
            },
            "properties": {
                "name": "Bar-Monique"
            }
        },
        {
            "type": "Feature",
            "geometry": {
                "type": "Point",
                "coordinates": [
                    12.1036149,
                    47.4884986
                ]
            },
            "properties": {
                "name": "La Villa"
            }
        },
        {
            "type": "Feature",
            "geometry": {
                "type": "Point",
                "coordinates": [
                    14.0468234,
                    48.0751136
                ]
            },
            "properties": {
                "name": "Laufhaus Kleeblatt"
            }
        },
        {
            "type": "Feature",
            "geometry": {
                "type": "Point",
                "coordinates": [
                    14.1676425,
                    48.341223
                ]
            },
            "properties": {
                "name": "Laufhaus Ottensheim"
            }
        },
        {
            "type": "Feature",
            "geometry": {
                "type": "Point",
                "coordinates": [
                    15.4037007,
                    47.0999699
                ]
            },
            "properties": {
                "name": "Laufhaus Kamasutra"
            }
        },
        {
            "type": "Feature",
            "geometry": {
                "type": "Point",
                "coordinates": [
                    13.1182921,
                    47.6864562
                ]
            },
            "properties": {
                "name": "Casa Bianca"
            }
        },
        {
            "type": "Feature",
            "geometry": {
                "type": "Point",
                "coordinates": [
                    16.2048698,
                    47.2988407
                ]
            },
            "properties": {
                "name": "GoldenGate"
            }
        },
        {
            "type": "Feature",
            "geometry": {
                "type": "Point",
                "coordinates": [
                    14.5192553,
                    48.1887487
                ]
            },
            "properties": {
                "name": "Bigben"
            }
        },
        {
            "type": "Feature",
            "geometry": {
                "type": "Point",
                "coordinates": [
                    16.3711554,
                    48.2216261
                ]
            },
            "properties": {
                "name": "6hexen"
            }
        },
        {
            "type": "Feature",
            "geometry": {
                "type": "Point",
                "coordinates": [
                    12.4847009,
                    47.266538
                ]
            },
            "properties": {
                "name": "Laufhaus Noblesse"
            }
        },
        {
            "type": "Feature",
            "geometry": {
                "type": "Point",
                "coordinates": [
                    15.0482333,
                    47.3898152
                ]
            },
            "properties": {
                "name": "Pussy Laufhaus"
            }
        },
        {
            "type": "Feature",
            "geometry": {
                "type": "Point",
                "coordinates": [
                    14.0320463,
                    48.1619838
                ]
            },
            "properties": {
                "name": "Laufhaus Wels"
            }
        },
        {
            "type": "Feature",
            "geometry": {
                "type": "Point",
                "coordinates": [
                    16.2131197,
                    47.7319382
                ]
            },
            "properties": {
                "name": "Bar 66"
            }
        },
        {
            "type": "Feature",
            "geometry": {
                "type": "Point",
                "coordinates": [
                    14.0243424,
                    48.1675908
                ]
            },
            "properties": {
                "name": "Night Club Dolce Vita"
            }
        },
        {
            "type": "Feature",
            "geometry": {
                "type": "Point",
                "coordinates": [
                    16.3870695,
                    48.2295735
                ]
            },
            "properties": {
                "name": "6hexen"
            }
        },
        {
            "type": "Feature",
            "geometry": {
                "type": "Point",
                "coordinates": [
                    16.3254607,
                    48.1946031
                ]
            },
            "properties": {
                "name": "Club 28"
            }
        },
        {
            "type": "Feature",
            "geometry": {
                "type": "Point",
                "coordinates": [
                    14.8170335,
                    48.0743714
                ]
            },
            "properties": {
                "name": "Nightclub Saphir"
            }
        },
        {
            "type": "Feature",
            "geometry": {
                "type": "Point",
                "coordinates": [
                    16.3411215,
                    48.1468354
                ]
            },
            "properties": {
                "name": "Funpalast Saunaclub"
            }
        },
        {
            "type": "Feature",
            "geometry": {
                "type": "Point",
                "coordinates": [
                    15.2931479,
                    46.9272511
                ]
            },
            "properties": {
                "name": "Bar Tabu"
            }
        },
        {
            "type": "Feature",
            "geometry": {
                "type": "Point",
                "coordinates": [
                    16.4147773,
                    48.1737717
                ]
            },
            "properties": {
                "name": "Salon Kitty"
            }
        },
        {
            "type": "Feature",
            "geometry": {
                "type": "Point",
                "coordinates": [
                    15.6261108,
                    48.4175868
                ]
            },
            "properties": {
                "name": "Club Rendezvous"
            }
        },
        {
            "type": "Feature",
            "geometry": {
                "type": "Point",
                "coordinates": [
                    16.2872417,
                    48.1310145
                ]
            },
            "properties": {
                "name": "Simply Top"
            }
        },
        {
            "type": "Feature",
            "geometry": {
                "type": "Point",
                "coordinates": [
                    14.0341131,
                    48.1639972
                ]
            },
            "properties": {
                "name": "Nightclub Paradiso"
            }
        },
        {
            "type": "Feature",
            "geometry": {
                "type": "Point",
                "coordinates": [
                    14.0195232,
                    48.1550348
                ]
            },
            "properties": {
                "name": "Flamingo Bar"
            }
        },
        {
            "type": "Feature",
            "geometry": {
                "type": "Point",
                "coordinates": [
                    14.0200556,
                    48.1552301
                ]
            },
            "properties": {
                "name": "Nightclub Kiss Me"
            }
        },
        {
            "type": "Feature",
            "geometry": {
                "type": "Point",
                "coordinates": [
                    13.6893165,
                    46.5651299
                ]
            },
            "properties": {
                "name": "Wellcum"
            }
        },
        {
            "type": "Feature",
            "geometry": {
                "type": "Point",
                "coordinates": [
                    12.7075656,
                    47.6170013
                ]
            }
        },
        {
            "type": "Feature",
            "geometry": {
                "type": "Point",
                "coordinates": [
                    16.3029566,
                    48.0385247
                ]
            },
            "properties": {
                "name": "Laufhaus Baden"
            }
        },
        {
            "type": "Feature",
            "geometry": {
                "type": "Point",
                "coordinates": [
                    16.5302887,
                    47.8295631
                ]
            }
        },
        {
            "type": "Feature",
            "geometry": {
                "type": "Point",
                "coordinates": [
                    12.9990569,
                    48.1066965
                ]
            },
            "properties": {
                "name": "Dolce Vita Nachtclub"
            }
        },
        {
            "type": "Feature",
            "geometry": {
                "type": "Point",
                "coordinates": [
                    16.2881379,
                    47.9809209
                ]
            },
            "properties": {
                "name": "Tiffany"
            }
        },
        {
            "type": "Feature",
            "geometry": {
                "type": "Point",
                "coordinates": [
                    16.4822496,
                    48.2226431
                ]
            },
            "properties": {
                "name": "\u00f6sterreich-massage.at"
            }
        },
        {
            "type": "Feature",
            "geometry": {
                "type": "Point",
                "coordinates": [
                    16.4628864,
                    48.2368111
                ]
            },
            "properties": {
                "name": "Kontakt-Zentrum"
            }
        },
        {
            "type": "Feature",
            "geometry": {
                "type": "Point",
                "coordinates": [
                    16.3223039,
                    48.1939823
                ]
            }
        },
        {
            "type": "Feature",
            "geometry": {
                "type": "Point",
                "coordinates": [
                    16.9209384,
                    47.8383515
                ]
            },
            "properties": {
                "name": "Late Night"
            }
        },
        {
            "type": "Feature",
            "geometry": {
                "type": "Point",
                "coordinates": [
                    16.4553281,
                    48.2641254
                ]
            },
            "properties": {
                "name": "Ici Paris"
            }
        },
        {
            "type": "Feature",
            "geometry": {
                "type": "Point",
                "coordinates": [
                    13.4728667,
                    47.8021923
                ]
            },
            "properties": {
                "name": "Jaguar"
            }
        },
        {
            "type": "Feature",
            "geometry": {
                "type": "Point",
                "coordinates": [
                    14.093452,
                    46.718659
                ]
            },
            "properties": {
                "name": "R\u00f6merbad Casa Carintia"
            }
        },
        {
            "type": "Feature",
            "geometry": {
                "type": "Point",
                "coordinates": [
                    14.0570812,
                    48.1756616
                ]
            },
            "properties": {
                "name": "R\u00f6merbad"
            }
        },
        {
            "type": "Feature",
            "geometry": {
                "type": "Point",
                "coordinates": [
                    16.3311911,
                    48.1448043
                ]
            },
            "properties": {
                "name": "Laufhaus Rachel"
            }
        },
        {
            "type": "Feature",
            "geometry": {
                "type": "Point",
                "coordinates": [
                    16.2471227,
                    47.8462631
                ]
            },
            "properties": {
                "name": "Laufhaus Venus"
            }
        },
        {
            "type": "Feature",
            "geometry": {
                "type": "Point",
                "coordinates": [
                    14.2515166,
                    47.5584327
                ]
            },
            "properties": {
                "name": "Laufhaus"
            }
        },
        {
            "type": "Feature",
            "geometry": {
                "type": "Point",
                "coordinates": [
                    14.4491888,
                    48.2166436
                ]
            },
            "properties": {
                "name": "Happy End"
            }
        },
        {
            "type": "Feature",
            "geometry": {
                "type": "Point",
                "coordinates": [
                    16.3926667,
                    48.2678088
                ]
            },
            "properties": {
                "name": "Studio"
            }
        },
        {
            "type": "Feature",
            "geometry": {
                "type": "Point",
                "coordinates": [
                    16.3283726,
                    48.1410544
                ]
            },
            "properties": {
                "name": "Fresh Saunaclub"
            }
        },
        {
            "type": "Feature",
            "geometry": {
                "type": "Point",
                "coordinates": [
                    13.0571489,
                    47.8405561
                ]
            }
        },
        {
            "type": "Feature",
            "geometry": {
                "type": "Point",
                "coordinates": [
                    16.6497068,
                    47.8740336
                ]
            }
        },
        {
            "type": "Feature",
            "geometry": {
                "type": "Point",
                "coordinates": [
                    14.2572502,
                    48.2566287
                ]
            },
            "properties": {
                "name": "Goldentime Saunaclub"
            }
        },
        {
            "type": "Feature",
            "geometry": {
                "type": "Point",
                "coordinates": [
                    16.2958444,
                    48.0194565
                ]
            },
            "properties": {
                "name": "Cherie Bar"
            }
        }
    ],
    "crs": {
        "type": "name",
        "properties": {
            "name": "urn:ogc:def:crs:OGC:1.3:CRS84"
        }
    }
}