{
    "type": "FeatureCollection",
    "features": [
        {
            "type": "Feature",
            "geometry": {
                "type": "Point",
                "coordinates": [
                    14.427598,
                    50.0799401
                ]
            },
            "properties": {
                "name": "Atlas Cabaret"
            }
        },
        {
            "type": "Feature",
            "geometry": {
                "type": "Point",
                "coordinates": [
                    14.4394265,
                    50.0754683
                ]
            },
            "properties": {
                "name": "K5"
            }
        },
        {
            "type": "Feature",
            "geometry": {
                "type": "Point",
                "coordinates": [
                    14.4836062,
                    49.0026154
                ]
            },
            "properties": {
                "name": "Izabo"
            }
        },
        {
            "type": "Feature",
            "geometry": {
                "type": "Point",
                "coordinates": [
                    14.4278001,
                    50.0798534
                ]
            },
            "properties": {
                "name": "Darling Cabaret"
            }
        },
        {
            "type": "Feature",
            "geometry": {
                "type": "Point",
                "coordinates": [
                    14.430519,
                    50.0810402
                ]
            },
            "properties": {
                "name": "Club Empire"
            }
        },
        {
            "type": "Feature",
            "geometry": {
                "type": "Point",
                "coordinates": [
                    15.1311325,
                    50.7533526
                ]
            },
            "properties": {
                "name": "Night Club West"
            }
        },
        {
            "type": "Feature",
            "geometry": {
                "type": "Point",
                "coordinates": [
                    14.4798373,
                    50.1040426
                ]
            },
            "properties": {
                "name": "Club 161"
            }
        },
        {
            "type": "Feature",
            "geometry": {
                "type": "Point",
                "coordinates": [
                    14.307915,
                    51.025712
                ]
            },
            "properties": {
                "name": "Kittelberg"
            }
        },
        {
            "type": "Feature",
            "geometry": {
                "type": "Point",
                "coordinates": [
                    14.5578598,
                    50.9578305
                ]
            },
            "properties": {
                "name": "Nightclub Claudia"
            }
        },
        {
            "type": "Feature",
            "geometry": {
                "type": "Point",
                "coordinates": [
                    14.549903,
                    50.957453
                ]
            },
            "properties": {
                "name": "Napoleon"
            }
        },
        {
            "type": "Feature",
            "geometry": {
                "type": "Point",
                "coordinates": [
                    13.9787385,
                    50.8033164
                ]
            },
            "properties": {
                "name": "Night Club No6"
            }
        },
        {
            "type": "Feature",
            "geometry": {
                "type": "Point",
                "coordinates": [
                    13.7453062,
                    48.9095516
                ]
            },
            "properties": {
                "name": "Club Fenix"
            }
        },
        {
            "type": "Feature",
            "geometry": {
                "type": "Point",
                "coordinates": [
                    12.5987888,
                    49.6734977
                ]
            },
            "properties": {
                "name": "Nightclub Sally"
            }
        },
        {
            "type": "Feature",
            "geometry": {
                "type": "Point",
                "coordinates": [
                    12.5984655,
                    49.6743961
                ]
            },
            "properties": {
                "name": "Lollipop"
            }
        },
        {
            "type": "Feature",
            "geometry": {
                "type": "Point",
                "coordinates": [
                    15.0531384,
                    50.7703076
                ]
            },
            "properties": {
                "name": "Bar Penzion Eva"
            }
        },
        {
            "type": "Feature",
            "geometry": {
                "type": "Point",
                "coordinates": [
                    14.4220775,
                    50.0773113
                ]
            },
            "properties": {
                "name": "Ariadne"
            }
        },
        {
            "type": "Feature",
            "geometry": {
                "type": "Point",
                "coordinates": [
                    14.4269159,
                    50.0790698
                ]
            },
            "properties": {
                "name": "Sexy Sauna Club"
            }
        },
        {
            "type": "Feature",
            "geometry": {
                "type": "Point",
                "coordinates": [
                    13.2948226,
                    49.7161715
                ]
            }
        },
        {
            "type": "Feature",
            "geometry": {
                "type": "Point",
                "coordinates": [
                    14.4289362,
                    50.074404
                ]
            },
            "properties": {
                "name": "ShowPark DaVinci"
            }
        },
        {
            "type": "Feature",
            "geometry": {
                "type": "Point",
                "coordinates": [
                    14.435254,
                    50.0789895
                ]
            },
            "properties": {
                "name": "Neon Club"
            }
        },
        {
            "type": "Feature",
            "geometry": {
                "type": "Point",
                "coordinates": [
                    14.4558311,
                    50.0765726
                ]
            },
            "properties": {
                "name": "Night Club Sweet Paradise"
            }
        },
        {
            "type": "Feature",
            "geometry": {
                "type": "Point",
                "coordinates": [
                    14.4806936,
                    50.1212029
                ]
            },
            "properties": {
                "name": "escort69.cz"
            }
        },
        {
            "type": "Feature",
            "geometry": {
                "type": "Point",
                "coordinates": [
                    14.4429461,
                    50.0764009
                ]
            },
            "properties": {
                "name": "Top Priv\u00e1t"
            }
        },
        {
            "type": "Feature",
            "geometry": {
                "type": "Point",
                "coordinates": [
                    17.1872424,
                    50.2266818
                ]
            },
            "properties": {
                "name": "Night club Hawai"
            }
        },
        {
            "type": "Feature",
            "geometry": {
                "type": "Point",
                "coordinates": [
                    14.5872465,
                    50.8629544
                ]
            }
        },
        {
            "type": "Feature",
            "geometry": {
                "type": "Point",
                "coordinates": [
                    14.4470423,
                    50.0986312
                ]
            },
            "properties": {
                "name": "ShowPark Market"
            }
        },
        {
            "type": "Feature",
            "geometry": {
                "type": "Point",
                "coordinates": [
                    13.8276587,
                    50.6477615
                ]
            },
            "properties": {
                "name": "ve\u0159ejn\u00fd d\u016fm"
            }
        },
        {
            "type": "Feature",
            "geometry": {
                "type": "Point",
                "coordinates": [
                    14.2053707,
                    50.7794943
                ]
            },
            "properties": {
                "name": "Wolke 7"
            }
        },
        {
            "type": "Feature",
            "geometry": {
                "type": "Point",
                "coordinates": [
                    18.1892221,
                    49.5362387
                ]
            }
        },
        {
            "type": "Feature",
            "geometry": {
                "type": "Point",
                "coordinates": [
                    14.228375,
                    50.8358923
                ]
            },
            "properties": {
                "name": "Venu\u0161e"
            }
        },
        {
            "type": "Feature",
            "geometry": {
                "type": "Point",
                "coordinates": [
                    14.2374523,
                    50.7956104
                ]
            },
            "properties": {
                "name": "Nad'a"
            }
        },
        {
            "type": "Feature",
            "geometry": {
                "type": "Point",
                "coordinates": [
                    13.9824061,
                    50.8093389
                ]
            },
            "properties": {
                "name": "Club Lindo"
            }
        },
        {
            "type": "Feature",
            "geometry": {
                "type": "Point",
                "coordinates": [
                    12.551998,
                    49.6684841
                ]
            },
            "properties": {
                "name": "Venus"
            }
        },
        {
            "type": "Feature",
            "geometry": {
                "type": "Point",
                "coordinates": [
                    12.5506493,
                    49.6669931
                ]
            },
            "properties": {
                "name": "Olymp"
            }
        },
        {
            "type": "Feature",
            "geometry": {
                "type": "Point",
                "coordinates": [
                    14.2308034,
                    50.8661038
                ]
            },
            "properties": {
                "name": "Mary"
            }
        },
        {
            "type": "Feature",
            "geometry": {
                "type": "Point",
                "coordinates": [
                    14.2334835,
                    50.8693299
                ]
            },
            "properties": {
                "name": "Mon Cherry"
            }
        }
    ],
    "crs": {
        "type": "name",
        "properties": {
            "name": "urn:ogc:def:crs:OGC:1.3:CRS84"
        }
    }
}