{
    "type": "FeatureCollection",
    "features": [
        {
            "type": "Feature",
            "geometry": {
                "type": "Point",
                "coordinates": [
                    9.8144869,
                    63.7637691
                ]
            },
            "properties": {
                "name": "Fosenhallen"
            }
        },
        {
            "type": "Feature",
            "geometry": {
                "type": "Point",
                "coordinates": [
                    10.7250064,
                    59.9159837
                ]
            },
            "properties": {
                "name": "Dronningparken"
            }
        },
        {
            "type": "Feature",
            "geometry": {
                "type": "Point",
                "coordinates": [
                    10.3518563,
                    63.4295822
                ]
            },
            "properties": {
                "name": "Elsterparken"
            }
        },
        {
            "type": "Feature",
            "geometry": {
                "type": "Point",
                "coordinates": [
                    9.9244087,
                    59.7690188
                ]
            },
            "properties": {
                "name": "Loesmoen elvepark"
            }
        },
        {
            "type": "Feature",
            "geometry": {
                "type": "Point",
                "coordinates": [
                    10.3510206,
                    59.6869944
                ]
            }
        },
        {
            "type": "Feature",
            "geometry": {
                "type": "Point",
                "coordinates": [
                    6.8736784,
                    58.883525
                ]
            },
            "properties": {
                "name": "Solheim Fjellgrend"
            }
        },
        {
            "type": "Feature",
            "geometry": {
                "type": "Point",
                "coordinates": [
                    8.5619471,
                    62.6745993
                ]
            },
            "properties": {
                "name": "Kulturpark Sunndal"
            }
        },
        {
            "type": "Feature",
            "geometry": {
                "type": "Point",
                "coordinates": [
                    9.2349956,
                    58.7200937
                ]
            },
            "properties": {
                "name": "Ris\u00f8r Brannt\u00e5rn"
            }
        },
        {
            "type": "Feature",
            "geometry": {
                "type": "Point",
                "coordinates": [
                    10.9074501,
                    59.955097
                ]
            },
            "properties": {
                "name": "Rommensletta skulpturpark"
            }
        },
        {
            "type": "Feature",
            "geometry": {
                "type": "Point",
                "coordinates": [
                    10.2087837,
                    59.7273123
                ]
            }
        },
        {
            "type": "Feature",
            "geometry": {
                "type": "Point",
                "coordinates": [
                    11.2016414,
                    59.0972151
                ]
            },
            "properties": {
                "name": "Nordbukta"
            }
        },
        {
            "type": "Feature",
            "geometry": {
                "type": "Point",
                "coordinates": [
                    10.8494494,
                    59.7932811
                ]
            }
        },
        {
            "type": "Feature",
            "geometry": {
                "type": "Point",
                "coordinates": [
                    10.385514,
                    60.2410362
                ]
            }
        },
        {
            "type": "Feature",
            "geometry": {
                "type": "Point",
                "coordinates": [
                    14.4539222,
                    67.2904749
                ]
            }
        },
        {
            "type": "Feature",
            "geometry": {
                "type": "Point",
                "coordinates": [
                    14.4599437,
                    67.2903159
                ]
            }
        },
        {
            "type": "Feature",
            "geometry": {
                "type": "Point",
                "coordinates": [
                    8.0252966,
                    63.0688169
                ]
            },
            "properties": {
                "name": "Gryt\u00e5dalen"
            }
        },
        {
            "type": "Feature",
            "geometry": {
                "type": "Point",
                "coordinates": [
                    10.9633056,
                    63.4865913
                ]
            }
        },
        {
            "type": "Feature",
            "geometry": {
                "type": "Point",
                "coordinates": [
                    10.2641993,
                    63.1758254
                ]
            },
            "properties": {
                "name": "K\u00e5nsdalen"
            }
        },
        {
            "type": "Feature",
            "geometry": {
                "type": "Point",
                "coordinates": [
                    10.7427666,
                    59.9173918
                ]
            },
            "properties": {
                "name": "Kommand\u00f8r T. I. \u00d8grims plass"
            }
        },
        {
            "type": "Feature",
            "geometry": {
                "type": "Point",
                "coordinates": [
                    5.4364647,
                    60.4585882
                ]
            },
            "properties": {
                "name": "S\u00e6treparken"
            }
        },
        {
            "type": "Feature",
            "geometry": {
                "type": "Point",
                "coordinates": [
                    10.4070236,
                    63.4325563
                ]
            },
            "properties": {
                "name": "Adressaparken"
            }
        },
        {
            "type": "Feature",
            "geometry": {
                "type": "Point",
                "coordinates": [
                    9.8720416,
                    63.6816807
                ]
            },
            "properties": {
                "name": "Reina klubbhus"
            }
        },
        {
            "type": "Feature",
            "geometry": {
                "type": "Point",
                "coordinates": [
                    9.8738475,
                    63.6891901
                ]
            },
            "properties": {
                "name": "Killingneset"
            }
        },
        {
            "type": "Feature",
            "geometry": {
                "type": "Point",
                "coordinates": [
                    9.8677369,
                    63.6777487
                ]
            },
            "properties": {
                "name": "Hans mortens park"
            }
        },
        {
            "type": "Feature",
            "geometry": {
                "type": "Point",
                "coordinates": [
                    9.817731,
                    63.6853048
                ]
            },
            "properties": {
                "name": "Bakstein Heksa"
            }
        },
        {
            "type": "Feature",
            "geometry": {
                "type": "Point",
                "coordinates": [
                    9.8176942,
                    63.685048
                ]
            },
            "properties": {
                "name": "Stubben"
            }
        },
        {
            "type": "Feature",
            "geometry": {
                "type": "Point",
                "coordinates": [
                    9.8172858,
                    63.68473
                ]
            },
            "properties": {
                "name": "Bakstein Trollet"
            }
        },
        {
            "type": "Feature",
            "geometry": {
                "type": "Point",
                "coordinates": [
                    9.8213018,
                    63.686852
                ]
            },
            "properties": {
                "name": "Bakstein Knerten"
            }
        },
        {
            "type": "Feature",
            "geometry": {
                "type": "Point",
                "coordinates": [
                    9.8211996,
                    63.6867106
                ]
            },
            "properties": {
                "name": "Bakstein De tre bukkene bruse"
            }
        },
        {
            "type": "Feature",
            "geometry": {
                "type": "Point",
                "coordinates": [
                    9.8172979,
                    63.6848846
                ]
            },
            "properties": {
                "name": "Bakstein dragen"
            }
        },
        {
            "type": "Feature",
            "geometry": {
                "type": "Point",
                "coordinates": [
                    9.8182619,
                    63.6860407
                ]
            },
            "properties": {
                "name": "Bakstein Havfruene"
            }
        },
        {
            "type": "Feature",
            "geometry": {
                "type": "Point",
                "coordinates": [
                    9.8600615,
                    63.6778978
                ]
            },
            "properties": {
                "name": "fev\u00e5g park"
            }
        },
        {
            "type": "Feature",
            "geometry": {
                "type": "Point",
                "coordinates": [
                    11.0957397,
                    59.9023581
                ]
            }
        },
        {
            "type": "Feature",
            "geometry": {
                "type": "Point",
                "coordinates": [
                    10.3610149,
                    63.4014387
                ]
            },
            "properties": {
                "name": "\u00c6rverdig hellig tuntre"
            }
        },
        {
            "type": "Feature",
            "geometry": {
                "type": "Point",
                "coordinates": [
                    10.3606579,
                    63.401268
                ]
            }
        },
        {
            "type": "Feature",
            "geometry": {
                "type": "Point",
                "coordinates": [
                    12.0341674,
                    60.1470883
                ]
            },
            "properties": {
                "name": "War memorial park"
            }
        },
        {
            "type": "Feature",
            "geometry": {
                "type": "Point",
                "coordinates": [
                    10.9834449,
                    63.4515657
                ]
            },
            "properties": {
                "name": "Lekeplass Underhaugvegen"
            }
        },
        {
            "type": "Feature",
            "geometry": {
                "type": "Point",
                "coordinates": [
                    8.5633562,
                    62.6749209
                ]
            },
            "properties": {
                "name": "Sunndal kulturpark"
            }
        },
        {
            "type": "Feature",
            "geometry": {
                "type": "Point",
                "coordinates": [
                    8.5691125,
                    62.6724132
                ]
            },
            "properties": {
                "name": "Nils Tredal park"
            }
        },
        {
            "type": "Feature",
            "geometry": {
                "type": "Point",
                "coordinates": [
                    10.1403467,
                    59.7174134
                ]
            },
            "properties": {
                "name": "Forsynshammeren"
            }
        },
        {
            "type": "Feature",
            "geometry": {
                "type": "Point",
                "coordinates": [
                    10.2147285,
                    59.731462
                ]
            },
            "properties": {
                "name": "Bangel\u00f8kka"
            }
        },
        {
            "type": "Feature",
            "geometry": {
                "type": "Point",
                "coordinates": [
                    6.6501772,
                    58.2964506
                ]
            },
            "properties": {
                "name": "Fjellparken"
            }
        },
        {
            "type": "Feature",
            "geometry": {
                "type": "Point",
                "coordinates": [
                    7.9953194,
                    58.1467972
                ]
            },
            "properties": {
                "name": "Wergelandsparken"
            }
        },
        {
            "type": "Feature",
            "geometry": {
                "type": "Point",
                "coordinates": [
                    7.9734528,
                    58.1564917
                ]
            },
            "properties": {
                "name": "Ravnedalen"
            }
        },
        {
            "type": "Feature",
            "geometry": {
                "type": "Point",
                "coordinates": [
                    7.9923056,
                    58.1490389
                ]
            },
            "properties": {
                "name": "Stener Heyerdahls park"
            }
        },
        {
            "type": "Feature",
            "geometry": {
                "type": "Point",
                "coordinates": [
                    10.7973346,
                    59.8110162
                ]
            },
            "properties": {
                "name": "Kolbotn park"
            }
        },
        {
            "type": "Feature",
            "geometry": {
                "type": "Point",
                "coordinates": [
                    9.8102536,
                    63.7650304
                ]
            },
            "properties": {
                "name": "nothoinn"
            }
        },
        {
            "type": "Feature",
            "geometry": {
                "type": "Point",
                "coordinates": [
                    10.7642708,
                    59.9231027
                ]
            },
            "properties": {
                "name": "Sofienbergparken"
            }
        },
        {
            "type": "Feature",
            "geometry": {
                "type": "Point",
                "coordinates": [
                    10.7582793,
                    59.9228649
                ]
            },
            "properties": {
                "name": "Olaf Ryes plass"
            }
        },
        {
            "type": "Feature",
            "geometry": {
                "type": "Point",
                "coordinates": [
                    10.7601234,
                    59.9263257
                ]
            },
            "properties": {
                "name": "Birkelunden"
            }
        },
        {
            "type": "Feature",
            "geometry": {
                "type": "Point",
                "coordinates": [
                    10.7414359,
                    59.9272396
                ]
            },
            "properties": {
                "name": "Sankthanshaugen"
            }
        },
        {
            "type": "Feature",
            "geometry": {
                "type": "Point",
                "coordinates": [
                    10.7504614,
                    59.9269147
                ]
            }
        },
        {
            "type": "Feature",
            "geometry": {
                "type": "Point",
                "coordinates": [
                    10.7513555,
                    59.9379845
                ]
            },
            "properties": {
                "name": "Gr\u00e5beinsletta"
            }
        },
        {
            "type": "Feature",
            "geometry": {
                "type": "Point",
                "coordinates": [
                    10.7539783,
                    59.9448503
                ]
            },
            "properties": {
                "name": "Voldsl\u00f8kka"
            }
        },
        {
            "type": "Feature",
            "geometry": {
                "type": "Point",
                "coordinates": [
                    10.7697188,
                    59.9180465
                ]
            },
            "properties": {
                "name": "Botanisk hage"
            }
        },
        {
            "type": "Feature",
            "geometry": {
                "type": "Point",
                "coordinates": [
                    7.4490337,
                    58.0259381
                ]
            },
            "properties": {
                "name": "Skriverhaven"
            }
        },
        {
            "type": "Feature",
            "geometry": {
                "type": "Point",
                "coordinates": [
                    5.3277118,
                    60.3907547
                ]
            },
            "properties": {
                "name": "Byparken"
            }
        },
        {
            "type": "Feature",
            "geometry": {
                "type": "Point",
                "coordinates": [
                    10.730443,
                    59.9288371
                ]
            },
            "properties": {
                "name": "Stensparken"
            }
        },
        {
            "type": "Feature",
            "geometry": {
                "type": "Point",
                "coordinates": [
                    10.7486437,
                    59.9175621
                ]
            }
        },
        {
            "type": "Feature",
            "geometry": {
                "type": "Point",
                "coordinates": [
                    10.7016558,
                    59.9266439
                ]
            },
            "properties": {
                "name": "Frognerparken"
            }
        },
        {
            "type": "Feature",
            "geometry": {
                "type": "Point",
                "coordinates": [
                    10.7571896,
                    59.9131136
                ]
            },
            "properties": {
                "name": "Vaterlandsparken"
            }
        },
        {
            "type": "Feature",
            "geometry": {
                "type": "Point",
                "coordinates": [
                    10.7917872,
                    59.9597441
                ]
            }
        },
        {
            "type": "Feature",
            "geometry": {
                "type": "Point",
                "coordinates": [
                    10.7356953,
                    59.9142405
                ]
            }
        },
        {
            "type": "Feature",
            "geometry": {
                "type": "Point",
                "coordinates": [
                    5.6586001,
                    58.7400246
                ]
            },
            "properties": {
                "name": "Sandtangen"
            }
        },
        {
            "type": "Feature",
            "geometry": {
                "type": "Point",
                "coordinates": [
                    30.0480368,
                    69.7234962
                ]
            }
        },
        {
            "type": "Feature",
            "geometry": {
                "type": "Point",
                "coordinates": [
                    11.5619142,
                    60.8813768
                ]
            },
            "properties": {
                "name": "Elvarheim"
            }
        },
        {
            "type": "Feature",
            "geometry": {
                "type": "Point",
                "coordinates": [
                    11.3881929,
                    59.1241796
                ]
            }
        },
        {
            "type": "Feature",
            "geometry": {
                "type": "Point",
                "coordinates": [
                    11.3668591,
                    59.1214075
                ]
            },
            "properties": {
                "name": "R\u00f8dsparken"
            }
        },
        {
            "type": "Feature",
            "geometry": {
                "type": "Point",
                "coordinates": [
                    11.3793211,
                    59.1243246
                ]
            },
            "properties": {
                "name": "R\u00f8dsberget"
            }
        },
        {
            "type": "Feature",
            "geometry": {
                "type": "Point",
                "coordinates": [
                    10.7584636,
                    59.9353539
                ]
            },
            "properties": {
                "name": "Myral\u00f8kka"
            }
        },
        {
            "type": "Feature",
            "geometry": {
                "type": "Point",
                "coordinates": [
                    10.7571538,
                    59.9306838
                ]
            }
        },
        {
            "type": "Feature",
            "geometry": {
                "type": "Point",
                "coordinates": [
                    10.7544139,
                    59.9271375
                ]
            }
        },
        {
            "type": "Feature",
            "geometry": {
                "type": "Point",
                "coordinates": [
                    10.7523617,
                    59.931493
                ]
            },
            "properties": {
                "name": "Iladalen park"
            }
        },
        {
            "type": "Feature",
            "geometry": {
                "type": "Point",
                "coordinates": [
                    5.3133966,
                    60.3955699
                ]
            }
        },
        {
            "type": "Feature",
            "geometry": {
                "type": "Point",
                "coordinates": [
                    10.778262,
                    59.9199631
                ]
            },
            "properties": {
                "name": "T\u00f8yenparken"
            }
        },
        {
            "type": "Feature",
            "geometry": {
                "type": "Point",
                "coordinates": [
                    10.7803237,
                    59.915339
                ]
            },
            "properties": {
                "name": "Kampen park"
            }
        },
        {
            "type": "Feature",
            "geometry": {
                "type": "Point",
                "coordinates": [
                    10.7760416,
                    59.9083696
                ]
            },
            "properties": {
                "name": "Klosterenga"
            }
        },
        {
            "type": "Feature",
            "geometry": {
                "type": "Point",
                "coordinates": [
                    11.3936521,
                    59.1138468
                ]
            }
        },
        {
            "type": "Feature",
            "geometry": {
                "type": "Point",
                "coordinates": [
                    10.9335982,
                    59.9452625
                ]
            },
            "properties": {
                "name": "H\u00f8ybr\u00e5tenparken"
            }
        },
        {
            "type": "Feature",
            "geometry": {
                "type": "Point",
                "coordinates": [
                    10.989372,
                    59.9375143
                ]
            },
            "properties": {
                "name": "Fjellhamardammen milj\u00f8park"
            }
        },
        {
            "type": "Feature",
            "geometry": {
                "type": "Point",
                "coordinates": [
                    10.7529898,
                    59.956693
                ]
            },
            "properties": {
                "name": "Havnabakken"
            }
        },
        {
            "type": "Feature",
            "geometry": {
                "type": "Point",
                "coordinates": [
                    18.9075969,
                    69.6328747
                ]
            },
            "properties": {
                "name": "Telegrafbukta"
            }
        },
        {
            "type": "Feature",
            "geometry": {
                "type": "Point",
                "coordinates": [
                    10.7410647,
                    59.9089443
                ]
            }
        },
        {
            "type": "Feature",
            "geometry": {
                "type": "Point",
                "coordinates": [
                    10.7418605,
                    59.9087471
                ]
            }
        },
        {
            "type": "Feature",
            "geometry": {
                "type": "Point",
                "coordinates": [
                    10.3863899,
                    63.4241516
                ]
            },
            "properties": {
                "name": "Agnar Mykles plass"
            }
        },
        {
            "type": "Feature",
            "geometry": {
                "type": "Point",
                "coordinates": [
                    11.4448908,
                    59.1279273
                ]
            }
        },
        {
            "type": "Feature",
            "geometry": {
                "type": "Point",
                "coordinates": [
                    11.4437529,
                    59.126526
                ]
            }
        },
        {
            "type": "Feature",
            "geometry": {
                "type": "Point",
                "coordinates": [
                    11.3913161,
                    59.1232509
                ]
            }
        },
        {
            "type": "Feature",
            "geometry": {
                "type": "Point",
                "coordinates": [
                    11.3821165,
                    59.1219239
                ]
            }
        },
        {
            "type": "Feature",
            "geometry": {
                "type": "Point",
                "coordinates": [
                    10.7889233,
                    59.9461532
                ]
            }
        },
        {
            "type": "Feature",
            "geometry": {
                "type": "Point",
                "coordinates": [
                    10.4533836,
                    63.4381614
                ]
            }
        },
        {
            "type": "Feature",
            "geometry": {
                "type": "Point",
                "coordinates": [
                    10.696846,
                    59.9155854
                ]
            },
            "properties": {
                "name": "Fr\u00f8yas have"
            }
        },
        {
            "type": "Feature",
            "geometry": {
                "type": "Point",
                "coordinates": [
                    10.7003759,
                    59.9148622
                ]
            },
            "properties": {
                "name": "Skarpsnoparken"
            }
        },
        {
            "type": "Feature",
            "geometry": {
                "type": "Point",
                "coordinates": [
                    10.4288979,
                    63.4214535
                ]
            }
        },
        {
            "type": "Feature",
            "geometry": {
                "type": "Point",
                "coordinates": [
                    10.4284203,
                    63.4244942
                ]
            }
        },
        {
            "type": "Feature",
            "geometry": {
                "type": "Point",
                "coordinates": [
                    5.3540129,
                    60.3544677
                ]
            }
        },
        {
            "type": "Feature",
            "geometry": {
                "type": "Point",
                "coordinates": [
                    10.4129426,
                    63.4326235
                ]
            },
            "properties": {
                "name": "Thorn\u00e6sparken"
            }
        },
        {
            "type": "Feature",
            "geometry": {
                "type": "Point",
                "coordinates": [
                    10.3698246,
                    63.4290626
                ]
            },
            "properties": {
                "name": "Ilaparken"
            }
        },
        {
            "type": "Feature",
            "geometry": {
                "type": "Point",
                "coordinates": [
                    10.432534,
                    63.4410106
                ]
            }
        },
        {
            "type": "Feature",
            "geometry": {
                "type": "Point",
                "coordinates": [
                    10.4226258,
                    63.435354
                ]
            },
            "properties": {
                "name": "Buranbanen"
            }
        },
        {
            "type": "Feature",
            "geometry": {
                "type": "Point",
                "coordinates": [
                    10.428148,
                    63.4371293
                ]
            },
            "properties": {
                "name": "Lademoparken"
            }
        },
        {
            "type": "Feature",
            "geometry": {
                "type": "Point",
                "coordinates": [
                    10.750437,
                    59.9101217
                ]
            },
            "properties": {
                "name": "Pal\u00e9haven"
            }
        },
        {
            "type": "Feature",
            "geometry": {
                "type": "Point",
                "coordinates": [
                    5.2397783,
                    60.395745
                ]
            }
        },
        {
            "type": "Feature",
            "geometry": {
                "type": "Point",
                "coordinates": [
                    5.2645455,
                    60.3657247
                ]
            }
        },
        {
            "type": "Feature",
            "geometry": {
                "type": "Point",
                "coordinates": [
                    10.3908949,
                    63.4277543
                ]
            },
            "properties": {
                "name": "E.C. Dahls park"
            }
        },
        {
            "type": "Feature",
            "geometry": {
                "type": "Point",
                "coordinates": [
                    10.3832031,
                    63.4510169
                ]
            }
        },
        {
            "type": "Feature",
            "geometry": {
                "type": "Point",
                "coordinates": [
                    10.397885,
                    63.4281162
                ]
            },
            "properties": {
                "name": "Archidiakoni plass"
            }
        },
        {
            "type": "Feature",
            "geometry": {
                "type": "Point",
                "coordinates": [
                    10.3979356,
                    63.4300607
                ]
            },
            "properties": {
                "name": "Tordenskjoldparken"
            }
        },
        {
            "type": "Feature",
            "geometry": {
                "type": "Point",
                "coordinates": [
                    10.4498205,
                    63.4376051
                ]
            }
        },
        {
            "type": "Feature",
            "geometry": {
                "type": "Point",
                "coordinates": [
                    10.4107572,
                    63.4325394
                ]
            }
        },
        {
            "type": "Feature",
            "geometry": {
                "type": "Point",
                "coordinates": [
                    10.3962858,
                    63.4316113
                ]
            },
            "properties": {
                "name": "Stiftsg\u00e5rdsparken"
            }
        },
        {
            "type": "Feature",
            "geometry": {
                "type": "Point",
                "coordinates": [
                    10.3947446,
                    63.4260944
                ]
            },
            "properties": {
                "name": "Ytre Kongsg\u00e5rd"
            }
        },
        {
            "type": "Feature",
            "geometry": {
                "type": "Point",
                "coordinates": [
                    10.4046019,
                    63.4348991
                ]
            },
            "properties": {
                "name": "Lusparken"
            }
        },
        {
            "type": "Feature",
            "geometry": {
                "type": "Point",
                "coordinates": [
                    10.3841993,
                    63.4305936
                ]
            },
            "properties": {
                "name": "Hospitalsparken"
            }
        },
        {
            "type": "Feature",
            "geometry": {
                "type": "Point",
                "coordinates": [
                    8.5744767,
                    58.3292347
                ]
            }
        },
        {
            "type": "Feature",
            "geometry": {
                "type": "Point",
                "coordinates": [
                    10.6506105,
                    59.4322399
                ]
            }
        },
        {
            "type": "Feature",
            "geometry": {
                "type": "Point",
                "coordinates": [
                    10.6647799,
                    59.4208089
                ]
            }
        },
        {
            "type": "Feature",
            "geometry": {
                "type": "Point",
                "coordinates": [
                    10.6697534,
                    59.4243874
                ]
            },
            "properties": {
                "name": "Mell\u00f8sparken"
            }
        },
        {
            "type": "Feature",
            "geometry": {
                "type": "Point",
                "coordinates": [
                    10.6595012,
                    59.4344382
                ]
            },
            "properties": {
                "name": "Kirkeparken"
            }
        },
        {
            "type": "Feature",
            "geometry": {
                "type": "Point",
                "coordinates": [
                    10.3941513,
                    63.426863
                ]
            }
        },
        {
            "type": "Feature",
            "geometry": {
                "type": "Point",
                "coordinates": [
                    10.3866964,
                    63.4114983
                ]
            },
            "properties": {
                "name": "Regnbueparken"
            }
        },
        {
            "type": "Feature",
            "geometry": {
                "type": "Point",
                "coordinates": [
                    10.3880387,
                    63.4117324
                ]
            }
        },
        {
            "type": "Feature",
            "geometry": {
                "type": "Point",
                "coordinates": [
                    10.3536675,
                    63.4326447
                ]
            }
        },
        {
            "type": "Feature",
            "geometry": {
                "type": "Point",
                "coordinates": [
                    18.971982,
                    69.6801929
                ]
            }
        },
        {
            "type": "Feature",
            "geometry": {
                "type": "Point",
                "coordinates": [
                    10.9420044,
                    59.2205373
                ]
            },
            "properties": {
                "name": "Brattliparken"
            }
        },
        {
            "type": "Feature",
            "geometry": {
                "type": "Point",
                "coordinates": [
                    7.7260152,
                    63.1138424
                ]
            }
        },
        {
            "type": "Feature",
            "geometry": {
                "type": "Point",
                "coordinates": [
                    10.5725513,
                    63.434977
                ]
            },
            "properties": {
                "name": "V\u00e6resholmen"
            }
        },
        {
            "type": "Feature",
            "geometry": {
                "type": "Point",
                "coordinates": [
                    10.393242,
                    63.4194204
                ]
            },
            "properties": {
                "name": "Finalebanen"
            }
        },
        {
            "type": "Feature",
            "geometry": {
                "type": "Point",
                "coordinates": [
                    10.3763365,
                    63.4306767
                ]
            },
            "properties": {
                "name": "Skansen"
            }
        },
        {
            "type": "Feature",
            "geometry": {
                "type": "Point",
                "coordinates": [
                    5.1265349,
                    60.3678197
                ]
            }
        },
        {
            "type": "Feature",
            "geometry": {
                "type": "Point",
                "coordinates": [
                    10.3891777,
                    63.4184419
                ]
            },
            "properties": {
                "name": "Sykehusparken"
            }
        },
        {
            "type": "Feature",
            "geometry": {
                "type": "Point",
                "coordinates": [
                    10.396083,
                    63.4102137
                ]
            }
        },
        {
            "type": "Feature",
            "geometry": {
                "type": "Point",
                "coordinates": [
                    5.3367355,
                    60.3424706
                ]
            },
            "properties": {
                "name": "Gamlehaugen"
            }
        },
        {
            "type": "Feature",
            "geometry": {
                "type": "Point",
                "coordinates": [
                    10.4470041,
                    63.4562766
                ]
            }
        },
        {
            "type": "Feature",
            "geometry": {
                "type": "Point",
                "coordinates": [
                    10.7644803,
                    59.942161
                ]
            }
        },
        {
            "type": "Feature",
            "geometry": {
                "type": "Point",
                "coordinates": [
                    14.3965408,
                    67.2785631
                ]
            },
            "properties": {
                "name": "Snorres plass"
            }
        },
        {
            "type": "Feature",
            "geometry": {
                "type": "Point",
                "coordinates": [
                    14.4029769,
                    67.2837674
                ]
            },
            "properties": {
                "name": "Rens\u00e5sparken"
            }
        },
        {
            "type": "Feature",
            "geometry": {
                "type": "Point",
                "coordinates": [
                    10.7327363,
                    59.9122418
                ]
            },
            "properties": {
                "name": "Kronprinsesse M\u00e4rthas plass"
            }
        },
        {
            "type": "Feature",
            "geometry": {
                "type": "Point",
                "coordinates": [
                    10.7375116,
                    59.9051656
                ]
            },
            "properties": {
                "name": "Normandieplassen"
            }
        },
        {
            "type": "Feature",
            "geometry": {
                "type": "Point",
                "coordinates": [
                    10.7318747,
                    59.912293
                ]
            },
            "properties": {
                "name": "Olav Vs plass"
            }
        },
        {
            "type": "Feature",
            "geometry": {
                "type": "Point",
                "coordinates": [
                    10.3635376,
                    63.4302671
                ]
            },
            "properties": {
                "name": "Iladalen park"
            }
        },
        {
            "type": "Feature",
            "geometry": {
                "type": "Point",
                "coordinates": [
                    10.3910364,
                    63.4246747
                ]
            }
        },
        {
            "type": "Feature",
            "geometry": {
                "type": "Point",
                "coordinates": [
                    8.72708,
                    62.9756535
                ]
            }
        },
        {
            "type": "Feature",
            "geometry": {
                "type": "Point",
                "coordinates": [
                    9.6136994,
                    59.208387
                ]
            },
            "properties": {
                "name": "Brekkeparken"
            }
        },
        {
            "type": "Feature",
            "geometry": {
                "type": "Point",
                "coordinates": [
                    9.6175369,
                    59.2096818
                ]
            },
            "properties": {
                "name": "Folkeparken"
            }
        },
        {
            "type": "Feature",
            "geometry": {
                "type": "Point",
                "coordinates": [
                    10.7630111,
                    59.9320333
                ]
            }
        },
        {
            "type": "Feature",
            "geometry": {
                "type": "Point",
                "coordinates": [
                    10.7633168,
                    59.9309563
                ]
            },
            "properties": {
                "name": "Hall\u00e9nparken"
            }
        },
        {
            "type": "Feature",
            "geometry": {
                "type": "Point",
                "coordinates": [
                    9.611376,
                    59.1957367
                ]
            },
            "properties": {
                "name": "Gims\u00f8y plass"
            }
        },
        {
            "type": "Feature",
            "geometry": {
                "type": "Point",
                "coordinates": [
                    9.6104128,
                    59.196688
                ]
            }
        },
        {
            "type": "Feature",
            "geometry": {
                "type": "Point",
                "coordinates": [
                    9.6151106,
                    59.1847494
                ]
            }
        },
        {
            "type": "Feature",
            "geometry": {
                "type": "Point",
                "coordinates": [
                    9.6073586,
                    59.2089666
                ]
            },
            "properties": {
                "name": "Ibsenparken"
            }
        },
        {
            "type": "Feature",
            "geometry": {
                "type": "Point",
                "coordinates": [
                    10.771064,
                    59.9299819
                ]
            }
        },
        {
            "type": "Feature",
            "geometry": {
                "type": "Point",
                "coordinates": [
                    9.607953,
                    59.2097259
                ]
            },
            "properties": {
                "name": "Dizzie Tunes plass"
            }
        },
        {
            "type": "Feature",
            "geometry": {
                "type": "Point",
                "coordinates": [
                    9.6245319,
                    59.2013759
                ]
            },
            "properties": {
                "name": "Kapitelberget"
            }
        },
        {
            "type": "Feature",
            "geometry": {
                "type": "Point",
                "coordinates": [
                    9.6048041,
                    59.2081471
                ]
            }
        },
        {
            "type": "Feature",
            "geometry": {
                "type": "Point",
                "coordinates": [
                    9.6053054,
                    59.2090628
                ]
            }
        },
        {
            "type": "Feature",
            "geometry": {
                "type": "Point",
                "coordinates": [
                    11.0619921,
                    59.9537359
                ]
            }
        },
        {
            "type": "Feature",
            "geometry": {
                "type": "Point",
                "coordinates": [
                    10.7602118,
                    59.9205573
                ]
            },
            "properties": {
                "name": "Schous plass"
            }
        },
        {
            "type": "Feature",
            "geometry": {
                "type": "Point",
                "coordinates": [
                    9.6501294,
                    59.1392499
                ]
            }
        },
        {
            "type": "Feature",
            "geometry": {
                "type": "Point",
                "coordinates": [
                    9.650655,
                    59.1387725
                ]
            }
        },
        {
            "type": "Feature",
            "geometry": {
                "type": "Point",
                "coordinates": [
                    10.7672753,
                    59.9222897
                ]
            }
        },
        {
            "type": "Feature",
            "geometry": {
                "type": "Point",
                "coordinates": [
                    5.3401596,
                    60.3527529
                ]
            }
        },
        {
            "type": "Feature",
            "geometry": {
                "type": "Point",
                "coordinates": [
                    9.6019149,
                    59.1952053
                ]
            }
        },
        {
            "type": "Feature",
            "geometry": {
                "type": "Point",
                "coordinates": [
                    5.2756064,
                    60.2559019
                ]
            },
            "properties": {
                "name": "Arboretet p\u00e5 Milde"
            }
        },
        {
            "type": "Feature",
            "geometry": {
                "type": "Point",
                "coordinates": [
                    9.5901682,
                    59.2136182
                ]
            },
            "properties": {
                "name": "Stevneplassen"
            }
        },
        {
            "type": "Feature",
            "geometry": {
                "type": "Point",
                "coordinates": [
                    5.3352555,
                    60.4620975
                ]
            },
            "properties": {
                "name": "Rollandsparken"
            }
        },
        {
            "type": "Feature",
            "geometry": {
                "type": "Point",
                "coordinates": [
                    5.3392041,
                    60.4721465
                ]
            }
        },
        {
            "type": "Feature",
            "geometry": {
                "type": "Point",
                "coordinates": [
                    5.2716485,
                    59.4150116
                ]
            }
        },
        {
            "type": "Feature",
            "geometry": {
                "type": "Point",
                "coordinates": [
                    10.7748551,
                    59.9375396
                ]
            }
        },
        {
            "type": "Feature",
            "geometry": {
                "type": "Point",
                "coordinates": [
                    10.7766511,
                    59.9369185
                ]
            }
        },
        {
            "type": "Feature",
            "geometry": {
                "type": "Point",
                "coordinates": [
                    10.7732151,
                    59.9381371
                ]
            },
            "properties": {
                "name": "Torshov kirkepark"
            }
        },
        {
            "type": "Feature",
            "geometry": {
                "type": "Point",
                "coordinates": [
                    5.3723102,
                    60.3653498
                ]
            }
        },
        {
            "type": "Feature",
            "geometry": {
                "type": "Point",
                "coordinates": [
                    5.3269687,
                    60.404162
                ]
            },
            "properties": {
                "name": "Meyermarken"
            }
        },
        {
            "type": "Feature",
            "geometry": {
                "type": "Point",
                "coordinates": [
                    9.6022962,
                    59.2119428
                ]
            },
            "properties": {
                "name": "Lieparken"
            }
        },
        {
            "type": "Feature",
            "geometry": {
                "type": "Point",
                "coordinates": [
                    5.7333048,
                    58.8528928
                ]
            },
            "properties": {
                "name": "Kirkeparken"
            }
        },
        {
            "type": "Feature",
            "geometry": {
                "type": "Point",
                "coordinates": [
                    5.7305236,
                    58.8522765
                ]
            },
            "properties": {
                "name": "Jonas \u00d8gl\u00e6nds plass"
            }
        },
        {
            "type": "Feature",
            "geometry": {
                "type": "Point",
                "coordinates": [
                    5.7383964,
                    58.8527312
                ]
            }
        },
        {
            "type": "Feature",
            "geometry": {
                "type": "Point",
                "coordinates": [
                    5.7347348,
                    58.8477297
                ]
            },
            "properties": {
                "name": "Skeianeparken"
            }
        },
        {
            "type": "Feature",
            "geometry": {
                "type": "Point",
                "coordinates": [
                    5.7427681,
                    58.8482174
                ]
            }
        },
        {
            "type": "Feature",
            "geometry": {
                "type": "Point",
                "coordinates": [
                    5.7429389,
                    58.8490842
                ]
            }
        },
        {
            "type": "Feature",
            "geometry": {
                "type": "Point",
                "coordinates": [
                    5.7474568,
                    58.8493801
                ]
            }
        },
        {
            "type": "Feature",
            "geometry": {
                "type": "Point",
                "coordinates": [
                    5.7307195,
                    58.8509488
                ]
            }
        },
        {
            "type": "Feature",
            "geometry": {
                "type": "Point",
                "coordinates": [
                    5.7365798,
                    58.8453354
                ]
            }
        },
        {
            "type": "Feature",
            "geometry": {
                "type": "Point",
                "coordinates": [
                    5.7369643,
                    58.8457283
                ]
            }
        },
        {
            "type": "Feature",
            "geometry": {
                "type": "Point",
                "coordinates": [
                    5.7366344,
                    58.8456702
                ]
            }
        },
        {
            "type": "Feature",
            "geometry": {
                "type": "Point",
                "coordinates": [
                    10.9428824,
                    60.8810839
                ]
            },
            "properties": {
                "name": "Husebyparken"
            }
        },
        {
            "type": "Feature",
            "geometry": {
                "type": "Point",
                "coordinates": [
                    10.9378658,
                    60.8923601
                ]
            }
        },
        {
            "type": "Feature",
            "geometry": {
                "type": "Point",
                "coordinates": [
                    11.2985419,
                    63.746873
                ]
            },
            "properties": {
                "name": "\u00d8vre park"
            }
        },
        {
            "type": "Feature",
            "geometry": {
                "type": "Point",
                "coordinates": [
                    11.3006318,
                    63.7461282
                ]
            },
            "properties": {
                "name": "Nedre park"
            }
        },
        {
            "type": "Feature",
            "geometry": {
                "type": "Point",
                "coordinates": [
                    5.7393995,
                    58.8547666
                ]
            },
            "properties": {
                "name": "Gamle Jernbaneplass"
            }
        },
        {
            "type": "Feature",
            "geometry": {
                "type": "Point",
                "coordinates": [
                    10.7834301,
                    59.882352
                ]
            }
        },
        {
            "type": "Feature",
            "geometry": {
                "type": "Point",
                "coordinates": [
                    10.7676344,
                    59.9237101
                ]
            },
            "properties": {
                "name": "Rodes plass"
            }
        },
        {
            "type": "Feature",
            "geometry": {
                "type": "Point",
                "coordinates": [
                    6.4182334,
                    60.6273705
                ]
            }
        },
        {
            "type": "Feature",
            "geometry": {
                "type": "Point",
                "coordinates": [
                    6.41713,
                    60.6268061
                ]
            },
            "properties": {
                "name": "Prestegardslandet"
            }
        },
        {
            "type": "Feature",
            "geometry": {
                "type": "Point",
                "coordinates": [
                    10.6654152,
                    59.4378982
                ]
            }
        },
        {
            "type": "Feature",
            "geometry": {
                "type": "Point",
                "coordinates": [
                    10.6561152,
                    59.4332463
                ]
            }
        },
        {
            "type": "Feature",
            "geometry": {
                "type": "Point",
                "coordinates": [
                    10.6701154,
                    59.4387481
                ]
            }
        },
        {
            "type": "Feature",
            "geometry": {
                "type": "Point",
                "coordinates": [
                    10.6531892,
                    59.4327209
                ]
            }
        },
        {
            "type": "Feature",
            "geometry": {
                "type": "Point",
                "coordinates": [
                    10.6687165,
                    59.4363015
                ]
            }
        },
        {
            "type": "Feature",
            "geometry": {
                "type": "Point",
                "coordinates": [
                    10.6772946,
                    59.43663
                ]
            },
            "properties": {
                "name": "Nesparken"
            }
        },
        {
            "type": "Feature",
            "geometry": {
                "type": "Point",
                "coordinates": [
                    10.6727745,
                    59.4354021
                ]
            }
        },
        {
            "type": "Feature",
            "geometry": {
                "type": "Point",
                "coordinates": [
                    10.4091264,
                    59.6135089
                ]
            }
        },
        {
            "type": "Feature",
            "geometry": {
                "type": "Point",
                "coordinates": [
                    10.4101765,
                    59.6164677
                ]
            },
            "properties": {
                "name": "Lallaparken"
            }
        },
        {
            "type": "Feature",
            "geometry": {
                "type": "Point",
                "coordinates": [
                    10.4080196,
                    59.6194112
                ]
            }
        },
        {
            "type": "Feature",
            "geometry": {
                "type": "Point",
                "coordinates": [
                    5.6455652,
                    58.6210864
                ]
            }
        },
        {
            "type": "Feature",
            "geometry": {
                "type": "Point",
                "coordinates": [
                    10.7137358,
                    59.9242637
                ]
            },
            "properties": {
                "name": "Amaldus Nielsens plass (Vestkanttorvet)"
            }
        },
        {
            "type": "Feature",
            "geometry": {
                "type": "Point",
                "coordinates": [
                    10.7212571,
                    59.9217606
                ]
            },
            "properties": {
                "name": "Uranienborgparken"
            }
        },
        {
            "type": "Feature",
            "geometry": {
                "type": "Point",
                "coordinates": [
                    9.8235069,
                    63.2744299
                ]
            }
        },
        {
            "type": "Feature",
            "geometry": {
                "type": "Point",
                "coordinates": [
                    9.8140656,
                    63.26607
                ]
            },
            "properties": {
                "name": "Stasjonsparken"
            }
        },
        {
            "type": "Feature",
            "geometry": {
                "type": "Point",
                "coordinates": [
                    11.0421447,
                    59.9582999
                ]
            },
            "properties": {
                "name": "Vollaparken"
            }
        },
        {
            "type": "Feature",
            "geometry": {
                "type": "Point",
                "coordinates": [
                    11.0611081,
                    60.4089025
                ]
            }
        },
        {
            "type": "Feature",
            "geometry": {
                "type": "Point",
                "coordinates": [
                    10.6372626,
                    59.4449035
                ]
            }
        },
        {
            "type": "Feature",
            "geometry": {
                "type": "Point",
                "coordinates": [
                    10.8081703,
                    59.9037604
                ]
            },
            "properties": {
                "name": "H\u00f8yenhallparken"
            }
        },
        {
            "type": "Feature",
            "geometry": {
                "type": "Point",
                "coordinates": [
                    10.4711987,
                    63.4130406
                ]
            }
        },
        {
            "type": "Feature",
            "geometry": {
                "type": "Point",
                "coordinates": [
                    10.715923,
                    59.9145207
                ]
            },
            "properties": {
                "name": "Hydroparken"
            }
        },
        {
            "type": "Feature",
            "geometry": {
                "type": "Point",
                "coordinates": [
                    10.719254,
                    59.9192941
                ]
            },
            "properties": {
                "name": "Riddervolds plass"
            }
        },
        {
            "type": "Feature",
            "geometry": {
                "type": "Point",
                "coordinates": [
                    10.3863478,
                    63.4286771
                ]
            }
        },
        {
            "type": "Feature",
            "geometry": {
                "type": "Point",
                "coordinates": [
                    10.5623464,
                    59.8914644
                ]
            }
        },
        {
            "type": "Feature",
            "geometry": {
                "type": "Point",
                "coordinates": [
                    11.0477272,
                    59.9585013
                ]
            }
        },
        {
            "type": "Feature",
            "geometry": {
                "type": "Point",
                "coordinates": [
                    11.0484019,
                    59.9585106
                ]
            }
        },
        {
            "type": "Feature",
            "geometry": {
                "type": "Point",
                "coordinates": [
                    10.7155335,
                    59.9231147
                ]
            },
            "properties": {
                "name": "Langaardsl\u00f8kken"
            }
        },
        {
            "type": "Feature",
            "geometry": {
                "type": "Point",
                "coordinates": [
                    10.3856552,
                    63.4281251
                ]
            }
        },
        {
            "type": "Feature",
            "geometry": {
                "type": "Point",
                "coordinates": [
                    10.8003537,
                    59.87978
                ]
            }
        },
        {
            "type": "Feature",
            "geometry": {
                "type": "Point",
                "coordinates": [
                    10.7619952,
                    59.9042525
                ]
            },
            "properties": {
                "name": "Middelalderparken"
            }
        },
        {
            "type": "Feature",
            "geometry": {
                "type": "Point",
                "coordinates": [
                    5.7405146,
                    58.9678631
                ]
            },
            "properties": {
                "name": "V\u00e5r Frues plass"
            }
        },
        {
            "type": "Feature",
            "geometry": {
                "type": "Point",
                "coordinates": [
                    5.7220793,
                    58.9716558
                ]
            }
        },
        {
            "type": "Feature",
            "geometry": {
                "type": "Point",
                "coordinates": [
                    5.7201389,
                    58.9713941
                ]
            },
            "properties": {
                "name": "Rudl\u00e5"
            }
        },
        {
            "type": "Feature",
            "geometry": {
                "type": "Point",
                "coordinates": [
                    5.7131858,
                    58.9715081
                ]
            }
        },
        {
            "type": "Feature",
            "geometry": {
                "type": "Point",
                "coordinates": [
                    5.7278417,
                    58.9704781
                ]
            },
            "properties": {
                "name": "Lendeparken"
            }
        },
        {
            "type": "Feature",
            "geometry": {
                "type": "Point",
                "coordinates": [
                    5.7282731,
                    58.9647361
                ]
            }
        },
        {
            "type": "Feature",
            "geometry": {
                "type": "Point",
                "coordinates": [
                    5.7513501,
                    58.9645737
                ]
            }
        },
        {
            "type": "Feature",
            "geometry": {
                "type": "Point",
                "coordinates": [
                    5.7490245,
                    58.963091
                ]
            },
            "properties": {
                "name": "Storhaugmarka"
            }
        },
        {
            "type": "Feature",
            "geometry": {
                "type": "Point",
                "coordinates": [
                    5.731794,
                    58.9690369
                ]
            },
            "properties": {
                "name": "Kjellandshagen"
            }
        },
        {
            "type": "Feature",
            "geometry": {
                "type": "Point",
                "coordinates": [
                    5.7311372,
                    58.9720736
                ]
            },
            "properties": {
                "name": "Valberget"
            }
        },
        {
            "type": "Feature",
            "geometry": {
                "type": "Point",
                "coordinates": [
                    5.7295165,
                    58.9654474
                ]
            }
        },
        {
            "type": "Feature",
            "geometry": {
                "type": "Point",
                "coordinates": [
                    5.7291271,
                    58.9549906
                ]
            }
        },
        {
            "type": "Feature",
            "geometry": {
                "type": "Point",
                "coordinates": [
                    5.7234331,
                    58.968564
                ]
            },
            "properties": {
                "name": "Johan Gj\u00f8steins plass"
            }
        },
        {
            "type": "Feature",
            "geometry": {
                "type": "Point",
                "coordinates": [
                    5.7166818,
                    58.9580146
                ]
            }
        },
        {
            "type": "Feature",
            "geometry": {
                "type": "Point",
                "coordinates": [
                    5.7079066,
                    58.9558309
                ]
            }
        },
        {
            "type": "Feature",
            "geometry": {
                "type": "Point",
                "coordinates": [
                    5.7308185,
                    58.9644043
                ]
            }
        },
        {
            "type": "Feature",
            "geometry": {
                "type": "Point",
                "coordinates": [
                    5.7334969,
                    58.9645843
                ]
            }
        },
        {
            "type": "Feature",
            "geometry": {
                "type": "Point",
                "coordinates": [
                    5.7304186,
                    58.9650857
                ]
            }
        },
        {
            "type": "Feature",
            "geometry": {
                "type": "Point",
                "coordinates": [
                    10.7928922,
                    59.9041668
                ]
            },
            "properties": {
                "name": "Svartdalsparken"
            }
        },
        {
            "type": "Feature",
            "geometry": {
                "type": "Point",
                "coordinates": [
                    5.7323648,
                    58.9480226
                ]
            }
        },
        {
            "type": "Feature",
            "geometry": {
                "type": "Point",
                "coordinates": [
                    5.7352988,
                    58.9481982
                ]
            }
        },
        {
            "type": "Feature",
            "geometry": {
                "type": "Point",
                "coordinates": [
                    5.7475076,
                    58.9451943
                ]
            }
        },
        {
            "type": "Feature",
            "geometry": {
                "type": "Point",
                "coordinates": [
                    5.7293873,
                    58.9687656
                ]
            }
        },
        {
            "type": "Feature",
            "geometry": {
                "type": "Point",
                "coordinates": [
                    5.6984664,
                    58.9845612
                ]
            }
        },
        {
            "type": "Feature",
            "geometry": {
                "type": "Point",
                "coordinates": [
                    5.7543393,
                    58.9618849
                ]
            }
        },
        {
            "type": "Feature",
            "geometry": {
                "type": "Point",
                "coordinates": [
                    5.730952,
                    58.9617042
                ]
            },
            "properties": {
                "name": "Rektor Steens plass"
            }
        },
        {
            "type": "Feature",
            "geometry": {
                "type": "Point",
                "coordinates": [
                    10.4827269,
                    63.4382742
                ]
            }
        },
        {
            "type": "Feature",
            "geometry": {
                "type": "Point",
                "coordinates": [
                    5.7233818,
                    59.0073198
                ]
            }
        },
        {
            "type": "Feature",
            "geometry": {
                "type": "Point",
                "coordinates": [
                    5.7245969,
                    59.0068745
                ]
            }
        },
        {
            "type": "Feature",
            "geometry": {
                "type": "Point",
                "coordinates": [
                    5.7175687,
                    59.0047292
                ]
            }
        },
        {
            "type": "Feature",
            "geometry": {
                "type": "Point",
                "coordinates": [
                    5.7117885,
                    59.0007362
                ]
            },
            "properties": {
                "name": "Trollskogen"
            }
        },
        {
            "type": "Feature",
            "geometry": {
                "type": "Point",
                "coordinates": [
                    5.7491522,
                    58.9690348
                ]
            }
        },
        {
            "type": "Feature",
            "geometry": {
                "type": "Point",
                "coordinates": [
                    5.7191782,
                    58.9770668
                ]
            }
        },
        {
            "type": "Feature",
            "geometry": {
                "type": "Point",
                "coordinates": [
                    5.7087554,
                    58.9719626
                ]
            },
            "properties": {
                "name": "Gramstadhaugen"
            }
        },
        {
            "type": "Feature",
            "geometry": {
                "type": "Point",
                "coordinates": [
                    5.7514755,
                    58.9589497
                ]
            }
        },
        {
            "type": "Feature",
            "geometry": {
                "type": "Point",
                "coordinates": [
                    5.7514405,
                    58.9572194
                ]
            }
        },
        {
            "type": "Feature",
            "geometry": {
                "type": "Point",
                "coordinates": [
                    5.7567167,
                    58.9543025
                ]
            }
        },
        {
            "type": "Feature",
            "geometry": {
                "type": "Point",
                "coordinates": [
                    5.7577934,
                    58.954686
                ]
            }
        },
        {
            "type": "Feature",
            "geometry": {
                "type": "Point",
                "coordinates": [
                    10.7456993,
                    59.923485
                ]
            }
        },
        {
            "type": "Feature",
            "geometry": {
                "type": "Point",
                "coordinates": [
                    5.7212516,
                    58.9607936
                ]
            }
        },
        {
            "type": "Feature",
            "geometry": {
                "type": "Point",
                "coordinates": [
                    5.7078129,
                    58.9746223
                ]
            }
        },
        {
            "type": "Feature",
            "geometry": {
                "type": "Point",
                "coordinates": [
                    5.7220989,
                    58.9722933
                ]
            },
            "properties": {
                "name": "Hertervigs plass"
            }
        },
        {
            "type": "Feature",
            "geometry": {
                "type": "Point",
                "coordinates": [
                    5.7235293,
                    58.9490561
                ]
            }
        },
        {
            "type": "Feature",
            "geometry": {
                "type": "Point",
                "coordinates": [
                    5.7180829,
                    58.9498781
                ]
            }
        },
        {
            "type": "Feature",
            "geometry": {
                "type": "Point",
                "coordinates": [
                    5.7151492,
                    58.9448927
                ]
            }
        },
        {
            "type": "Feature",
            "geometry": {
                "type": "Point",
                "coordinates": [
                    5.7368401,
                    58.9872465
                ]
            }
        },
        {
            "type": "Feature",
            "geometry": {
                "type": "Point",
                "coordinates": [
                    5.7090842,
                    58.9595068
                ]
            }
        },
        {
            "type": "Feature",
            "geometry": {
                "type": "Point",
                "coordinates": [
                    5.7417971,
                    58.9479482
                ]
            }
        },
        {
            "type": "Feature",
            "geometry": {
                "type": "Point",
                "coordinates": [
                    9.6060469,
                    59.2092418
                ]
            },
            "properties": {
                "name": "Minneparken"
            }
        },
        {
            "type": "Feature",
            "geometry": {
                "type": "Point",
                "coordinates": [
                    10.4360805,
                    63.4502729
                ]
            }
        },
        {
            "type": "Feature",
            "geometry": {
                "type": "Point",
                "coordinates": [
                    10.4512913,
                    63.4563723
                ]
            }
        },
        {
            "type": "Feature",
            "geometry": {
                "type": "Point",
                "coordinates": [
                    5.7212555,
                    58.9667405
                ]
            },
            "properties": {
                "name": "Ledaalsparken"
            }
        },
        {
            "type": "Feature",
            "geometry": {
                "type": "Point",
                "coordinates": [
                    10.7428012,
                    59.9073661
                ]
            },
            "properties": {
                "name": "Grev Wedels plass"
            }
        },
        {
            "type": "Feature",
            "geometry": {
                "type": "Point",
                "coordinates": [
                    5.7137737,
                    58.9225117
                ]
            }
        },
        {
            "type": "Feature",
            "geometry": {
                "type": "Point",
                "coordinates": [
                    9.6456015,
                    59.666848
                ]
            }
        },
        {
            "type": "Feature",
            "geometry": {
                "type": "Point",
                "coordinates": [
                    5.7174053,
                    58.9535134
                ]
            }
        },
        {
            "type": "Feature",
            "geometry": {
                "type": "Point",
                "coordinates": [
                    10.3958551,
                    59.7488207
                ]
            }
        },
        {
            "type": "Feature",
            "geometry": {
                "type": "Point",
                "coordinates": [
                    5.3639599,
                    60.3646107
                ]
            },
            "properties": {
                "name": "Langhaugen"
            }
        },
        {
            "type": "Feature",
            "geometry": {
                "type": "Point",
                "coordinates": [
                    9.6103474,
                    59.2058262
                ]
            },
            "properties": {
                "name": "Bryggeparken"
            }
        },
        {
            "type": "Feature",
            "geometry": {
                "type": "Point",
                "coordinates": [
                    5.3604708,
                    60.376035
                ]
            }
        },
        {
            "type": "Feature",
            "geometry": {
                "type": "Point",
                "coordinates": [
                    5.6954243,
                    58.9527733
                ]
            }
        },
        {
            "type": "Feature",
            "geometry": {
                "type": "Point",
                "coordinates": [
                    7.973529,
                    58.1559657
                ]
            },
            "properties": {
                "name": "Ravnedalen"
            }
        },
        {
            "type": "Feature",
            "geometry": {
                "type": "Point",
                "coordinates": [
                    18.9482391,
                    69.6644565
                ]
            },
            "properties": {
                "name": "Charlottenlund friluftsomr\u00e5de"
            }
        },
        {
            "type": "Feature",
            "geometry": {
                "type": "Point",
                "coordinates": [
                    5.7040137,
                    58.9474827
                ]
            }
        },
        {
            "type": "Feature",
            "geometry": {
                "type": "Point",
                "coordinates": [
                    5.7056631,
                    58.9474828
                ]
            }
        },
        {
            "type": "Feature",
            "geometry": {
                "type": "Point",
                "coordinates": [
                    10.7652968,
                    59.9161636
                ]
            },
            "properties": {
                "name": "Rudolf Nilsens plass"
            }
        },
        {
            "type": "Feature",
            "geometry": {
                "type": "Point",
                "coordinates": [
                    10.402868,
                    63.4185681
                ]
            }
        },
        {
            "type": "Feature",
            "geometry": {
                "type": "Point",
                "coordinates": [
                    30.0491484,
                    69.7262214
                ]
            }
        },
        {
            "type": "Feature",
            "geometry": {
                "type": "Point",
                "coordinates": [
                    10.4673724,
                    61.1119832
                ]
            },
            "properties": {
                "name": "S\u00f8ndre park"
            }
        },
        {
            "type": "Feature",
            "geometry": {
                "type": "Point",
                "coordinates": [
                    10.3969563,
                    63.4213626
                ]
            },
            "properties": {
                "name": "Elgeseterparken"
            }
        },
        {
            "type": "Feature",
            "geometry": {
                "type": "Point",
                "coordinates": [
                    13.0883694,
                    67.9348521
                ]
            }
        },
        {
            "type": "Feature",
            "geometry": {
                "type": "Point",
                "coordinates": [
                    11.0709636,
                    60.7934103
                ]
            },
            "properties": {
                "name": "Strandgateparken"
            }
        },
        {
            "type": "Feature",
            "geometry": {
                "type": "Point",
                "coordinates": [
                    11.0761594,
                    60.7919318
                ]
            },
            "properties": {
                "name": "Jernbaneparken"
            }
        },
        {
            "type": "Feature",
            "geometry": {
                "type": "Point",
                "coordinates": [
                    10.3861965,
                    63.4295249
                ]
            },
            "properties": {
                "name": "Museumsparken"
            }
        },
        {
            "type": "Feature",
            "geometry": {
                "type": "Point",
                "coordinates": [
                    11.0601137,
                    60.7945534
                ]
            },
            "properties": {
                "name": "Bryggeriparken"
            }
        },
        {
            "type": "Feature",
            "geometry": {
                "type": "Point",
                "coordinates": [
                    11.0636658,
                    60.7937719
                ]
            }
        },
        {
            "type": "Feature",
            "geometry": {
                "type": "Point",
                "coordinates": [
                    11.07191,
                    60.7992026
                ]
            }
        },
        {
            "type": "Feature",
            "geometry": {
                "type": "Point",
                "coordinates": [
                    5.2781371,
                    59.4062282
                ]
            },
            "properties": {
                "name": "Rabinowitz parken"
            }
        },
        {
            "type": "Feature",
            "geometry": {
                "type": "Point",
                "coordinates": [
                    10.9301493,
                    63.472035
                ]
            }
        },
        {
            "type": "Feature",
            "geometry": {
                "type": "Point",
                "coordinates": [
                    10.9307346,
                    63.4718035
                ]
            }
        },
        {
            "type": "Feature",
            "geometry": {
                "type": "Point",
                "coordinates": [
                    10.9305719,
                    63.4727527
                ]
            }
        },
        {
            "type": "Feature",
            "geometry": {
                "type": "Point",
                "coordinates": [
                    10.9329975,
                    63.4725493
                ]
            }
        },
        {
            "type": "Feature",
            "geometry": {
                "type": "Point",
                "coordinates": [
                    10.9307673,
                    63.4720315
                ]
            }
        },
        {
            "type": "Feature",
            "geometry": {
                "type": "Point",
                "coordinates": [
                    10.9298811,
                    63.4714139
                ]
            }
        },
        {
            "type": "Feature",
            "geometry": {
                "type": "Point",
                "coordinates": [
                    11.0713406,
                    60.7948032
                ]
            },
            "properties": {
                "name": "Triangelparken"
            }
        },
        {
            "type": "Feature",
            "geometry": {
                "type": "Point",
                "coordinates": [
                    11.0687153,
                    60.7971371
                ]
            },
            "properties": {
                "name": "Biskop Roses lund"
            }
        },
        {
            "type": "Feature",
            "geometry": {
                "type": "Point",
                "coordinates": [
                    11.0840588,
                    60.7947168
                ]
            },
            "properties": {
                "name": "Hamar park"
            }
        },
        {
            "type": "Feature",
            "geometry": {
                "type": "Point",
                "coordinates": [
                    11.079789,
                    60.7926055
                ]
            },
            "properties": {
                "name": "Fagervikparken"
            }
        },
        {
            "type": "Feature",
            "geometry": {
                "type": "Point",
                "coordinates": [
                    10.9461024,
                    59.1831211
                ]
            }
        },
        {
            "type": "Feature",
            "geometry": {
                "type": "Point",
                "coordinates": [
                    5.7534448,
                    58.9300905
                ]
            }
        },
        {
            "type": "Feature",
            "geometry": {
                "type": "Point",
                "coordinates": [
                    5.7014536,
                    58.9484047
                ]
            }
        },
        {
            "type": "Feature",
            "geometry": {
                "type": "Point",
                "coordinates": [
                    5.6894978,
                    58.9494931
                ]
            }
        },
        {
            "type": "Feature",
            "geometry": {
                "type": "Point",
                "coordinates": [
                    10.9413431,
                    59.2103218
                ]
            },
            "properties": {
                "name": "Lykkebergparken"
            }
        },
        {
            "type": "Feature",
            "geometry": {
                "type": "Point",
                "coordinates": [
                    10.9426081,
                    59.2086051
                ]
            },
            "properties": {
                "name": "Kirkeparken"
            }
        },
        {
            "type": "Feature",
            "geometry": {
                "type": "Point",
                "coordinates": [
                    5.275119,
                    59.4094218
                ]
            },
            "properties": {
                "name": "R\u00e5dhusparken"
            }
        },
        {
            "type": "Feature",
            "geometry": {
                "type": "Point",
                "coordinates": [
                    5.685029,
                    58.9458585
                ]
            }
        },
        {
            "type": "Feature",
            "geometry": {
                "type": "Point",
                "coordinates": [
                    10.9612673,
                    59.2007605
                ]
            }
        },
        {
            "type": "Feature",
            "geometry": {
                "type": "Point",
                "coordinates": [
                    10.9314247,
                    63.4716258
                ]
            }
        },
        {
            "type": "Feature",
            "geometry": {
                "type": "Point",
                "coordinates": [
                    10.4100389,
                    59.2707366
                ]
            },
            "properties": {
                "name": "Stoltenbergsparken"
            }
        },
        {
            "type": "Feature",
            "geometry": {
                "type": "Point",
                "coordinates": [
                    10.4155862,
                    59.2643046
                ]
            },
            "properties": {
                "name": "Gunnarsb\u00f8parken"
            }
        },
        {
            "type": "Feature",
            "geometry": {
                "type": "Point",
                "coordinates": [
                    10.407011,
                    59.2645143
                ]
            },
            "properties": {
                "name": "Lindahlplan"
            }
        },
        {
            "type": "Feature",
            "geometry": {
                "type": "Point",
                "coordinates": [
                    10.4122813,
                    59.267594
                ]
            },
            "properties": {
                "name": "Haugar"
            }
        },
        {
            "type": "Feature",
            "geometry": {
                "type": "Point",
                "coordinates": [
                    5.7363317,
                    58.8545174
                ]
            }
        },
        {
            "type": "Feature",
            "geometry": {
                "type": "Point",
                "coordinates": [
                    5.7442989,
                    58.8628817
                ]
            },
            "properties": {
                "name": "Altonaparken"
            }
        },
        {
            "type": "Feature",
            "geometry": {
                "type": "Point",
                "coordinates": [
                    10.9496926,
                    59.2084881
                ]
            },
            "properties": {
                "name": "Jernbaneparken"
            }
        },
        {
            "type": "Feature",
            "geometry": {
                "type": "Point",
                "coordinates": [
                    10.9499696,
                    59.2062598
                ]
            },
            "properties": {
                "name": "Kunstparken"
            }
        },
        {
            "type": "Feature",
            "geometry": {
                "type": "Point",
                "coordinates": [
                    18.9770858,
                    69.6820239
                ]
            }
        },
        {
            "type": "Feature",
            "geometry": {
                "type": "Point",
                "coordinates": [
                    18.9770928,
                    69.6827344
                ]
            }
        },
        {
            "type": "Feature",
            "geometry": {
                "type": "Point",
                "coordinates": [
                    10.941925,
                    59.2062499
                ]
            },
            "properties": {
                "name": "Bibliotekparken"
            }
        },
        {
            "type": "Feature",
            "geometry": {
                "type": "Point",
                "coordinates": [
                    5.6942367,
                    58.9520391
                ]
            }
        },
        {
            "type": "Feature",
            "geometry": {
                "type": "Point",
                "coordinates": [
                    5.6886541,
                    58.9520715
                ]
            }
        },
        {
            "type": "Feature",
            "geometry": {
                "type": "Point",
                "coordinates": [
                    10.2306539,
                    63.2690308
                ]
            }
        },
        {
            "type": "Feature",
            "geometry": {
                "type": "Point",
                "coordinates": [
                    10.2306625,
                    63.2689987
                ]
            }
        },
        {
            "type": "Feature",
            "geometry": {
                "type": "Point",
                "coordinates": [
                    18.9602315,
                    69.6526649
                ]
            }
        },
        {
            "type": "Feature",
            "geometry": {
                "type": "Point",
                "coordinates": [
                    18.965004,
                    69.6544728
                ]
            },
            "properties": {
                "name": "Nansenplassen"
            }
        },
        {
            "type": "Feature",
            "geometry": {
                "type": "Point",
                "coordinates": [
                    10.260205,
                    59.7164093
                ]
            },
            "properties": {
                "name": "Nordbylunden"
            }
        },
        {
            "type": "Feature",
            "geometry": {
                "type": "Point",
                "coordinates": [
                    5.4468661,
                    59.4220576
                ]
            }
        },
        {
            "type": "Feature",
            "geometry": {
                "type": "Point",
                "coordinates": [
                    5.4481105,
                    59.4223865
                ]
            }
        },
        {
            "type": "Feature",
            "geometry": {
                "type": "Point",
                "coordinates": [
                    10.1965488,
                    59.7457658
                ]
            },
            "properties": {
                "name": "Drammen park"
            }
        },
        {
            "type": "Feature",
            "geometry": {
                "type": "Point",
                "coordinates": [
                    10.2155553,
                    59.7431481
                ]
            }
        },
        {
            "type": "Feature",
            "geometry": {
                "type": "Point",
                "coordinates": [
                    5.7375253,
                    58.9535336
                ]
            }
        },
        {
            "type": "Feature",
            "geometry": {
                "type": "Point",
                "coordinates": [
                    9.2566333,
                    59.5579466
                ]
            }
        },
        {
            "type": "Feature",
            "geometry": {
                "type": "Point",
                "coordinates": [
                    5.264295,
                    59.4174913
                ]
            },
            "properties": {
                "name": "Byparken"
            }
        },
        {
            "type": "Feature",
            "geometry": {
                "type": "Point",
                "coordinates": [
                    5.2724367,
                    59.4152727
                ]
            }
        },
        {
            "type": "Feature",
            "geometry": {
                "type": "Point",
                "coordinates": [
                    5.7337157,
                    58.9689825
                ]
            }
        },
        {
            "type": "Feature",
            "geometry": {
                "type": "Point",
                "coordinates": [
                    5.7279697,
                    58.9485753
                ]
            }
        },
        {
            "type": "Feature",
            "geometry": {
                "type": "Point",
                "coordinates": [
                    5.7343877,
                    58.9712978
                ]
            }
        },
        {
            "type": "Feature",
            "geometry": {
                "type": "Point",
                "coordinates": [
                    5.7381164,
                    58.9664224
                ]
            }
        },
        {
            "type": "Feature",
            "geometry": {
                "type": "Point",
                "coordinates": [
                    10.4535319,
                    63.446779
                ]
            },
            "properties": {
                "name": "Parken"
            }
        },
        {
            "type": "Feature",
            "geometry": {
                "type": "Point",
                "coordinates": [
                    5.4658932,
                    59.4296097
                ]
            },
            "properties": {
                "name": "Dukjen"
            }
        },
        {
            "type": "Feature",
            "geometry": {
                "type": "Point",
                "coordinates": [
                    10.554139,
                    59.8899692
                ]
            }
        },
        {
            "type": "Feature",
            "geometry": {
                "type": "Point",
                "coordinates": [
                    6.6957056,
                    58.0986485
                ]
            },
            "properties": {
                "name": "Selvaagparken"
            }
        },