{
    "type": "FeatureCollection",
    "features": [
        {
            "type": "Feature",
            "geometry": {
                "type": "Point",
                "coordinates": [
                    13.3356199,
                    47.5467288
                ]
            },
            "properties": {
                "name": "Kneipp-Anlage"
            }
        },
        {
            "type": "Feature",
            "geometry": {
                "type": "Point",
                "coordinates": [
                    13.4125438,
                    47.7500939
                ]
            },
            "properties": {
                "name": "Literaten Park"
            }
        },
        {
            "type": "Feature",
            "geometry": {
                "type": "Point",
                "coordinates": [
                    16.2287562,
                    47.3351044
                ]
            },
            "properties": {
                "name": "Kurpark"
            }
        },
        {
            "type": "Feature",
            "geometry": {
                "type": "Point",
                "coordinates": [
                    14.8835563,
                    47.2173681
                ]
            },
            "properties": {
                "name": "Wipfelwanderweg Rauchau"
            }
        },
        {
            "type": "Feature",
            "geometry": {
                "type": "Point",
                "coordinates": [
                    16.3950905,
                    48.1966438
                ]
            },
            "properties": {
                "name": "Alma Mahler-Werfel-Park"
            }
        },
        {
            "type": "Feature",
            "geometry": {
                "type": "Point",
                "coordinates": [
                    15.4752113,
                    47.0612166
                ]
            },
            "properties": {
                "name": "Eustacchiopark"
            }
        },
        {
            "type": "Feature",
            "geometry": {
                "type": "Point",
                "coordinates": [
                    10.5624825,
                    47.1439304
                ]
            },
            "properties": {
                "name": "Nisslpark"
            }
        },
        {
            "type": "Feature",
            "geometry": {
                "type": "Point",
                "coordinates": [
                    13.481553,
                    48.0231251
                ]
            }
        },
        {
            "type": "Feature",
            "geometry": {
                "type": "Point",
                "coordinates": [
                    13.2387844,
                    47.581461
                ]
            },
            "properties": {
                "name": "Liegewiese"
            }
        },
        {
            "type": "Feature",
            "geometry": {
                "type": "Point",
                "coordinates": [
                    14.8085838,
                    48.2688318
                ]
            },
            "properties": {
                "name": "Kurpark"
            }
        },
        {
            "type": "Feature",
            "geometry": {
                "type": "Point",
                "coordinates": [
                    15.1968423,
                    47.4106964
                ]
            },
            "properties": {
                "name": "Europaplatzerl"
            }
        },
        {
            "type": "Feature",
            "geometry": {
                "type": "Point",
                "coordinates": [
                    12.1781138,
                    47.579448
                ]
            },
            "properties": {
                "name": "Motorikpark Kufstein"
            }
        },
        {
            "type": "Feature",
            "geometry": {
                "type": "Point",
                "coordinates": [
                    16.1648004,
                    48.4279941
                ]
            }
        },
        {
            "type": "Feature",
            "geometry": {
                "type": "Point",
                "coordinates": [
                    14.9584006,
                    48.4925764
                ]
            },
            "properties": {
                "name": "Busserlpark"
            }
        },
        {
            "type": "Feature",
            "geometry": {
                "type": "Point",
                "coordinates": [
                    12.5089243,
                    47.3661619
                ]
            },
            "properties": {
                "name": "Glemmtaler Baumzipfelweg"
            }
        },
        {
            "type": "Feature",
            "geometry": {
                "type": "Point",
                "coordinates": [
                    11.3844793,
                    47.2730724
                ]
            }
        },
        {
            "type": "Feature",
            "geometry": {
                "type": "Point",
                "coordinates": [
                    13.0584649,
                    47.730428
                ]
            },
            "properties": {
                "name": "Park mit Sportger\u00e4ten"
            }
        },
        {
            "type": "Feature",
            "geometry": {
                "type": "Point",
                "coordinates": [
                    13.6953967,
                    47.3584469
                ]
            },
            "properties": {
                "name": "Bruno's Bogenparcour"
            }
        },
        {
            "type": "Feature",
            "geometry": {
                "type": "Point",
                "coordinates": [
                    13.6472898,
                    47.5552731
                ]
            },
            "properties": {
                "name": "Isidor-Engl-Platz"
            }
        },
        {
            "type": "Feature",
            "geometry": {
                "type": "Point",
                "coordinates": [
                    13.3561888,
                    48.1731685
                ]
            },
            "properties": {
                "name": "Baum mit Bank und Tisch"
            }
        },
        {
            "type": "Feature",
            "geometry": {
                "type": "Point",
                "coordinates": [
                    13.0406501,
                    47.7943124
                ]
            },
            "properties": {
                "name": "Private Kuppelwieserplatzl Skulpturen Park"
            }
        },
        {
            "type": "Feature",
            "geometry": {
                "type": "Point",
                "coordinates": [
                    13.0498174,
                    47.8267218
                ]
            }
        },
        {
            "type": "Feature",
            "geometry": {
                "type": "Point",
                "coordinates": [
                    13.079529,
                    47.7805082
                ]
            }
        },
        {
            "type": "Feature",
            "geometry": {
                "type": "Point",
                "coordinates": [
                    15.4829156,
                    47.3734826
                ]
            },
            "properties": {
                "name": "Hochreiter"
            }
        },
        {
            "type": "Feature",
            "geometry": {
                "type": "Point",
                "coordinates": [
                    13.1567422,
                    47.627181
                ]
            },
            "properties": {
                "name": "Baum"
            }
        },
        {
            "type": "Feature",
            "geometry": {
                "type": "Point",
                "coordinates": [
                    12.4003141,
                    47.4392751
                ]
            },
            "properties": {
                "name": "Dusky Park"
            }
        },
        {
            "type": "Feature",
            "geometry": {
                "type": "Point",
                "coordinates": [
                    16.0565986,
                    46.9002275
                ]
            },
            "properties": {
                "name": "AbenteuerWelten"
            }
        },
        {
            "type": "Feature",
            "geometry": {
                "type": "Point",
                "coordinates": [
                    15.2272561,
                    48.0929364
                ]
            },
            "properties": {
                "name": "LamaWanderland"
            }
        },
        {
            "type": "Feature",
            "geometry": {
                "type": "Point",
                "coordinates": [
                    13.1598471,
                    47.3316726
                ]
            },
            "properties": {
                "name": "Park"
            }
        },
        {
            "type": "Feature",
            "geometry": {
                "type": "Point",
                "coordinates": [
                    15.1165095,
                    48.6654084
                ]
            },
            "properties": {
                "name": "Begr\u00fc\u00dfungssteine"
            }
        },
        {
            "type": "Feature",
            "geometry": {
                "type": "Point",
                "coordinates": [
                    15.1159803,
                    48.6705727
                ]
            },
            "properties": {
                "name": "Begr\u00fc\u00dfungssteine"
            }
        },
        {
            "type": "Feature",
            "geometry": {
                "type": "Point",
                "coordinates": [
                    15.5354473,
                    46.787026
                ]
            },
            "properties": {
                "name": "Sportplatz Forstgarten"
            }
        },
        {
            "type": "Feature",
            "geometry": {
                "type": "Point",
                "coordinates": [
                    15.4868923,
                    47.1862602
                ]
            },
            "properties": {
                "name": "Kr\u00e4utergarten \"Pflanze Mensch\""
            }
        },
        {
            "type": "Feature",
            "geometry": {
                "type": "Point",
                "coordinates": [
                    15.4890023,
                    47.1825283
                ]
            }
        },
        {
            "type": "Feature",
            "geometry": {
                "type": "Point",
                "coordinates": [
                    14.6189419,
                    46.5659077
                ]
            },
            "properties": {
                "name": "Strandbad G\u00f6sselsdorfer See"
            }
        },
        {
            "type": "Feature",
            "geometry": {
                "type": "Point",
                "coordinates": [
                    15.5299736,
                    48.3627535
                ]
            },
            "properties": {
                "name": "Dorfstadel Oberbergern Kinderspielplatz"
            }
        },
        {
            "type": "Feature",
            "geometry": {
                "type": "Point",
                "coordinates": [
                    14.5439073,
                    48.4712956
                ]
            }
        },
        {
            "type": "Feature",
            "geometry": {
                "type": "Point",
                "coordinates": [
                    14.5435563,
                    48.4711658
                ]
            }
        },
        {
            "type": "Feature",
            "geometry": {
                "type": "Point",
                "coordinates": [
                    10.7429005,
                    47.2408405
                ]
            }
        },
        {
            "type": "Feature",
            "geometry": {
                "type": "Point",
                "coordinates": [
                    15.2544933,
                    46.9191462
                ]
            }
        },
        {
            "type": "Feature",
            "geometry": {
                "type": "Point",
                "coordinates": [
                    15.4294809,
                    47.0773708
                ]
            },
            "properties": {
                "name": "Park"
            }
        },
        {
            "type": "Feature",
            "geometry": {
                "type": "Point",
                "coordinates": [
                    15.4301932,
                    47.0767279
                ]
            }
        },
        {
            "type": "Feature",
            "geometry": {
                "type": "Point",
                "coordinates": [
                    15.390792,
                    47.0730114
                ]
            }
        },
        {
            "type": "Feature",
            "geometry": {
                "type": "Point",
                "coordinates": [
                    13.0436761,
                    47.3147947
                ]
            }
        },
        {
            "type": "Feature",
            "geometry": {
                "type": "Point",
                "coordinates": [
                    14.3039177,
                    46.6224041
                ]
            }
        },
        {
            "type": "Feature",
            "geometry": {
                "type": "Point",
                "coordinates": [
                    14.3038748,
                    46.6222807
                ]
            }
        },
        {
            "type": "Feature",
            "geometry": {
                "type": "Point",
                "coordinates": [
                    14.3709417,
                    48.2843062
                ]
            },
            "properties": {
                "name": "Stadtgarten"
            }
        },
        {
            "type": "Feature",
            "geometry": {
                "type": "Point",
                "coordinates": [
                    9.7667635,
                    47.1964652
                ]
            },
            "properties": {
                "name": "Platz unter den Linden"
            }
        },
        {
            "type": "Feature",
            "geometry": {
                "type": "Point",
                "coordinates": [
                    16.2041312,
                    48.1904571
                ]
            },
            "properties": {
                "name": "asdf"
            }
        },
        {
            "type": "Feature",
            "geometry": {
                "type": "Point",
                "coordinates": [
                    15.4362727,
                    47.0619044
                ]
            },
            "properties": {
                "name": "Augarten"
            }
        },
        {
            "type": "Feature",
            "geometry": {
                "type": "Point",
                "coordinates": [
                    15.4532803,
                    47.0665538
                ]
            },
            "properties": {
                "name": "Felix-Dahn-Platz"
            }
        },
        {
            "type": "Feature",
            "geometry": {
                "type": "Point",
                "coordinates": [
                    15.4588876,
                    47.0765848
                ]
            },
            "properties": {
                "name": "Tegetthoffplatz"
            }
        },
        {
            "type": "Feature",
            "geometry": {
                "type": "Point",
                "coordinates": [
                    13.6546702,
                    48.0112106
                ]
            },
            "properties": {
                "name": "Stadtpark"
            }
        },
        {
            "type": "Feature",
            "geometry": {
                "type": "Point",
                "coordinates": [
                    13.6510536,
                    48.0107989
                ]
            }
        },
        {
            "type": "Feature",
            "geometry": {
                "type": "Point",
                "coordinates": [
                    13.6514279,
                    48.0099621
                ]
            },
            "properties": {
                "name": "Stadtpark"
            }
        },
        {
            "type": "Feature",
            "geometry": {
                "type": "Point",
                "coordinates": [
                    12.0877481,
                    47.5130266
                ]
            }
        },
        {
            "type": "Feature",
            "geometry": {
                "type": "Point",
                "coordinates": [
                    15.4655173,
                    47.053991
                ]
            },
            "properties": {
                "name": "ORF Park"
            }
        },
        {
            "type": "Feature",
            "geometry": {
                "type": "Point",
                "coordinates": [
                    15.4593506,
                    47.0687339
                ]
            },
            "properties": {
                "name": "Schillerplatz"
            }
        },
        {
            "type": "Feature",
            "geometry": {
                "type": "Point",
                "coordinates": [
                    14.2970204,
                    48.2868174
                ]
            },
            "properties": {
                "name": "Andreas-Hofer-Platz"
            }
        },
        {
            "type": "Feature",
            "geometry": {
                "type": "Point",
                "coordinates": [
                    16.2323394,
                    47.9505996
                ]
            },
            "properties": {
                "name": "Schlosspark"
            }
        },
        {
            "type": "Feature",
            "geometry": {
                "type": "Point",
                "coordinates": [
                    14.2916128,
                    48.2948351
                ]
            },
            "properties": {
                "name": "Volksgarten"
            }
        },
        {
            "type": "Feature",
            "geometry": {
                "type": "Point",
                "coordinates": [
                    16.3437268,
                    48.187985
                ]
            },
            "properties": {
                "name": "Bruno-Kreisky-Park"
            }
        },
        {
            "type": "Feature",
            "geometry": {
                "type": "Point",
                "coordinates": [
                    16.36771,
                    48.1867038
                ]
            },
            "properties": {
                "name": "Alois-Drasche-Park"
            }
        },
        {
            "type": "Feature",
            "geometry": {
                "type": "Point",
                "coordinates": [
                    16.3655941,
                    48.1805244
                ]
            },
            "properties": {
                "name": "Waldm\u00fcllerpark"
            }
        },
        {
            "type": "Feature",
            "geometry": {
                "type": "Point",
                "coordinates": [
                    11.3971978,
                    47.2714763
                ]
            },
            "properties": {
                "name": "Hofgarten"
            }
        },
        {
            "type": "Feature",
            "geometry": {
                "type": "Point",
                "coordinates": [
                    16.3766029,
                    48.2245021
                ]
            },
            "properties": {
                "name": "Augarten"
            }
        },
        {
            "type": "Feature",
            "geometry": {
                "type": "Point",
                "coordinates": [
                    16.2941505,
                    48.1988042
                ]
            }
        },
        {
            "type": "Feature",
            "geometry": {
                "type": "Point",
                "coordinates": [
                    16.3604741,
                    48.2148919
                ]
            },
            "properties": {
                "name": "Sigmund-Freud-Park"
            }
        },
        {
            "type": "Feature",
            "geometry": {
                "type": "Point",
                "coordinates": [
                    16.3617274,
                    48.2080497
                ]
            },
            "properties": {
                "name": "Volksgarten"
            }
        },
        {
            "type": "Feature",
            "geometry": {
                "type": "Point",
                "coordinates": [
                    16.3657994,
                    48.2043857
                ]
            },
            "properties": {
                "name": "Burggarten"
            }
        },
        {
            "type": "Feature",
            "geometry": {
                "type": "Point",
                "coordinates": [
                    15.3936573,
                    47.0737432
                ]
            },
            "properties": {
                "name": "Schlo\u00df Eggenberg"
            }
        },
        {
            "type": "Feature",
            "geometry": {
                "type": "Point",
                "coordinates": [
                    16.359104,
                    48.2096466
                ]
            },
            "properties": {
                "name": "Rathauspark"
            }
        },
        {
            "type": "Feature",
            "geometry": {
                "type": "Point",
                "coordinates": [
                    16.3583342,
                    48.2069327
                ]
            },
            "properties": {
                "name": "Grete-Rehor-Park"
            }
        },
        {
            "type": "Feature",
            "geometry": {
                "type": "Point",
                "coordinates": [
                    16.3862169,
                    48.1861246
                ]
            },
            "properties": {
                "name": "Schweizergarten"
            }
        },
        {
            "type": "Feature",
            "geometry": {
                "type": "Point",
                "coordinates": [
                    16.3849878,
                    48.2382879
                ]
            },
            "properties": {
                "name": "Allerheiligenpark"
            }
        },
        {
            "type": "Feature",
            "geometry": {
                "type": "Point",
                "coordinates": [
                    16.3405768,
                    48.2075983
                ]
            },
            "properties": {
                "name": "Josef-Strau\u00df-Park"
            }
        },
        {
            "type": "Feature",
            "geometry": {
                "type": "Point",
                "coordinates": [
                    16.3544631,
                    48.2154708
                ]
            },
            "properties": {
                "name": "Ostarrichi-Park"
            }
        },
        {
            "type": "Feature",
            "geometry": {
                "type": "Point",
                "coordinates": [
                    16.3454586,
                    48.2110642
                ]
            },
            "properties": {
                "name": "Hamerlingpark"
            }
        },
        {
            "type": "Feature",
            "geometry": {
                "type": "Point",
                "coordinates": [
                    16.3485408,
                    48.2322374
                ]
            },
            "properties": {
                "name": "W\u00e4hringer Park"
            }
        },
        {
            "type": "Feature",
            "geometry": {
                "type": "Point",
                "coordinates": [
                    16.3613446,
                    48.1985445
                ]
            },
            "properties": {
                "name": "Alfred-Gr\u00fcnwald-Park"
            }
        },
        {
            "type": "Feature",
            "geometry": {
                "type": "Point",
                "coordinates": [
                    16.3673643,
                    48.2144127
                ]
            },
            "properties": {
                "name": "Hermann-Gmeiner-Park"
            }
        },
        {
            "type": "Feature",
            "geometry": {
                "type": "Point",
                "coordinates": [
                    9.5940813,
                    47.2350455
                ]
            },
            "properties": {
                "name": "Reichenfeld"
            }
        },
        {
            "type": "Feature",
            "geometry": {
                "type": "Point",
                "coordinates": [
                    16.259755,
                    48.118814
                ]
            },
            "properties": {
                "name": "Begrischpark"
            }
        },
        {
            "type": "Feature",
            "geometry": {
                "type": "Point",
                "coordinates": [
                    16.4054211,
                    48.2766625
                ]
            }
        },
        {
            "type": "Feature",
            "geometry": {
                "type": "Point",
                "coordinates": [
                    16.3746741,
                    48.2444262
                ]
            },
            "properties": {
                "name": "Forsthauspark"
            }
        },
        {
            "type": "Feature",
            "geometry": {
                "type": "Point",
                "coordinates": [
                    16.3793821,
                    48.2670165
                ]
            },
            "properties": {
                "name": "Jedleseer Aupark"
            }
        },
        {
            "type": "Feature",
            "geometry": {
                "type": "Point",
                "coordinates": [
                    16.3461747,
                    48.1820166
                ]
            },
            "properties": {
                "name": "Haydnpark"
            }
        },
        {
            "type": "Feature",
            "geometry": {
                "type": "Point",
                "coordinates": [
                    16.3582722,
                    48.2267113
                ]
            },
            "properties": {
                "name": "Lichtentalerpark"
            }
        },
        {
            "type": "Feature",
            "geometry": {
                "type": "Point",
                "coordinates": [
                    16.3990937,
                    48.194275
                ]
            },
            "properties": {
                "name": "Joe-Zawinul-Park"
            }
        },
        {
            "type": "Feature",
            "geometry": {
                "type": "Point",
                "coordinates": [
                    16.3916209,
                    48.1984003
                ]
            },
            "properties": {
                "name": "Arenbergpark"
            }
        },
        {
            "type": "Feature",
            "geometry": {
                "type": "Point",
                "coordinates": [
                    16.3897039,
                    48.199615
                ]
            }
        },
        {
            "type": "Feature",
            "geometry": {
                "type": "Point",
                "coordinates": [
                    16.3916685,
                    48.1997288
                ]
            }
        },
        {
            "type": "Feature",
            "geometry": {
                "type": "Point",
                "coordinates": [
                    16.4014474,
                    48.1972726
                ]
            },
            "properties": {
                "name": "Kardinal-Nagl-Park"
            }
        },
        {
            "type": "Feature",
            "geometry": {
                "type": "Point",
                "coordinates": [
                    16.4013964,
                    48.1929058
                ]
            },
            "properties": {
                "name": "Pauluspark"
            }
        },
        {
            "type": "Feature",
            "geometry": {
                "type": "Point",
                "coordinates": [
                    16.3824084,
                    48.1998498
                ]
            },
            "properties": {
                "name": "Modenapark"
            }
        },
        {
            "type": "Feature",
            "geometry": {
                "type": "Point",
                "coordinates": [
                    16.3780324,
                    48.1946717
                ]
            },
            "properties": {
                "name": "Schwarzenberggarten"
            }
        },
        {
            "type": "Feature",
            "geometry": {
                "type": "Point",
                "coordinates": [
                    16.3796146,
                    48.1765315
                ]
            },
            "properties": {
                "name": "Wielandpark"
            }
        },
        {
            "type": "Feature",
            "geometry": {
                "type": "Point",
                "coordinates": [
                    16.3757963,
                    48.1786242
                ]
            }
        },
        {
            "type": "Feature",
            "geometry": {
                "type": "Point",
                "coordinates": [
                    16.3782613,
                    48.179313
                ]
            },
            "properties": {
                "name": "Humboldtpark"
            }
        },
        {
            "type": "Feature",
            "geometry": {
                "type": "Point",
                "coordinates": [
                    16.3713525,
                    48.1730713
                ]
            },
            "properties": {
                "name": "Arthaberpark"
            }
        },
        {
            "type": "Feature",
            "geometry": {
                "type": "Point",
                "coordinates": [
                    14.3214691,
                    48.3363401
                ]
            }
        },
        {
            "type": "Feature",
            "geometry": {
                "type": "Point",
                "coordinates": [
                    14.3182475,
                    48.3371506
                ]
            }
        },
        {
            "type": "Feature",
            "geometry": {
                "type": "Point",
                "coordinates": [
                    16.3100625,
                    48.2218932
                ]
            },
            "properties": {
                "name": "Kongresspark"
            }
        },
        {
            "type": "Feature",
            "geometry": {
                "type": "Point",
                "coordinates": [
                    14.2851242,
                    48.3039481
                ]
            },
            "properties": {
                "name": "Landhauspark"
            }
        },
        {
            "type": "Feature",
            "geometry": {
                "type": "Point",
                "coordinates": [
                    14.2944001,
                    48.3005571
                ]
            },
            "properties": {
                "name": "Hessenplatz"
            }
        },
        {
            "type": "Feature",
            "geometry": {
                "type": "Point",
                "coordinates": [
                    14.2910363,
                    48.2977796
                ]
            },
            "properties": {
                "name": "Schillerpark"
            }
        },
        {
            "type": "Feature",
            "geometry": {
                "type": "Point",
                "coordinates": [
                    16.3500238,
                    48.1858699
                ]
            },
            "properties": {
                "name": "Einsiedlerpark"
            }
        },
        {
            "type": "Feature",
            "geometry": {
                "type": "Point",
                "coordinates": [
                    16.3508278,
                    48.182892
                ]
            },
            "properties": {
                "name": "Ernst-Lichtblau-Park"
            }
        },
        {
            "type": "Feature",
            "geometry": {
                "type": "Point",
                "coordinates": [
                    16.7813428,
                    48.0225173
                ]
            },
            "properties": {
                "name": "Bruckm\u00fchlpark"
            }
        },
        {
            "type": "Feature",
            "geometry": {
                "type": "Point",
                "coordinates": [
                    16.7781726,
                    48.0197871
                ]
            },
            "properties": {
                "name": "Kaiserpark"
            }
        },
        {
            "type": "Feature",
            "geometry": {
                "type": "Point",
                "coordinates": [
                    14.3042346,
                    48.2831909
                ]
            },
            "properties": {
                "name": "Panuliwiese"
            }
        },
        {
            "type": "Feature",
            "geometry": {
                "type": "Point",
                "coordinates": [
                    14.2855549,
                    48.3161409
                ]
            },
            "properties": {
                "name": "BH Urfahr Park"
            }
        },
        {
            "type": "Feature",
            "geometry": {
                "type": "Point",
                "coordinates": [
                    16.7893263,
                    48.0255354
                ]
            },
            "properties": {
                "name": "Harrachpark"
            }
        },
        {
            "type": "Feature",
            "geometry": {
                "type": "Point",
                "coordinates": [
                    14.3160696,
                    48.2975798
                ]
            },
            "properties": {
                "name": "Sternpark"
            }
        },
        {
            "type": "Feature",
            "geometry": {
                "type": "Point",
                "coordinates": [
                    16.326437,
                    48.3032181
                ]
            },
            "properties": {
                "name": "Roman Scholz Platz West"
            }
        },
        {
            "type": "Feature",
            "geometry": {
                "type": "Point",
                "coordinates": [
                    16.3213467,
                    48.3037893
                ]
            },
            "properties": {
                "name": "Kardinal Piffl Park"
            }
        },
        {
            "type": "Feature",
            "geometry": {
                "type": "Point",
                "coordinates": [
                    16.3137588,
                    48.3166272
                ]
            }
        },
        {
            "type": "Feature",
            "geometry": {
                "type": "Point",
                "coordinates": [
                    16.3237358,
                    48.299414
                ]
            }
        },
        {
            "type": "Feature",
            "geometry": {
                "type": "Point",
                "coordinates": [
                    14.2812348,
                    48.2955287
                ]
            },
            "properties": {
                "name": "Bauernbergpark"
            }
        },
        {
            "type": "Feature",
            "geometry": {
                "type": "Point",
                "coordinates": [
                    16.3382993,
                    48.2365664
                ]
            }
        },
        {
            "type": "Feature",
            "geometry": {
                "type": "Point",
                "coordinates": [
                    16.7758846,
                    48.0239944
                ]
            }
        },
        {
            "type": "Feature",
            "geometry": {
                "type": "Point",
                "coordinates": [
                    14.2570352,
                    46.6210395
                ]
            },
            "properties": {
                "name": "Europapark"
            }
        },
        {
            "type": "Feature",
            "geometry": {
                "type": "Point",
                "coordinates": [
                    16.7793833,
                    48.0259109
                ]
            }
        },
        {
            "type": "Feature",
            "geometry": {
                "type": "Point",
                "coordinates": [
                    16.4568049,
                    48.1901725
                ]
            }
        },
        {
            "type": "Feature",
            "geometry": {
                "type": "Point",
                "coordinates": [
                    16.3525519,
                    48.1974755
                ]
            },
            "properties": {
                "name": "Esterh\u00e1zypark"
            }
        },
        {
            "type": "Feature",
            "geometry": {
                "type": "Point",
                "coordinates": [
                    16.3317581,
                    48.2398231
                ]
            },
            "properties": {
                "name": "Hugo-Wolf-Park"
            }
        },
        {
            "type": "Feature",
            "geometry": {
                "type": "Point",
                "coordinates": [
                    15.6284089,
                    48.2012765
                ]
            },
            "properties": {
                "name": "Altoonapark"
            }
        },
        {
            "type": "Feature",
            "geometry": {
                "type": "Point",
                "coordinates": [
                    14.3194776,
                    48.3363104
                ]
            }
        },
        {
            "type": "Feature",
            "geometry": {
                "type": "Point",
                "coordinates": [
                    13.0344776,
                    47.8149882
                ]
            },
            "properties": {
                "name": "Lehener Park"
            }
        },
        {
            "type": "Feature",
            "geometry": {
                "type": "Point",
                "coordinates": [
                    13.0282068,
                    47.8123243
                ]
            }
        },
        {
            "type": "Feature",
            "geometry": {
                "type": "Point",
                "coordinates": [
                    13.0414634,
                    47.8047396
                ]
            },
            "properties": {
                "name": "Mirabellgarten"
            }
        },
        {
            "type": "Feature",
            "geometry": {
                "type": "Point",
                "coordinates": [
                    16.3372726,
                    48.243026
                ]
            },
            "properties": {
                "name": "Krim-Park"
            }
        },
        {
            "type": "Feature",
            "geometry": {
                "type": "Point",
                "coordinates": [
                    16.1572853,
                    48.3045852
                ]
            },
            "properties": {
                "name": "Parkbad"
            }
        },
        {
            "type": "Feature",
            "geometry": {
                "type": "Point",
                "coordinates": [
                    16.2162122,
                    47.9656795
                ]
            },
            "properties": {
                "name": "Schlosspark"
            }
        },
        {
            "type": "Feature",
            "geometry": {
                "type": "Point",
                "coordinates": [
                    16.1748322,
                    48.3263349
                ]
            }
        },
        {
            "type": "Feature",
            "geometry": {
                "type": "Point",
                "coordinates": [
                    15.9489117,
                    48.4989268
                ]
            },
            "properties": {
                "name": "Englischer Garten"
            }
        },
        {
            "type": "Feature",
            "geometry": {
                "type": "Point",
                "coordinates": [
                    16.3860587,
                    48.2170634
                ]
            },
            "properties": {
                "name": "Rosa-Jochmann-Park"
            }
        },
        {
            "type": "Feature",
            "geometry": {
                "type": "Point",
                "coordinates": [
                    16.3982513,
                    48.26436
                ]
            },
            "properties": {
                "name": "Marie-Schuller-Park"
            }
        },
        {
            "type": "Feature",
            "geometry": {
                "type": "Point",
                "coordinates": [
                    16.0822205,
                    48.5598864
                ]
            },
            "properties": {
                "name": "Koliskopark"
            }
        },
        {
            "type": "Feature",
            "geometry": {
                "type": "Point",
                "coordinates": [
                    16.2877268,
                    48.0873052
                ]
            },
            "properties": {
                "name": "Museumspark"
            }
        },
        {
            "type": "Feature",
            "geometry": {
                "type": "Point",
                "coordinates": [
                    16.3384736,
                    48.1849925
                ]
            },
            "properties": {
                "name": "Kobingerpark"
            }
        },
        {
            "type": "Feature",
            "geometry": {
                "type": "Point",
                "coordinates": [
                    14.2797362,
                    48.2748059
                ]
            }
        },
        {
            "type": "Feature",
            "geometry": {
                "type": "Point",
                "coordinates": [
                    14.2802587,
                    48.2740992
                ]
            }
        },
        {
            "type": "Feature",
            "geometry": {
                "type": "Point",
                "coordinates": [
                    15.4275486,
                    47.0639452
                ]
            },
            "properties": {
                "name": "Oeverseepark"
            }
        },
        {
            "type": "Feature",
            "geometry": {
                "type": "Point",
                "coordinates": [
                    15.4022141,
                    47.068594
                ]
            },
            "properties": {
                "name": "Gemeindepark Eggenberg"
            }
        },
        {
            "type": "Feature",
            "geometry": {
                "type": "Point",
                "coordinates": [
                    14.3195846,
                    48.3369756
                ]
            }
        },
        {
            "type": "Feature",
            "geometry": {
                "type": "Point",
                "coordinates": [
                    14.322534,
                    48.3375764
                ]
            }
        },
        {
            "type": "Feature",
            "geometry": {
                "type": "Point",
                "coordinates": [
                    14.0233209,
                    48.157376
                ]
            }
        },
        {
            "type": "Feature",
            "geometry": {
                "type": "Point",
                "coordinates": [
                    16.4435078,
                    48.2584611
                ]
            },
            "properties": {
                "name": "Ingeborg-Bachmann-Park"
            }
        },
        {
            "type": "Feature",
            "geometry": {
                "type": "Point",
                "coordinates": [
                    16.3562059,
                    48.2073338
                ]
            },
            "properties": {
                "name": "Bettina-Huber-Park"
            }
        },
        {
            "type": "Feature",
            "geometry": {
                "type": "Point",
                "coordinates": [
                    16.2496475,
                    47.8905063
                ]
            }
        },
        {
            "type": "Feature",
            "geometry": {
                "type": "Point",
                "coordinates": [
                    16.3488104,
                    48.2456059
                ]
            },
            "properties": {
                "name": "Saarpark"
            }
        },
        {
            "type": "Feature",
            "geometry": {
                "type": "Point",
                "coordinates": [
                    16.3391151,
                    48.2264127
                ]
            },
            "properties": {
                "name": "Schubertpark"
            }
        },
        {
            "type": "Feature",
            "geometry": {
                "type": "Point",
                "coordinates": [
                    16.3303177,
                    48.223151
                ]
            },
            "properties": {
                "name": "Diepoldpark"
            }
        },
        {
            "type": "Feature",
            "geometry": {
                "type": "Point",
                "coordinates": [
                    16.2567228,
                    47.8965489
                ]
            }
        },
        {
            "type": "Feature",
            "geometry": {
                "type": "Point",
                "coordinates": [
                    16.5181986,
                    48.3804868
                ]
            },
            "properties": {
                "name": "Schlo\u00dfpark"
            }
        },
        {
            "type": "Feature",
            "geometry": {
                "type": "Point",
                "coordinates": [
                    15.4574668,
                    47.0512674
                ]
            },
            "properties": {
                "name": "Harmsdorffpark"
            }
        },
        {
            "type": "Feature",
            "geometry": {
                "type": "Point",
                "coordinates": [
                    16.3729548,
                    48.2153407
                ]
            }
        },
        {
            "type": "Feature",
            "geometry": {
                "type": "Point",
                "coordinates": [
                    16.4167392,
                    48.3012355
                ]
            }
        },
        {
            "type": "Feature",
            "geometry": {
                "type": "Point",
                "coordinates": [
                    16.2715327,
                    48.1901627
                ]
            },
            "properties": {
                "name": "Streckerpark"
            }
        },
        {
            "type": "Feature",
            "geometry": {
                "type": "Point",
                "coordinates": [
                    15.4052251,
                    47.0645256
                ]
            },
            "properties": {
                "name": "Helene-Serfecz-Platz"
            }
        },
        {
            "type": "Feature",
            "geometry": {
                "type": "Point",
                "coordinates": [
                    16.3440009,
                    48.2201014
                ]
            }
        },
        {
            "type": "Feature",
            "geometry": {
                "type": "Point",
                "coordinates": [
                    14.3133223,
                    46.6219301
                ]
            },
            "properties": {
                "name": "Platz der K\u00e4rntner freiwilligen Sch\u00fctzen"
            }
        },
        {
            "type": "Feature",
            "geometry": {
                "type": "Point",
                "coordinates": [
                    14.4160555,
                    48.0404554
                ]
            },
            "properties": {
                "name": "Schlosspark"
            }
        },
        {
            "type": "Feature",
            "geometry": {
                "type": "Point",
                "coordinates": [
                    16.3525322,
                    48.2295013
                ]
            },
            "properties": {
                "name": "Helene-Deutsch-Park"
            }
        },
        {
            "type": "Feature",
            "geometry": {
                "type": "Point",
                "coordinates": [
                    14.3040904,
                    46.6220682
                ]
            },
            "properties": {
                "name": "Stadtgraben"
            }
        },
        {
            "type": "Feature",
            "geometry": {
                "type": "Point",
                "coordinates": [
                    14.312442,
                    46.6268558
                ]
            },
            "properties": {
                "name": "Rauscherpark"
            }
        },
        {
            "type": "Feature",
            "geometry": {
                "type": "Point",
                "coordinates": [
                    14.3041446,
                    46.6274471
                ]
            },
            "properties": {
                "name": "Goethepark"
            }
        },
        {
            "type": "Feature",
            "geometry": {
                "type": "Point",
                "coordinates": [
                    16.3399116,
                    48.1814103
                ]
            },
            "properties": {
                "name": "Steinbauerpark"
            }
        },
        {
            "type": "Feature",
            "geometry": {
                "type": "Point",
                "coordinates": [
                    16.3388942,
                    48.178256
                ]
            },
            "properties": {
                "name": "Wilhelmsdorfer Park"
            }
        },
        {
            "type": "Feature",
            "geometry": {
                "type": "Point",
                "coordinates": [
                    15.4612353,
                    47.0850911
                ]
            }
        },
        {
            "type": "Feature",
            "geometry": {
                "type": "Point",
                "coordinates": [
                    14.0214203,
                    48.1539147
                ]
            },
            "properties": {
                "name": "Volksgarten"
            }
        },
        {
            "type": "Feature",
            "geometry": {
                "type": "Point",
                "coordinates": [
                    16.4612092,
                    48.2336419
                ]
            },
            "properties": {
                "name": "Hirschstettner Aupark"
            }
        },
        {
            "type": "Feature",
            "geometry": {
                "type": "Point",
                "coordinates": [
                    14.3226981,
                    48.3318652
                ]
            }
        },
        {
            "type": "Feature",
            "geometry": {
                "type": "Point",
                "coordinates": [
                    15.3963411,
                    47.0575221
                ]
            }
        },
        {
            "type": "Feature",
            "geometry": {
                "type": "Point",
                "coordinates": [
                    11.4065503,
                    47.2662429
                ]
            },
            "properties": {
                "name": "Stadtpark Rapoldi"
            }
        },
        {
            "type": "Feature",
            "geometry": {
                "type": "Point",
                "coordinates": [
                    15.4549914,
                    47.0371703
                ]
            }
        },
        {
            "type": "Feature",
            "geometry": {
                "type": "Point",
                "coordinates": [
                    16.3350111,
                    48.2019281
                ]
            },
            "properties": {
                "name": "M\u00e4rzpark"
            }
        },
        {
            "type": "Feature",
            "geometry": {
                "type": "Point",
                "coordinates": [
                    16.3310382,
                    48.1982972
                ]
            },
            "properties": {
                "name": "Reithofferpark"
            }
        },
        {
            "type": "Feature",
            "geometry": {
                "type": "Point",
                "coordinates": [
                    16.326498,
                    48.2024031
                ]
            },
            "properties": {
                "name": "Friedensreich-Hundertwasser-Platz"
            }
        },
        {
            "type": "Feature",
            "geometry": {
                "type": "Point",
                "coordinates": [
                    16.3354866,
                    48.1988756
                ]
            }
        },
        {
            "type": "Feature",
            "geometry": {
                "type": "Point",
                "coordinates": [
                    16.3183669,
                    48.1753759
                ]
            }
        },
        {
            "type": "Feature",
            "geometry": {
                "type": "Point",
                "coordinates": [
                    14.0051544,
                    48.1511965
                ]
            },
            "properties": {
                "name": "Schlosspark Lichtenegg"
            }
        },
        {
            "type": "Feature",
            "geometry": {
                "type": "Point",
                "coordinates": [
                    15.6598076,
                    48.7962617
                ]
            },
            "properties": {
                "name": "Naturpark Geras"
            }
        },
        {
            "type": "Feature",
            "geometry": {
                "type": "Point",
                "coordinates": [
                    16.3312897,
                    48.18228
                ]
            },
            "properties": {
                "name": "Anton-Krutisch-Park"
            }
        },
        {
            "type": "Feature",
            "geometry": {
                "type": "Point",
                "coordinates": [
                    16.3218068,
                    48.2240893
                ]
            },
            "properties": {
                "name": "Clemens Krauss-Park"
            }
        },
        {
            "type": "Feature",
            "geometry": {
                "type": "Point",
                "coordinates": [
                    16.3204844,
                    48.2244431
                ]
            },
            "properties": {
                "name": "Clemens Krauss-Park"
            }
        },
        {
            "type": "Feature",
            "geometry": {
                "type": "Point",
                "coordinates": [
                    16.3339394,
                    48.2315791
                ]
            },
            "properties": {
                "name": "Sternwartepark"
            }
        },
        {
            "type": "Feature",
            "geometry": {
                "type": "Point",
                "coordinates": [
                    14.2059521,
                    46.6199562
                ]
            },
            "properties": {
                "name": "Thomas-Koschat-Park"
            }
        },
        {
            "type": "Feature",
            "geometry": {
                "type": "Point",
                "coordinates": [
                    16.3332683,
                    48.1817406
                ]
            },
            "properties": {
                "name": "Hermann-Leopoldi-Park"
            }
        },
        {
            "type": "Feature",
            "geometry": {
                "type": "Point",
                "coordinates": [
                    14.4828435,
                    48.2163934
                ]
            },
            "properties": {
                "name": "Schlosspark"
            }
        },
        {
            "type": "Feature",
            "geometry": {
                "type": "Point",
                "coordinates": [
                    16.3383134,
                    48.2019407
                ]
            },
            "properties": {
                "name": "Urban-Loritz-Park"
            }
        },
        {
            "type": "Feature",
            "geometry": {
                "type": "Point",
                "coordinates": [
                    16.3383939,
                    48.2014394
                ]
            },
            "properties": {
                "name": "Urban-Loritz-Park"
            }
        },
        {
            "type": "Feature",
            "geometry": {
                "type": "Point",
                "coordinates": [
                    15.1396216,
                    48.130858
                ]
            },
            "properties": {
                "name": "Schlo\u00dfpark"
            }
        },
        {
            "type": "Feature",
            "geometry": {
                "type": "Point",
                "coordinates": [
                    16.3654876,
                    48.2021016
                ]
            },
            "properties": {
                "name": "Schillerpark"
            }
        },
        {
            "type": "Feature",
            "geometry": {
                "type": "Point",
                "coordinates": [
                    15.4027223,
                    47.072679
                ]
            },
            "properties": {
                "name": "Hofbauerplatz"
            }
        },
        {
            "type": "Feature",
            "geometry": {
                "type": "Point",
                "coordinates": [
                    16.3152881,
                    48.1911585
                ]
            },
            "properties": {
                "name": "Heinz-Conrads-Park"
            }
        },
        {
            "type": "Feature",
            "geometry": {
                "type": "Point",
                "coordinates": [
                    16.3113682,
                    48.1961997
                ]
            },
            "properties": {
                "name": "Reinlpark"
            }
        },
        {
            "type": "Feature",
            "geometry": {
                "type": "Point",
                "coordinates": [
                    16.3717469,
                    48.2141666
                ]
            },
            "properties": {
                "name": "Rudolfspark"
            }
        },
        {
            "type": "Feature",
            "geometry": {
                "type": "Point",
                "coordinates": [
                    16.8963976,
                    48.1436642
                ]
            }
        },
        {
            "type": "Feature",
            "geometry": {
                "type": "Point",
                "coordinates": [
                    16.9235707,
                    47.8934327
                ]
            },
            "properties": {
                "name": "Biotop / VIP-Park"
            }
        },
        {
            "type": "Feature",
            "geometry": {
                "type": "Point",
                "coordinates": [
                    16.3341733,
                    48.2333125
                ]
            },
            "properties": {
                "name": "Josef-Kainz-Park"
            }
        },
        {
            "type": "Feature",
            "geometry": {
                "type": "Point",
                "coordinates": [
                    14.3419282,
                    46.6343863
                ]
            },
            "properties": {
                "name": "Donauschwabenpark"
            }
        },
        {
            "type": "Feature",
            "geometry": {
                "type": "Point",
                "coordinates": [
                    13.6193707,
                    47.7116415
                ]
            },
            "properties": {
                "name": "Kurpark"
            }
        },
        {
            "type": "Feature",
            "geometry": {
                "type": "Point",
                "coordinates": [
                    15.4187398,
                    47.0836206
                ]
            },
            "properties": {
                "name": "Fr\u00f6belpark"
            }
        },
        {
            "type": "Feature",
            "geometry": {
                "type": "Point",
                "coordinates": [
                    15.4273526,
                    47.0732879
                ]
            },
            "properties": {
                "name": "Volksgarten"
            }
        },
        {
            "type": "Feature",
            "geometry": {
                "type": "Point",
                "coordinates": [
                    16.3536825,
                    48.2212188
                ]
            },
            "properties": {
                "name": "Arne-Carlsson-Park"
            }
        },
        {
            "type": "Feature",
            "geometry": {
                "type": "Point",
                "coordinates": [
                    16.3346063,
                    48.2190434
                ]
            },
            "properties": {
                "name": "Pezzlpark"
            }
        },
        {
            "type": "Feature",
            "geometry": {
                "type": "Point",
                "coordinates": [
                    15.3960353,
                    47.0800515
                ]
            },
            "properties": {
                "name": "Annaplatz"
            }
        },
        {
            "type": "Feature",
            "geometry": {
                "type": "Point",
                "coordinates": [
                    15.6305611,
                    48.2071881
                ]
            },
            "properties": {
                "name": "Sparkassenpark"
            }
        },
        {
            "type": "Feature",
            "geometry": {
                "type": "Point",
                "coordinates": [
                    15.435912,
                    47.0665606
                ]
            }
        },
        {
            "type": "Feature",
            "geometry": {
                "type": "Point",
                "coordinates": [
                    15.4358245,
                    47.0659136
                ]
            },
            "properties": {
                "name": "Josef-Pongratz-Platz"
            }
        },
        {
            "type": "Feature",
            "geometry": {
                "type": "Point",
                "coordinates": [
                    15.4340535,
                    47.0665673
                ]
            }
        },
        {
            "type": "Feature",
            "geometry": {
                "type": "Point",
                "coordinates": [
                    16.368671,
                    48.1960772
                ]
            },
            "properties": {
                "name": "Erzherzog-Johann-Platz"
            }
        },
        {
            "type": "Feature",
            "geometry": {
                "type": "Point",
                "coordinates": [
                    13.0664359,
                    47.8675753
                ]
            }
        },
        {
            "type": "Feature",
            "geometry": {
                "type": "Point",
                "coordinates": [
                    16.2675055,
                    48.1495185
                ]
            },
            "properties": {
                "name": "\u00d6lzeltpark"
            }
        },
        {
            "type": "Feature",
            "geometry": {
                "type": "Point",
                "coordinates": [
                    15.4438132,
                    47.0729493
                ]
            },
            "properties": {
                "name": "Burggarten"
            }
        },
        {
            "type": "Feature",
            "geometry": {
                "type": "Point",
                "coordinates": [
                    16.3024638,
                    48.2412963
                ]
            },
            "properties": {
                "name": "P\u00f6tzleinsdorfer Schlosspark"
            }
        },
        {
            "type": "Feature",
            "geometry": {
                "type": "Point",
                "coordinates": [
                    16.2830755,
                    48.1048605
                ]
            },
            "properties": {
                "name": "Winzerpark"
            }
        },
        {
            "type": "Feature",
            "geometry": {
                "type": "Point",
                "coordinates": [
                    16.2951216,
                    48.0852628
                ]
            },
            "properties": {
                "name": "Pepi-Wagner-Park"
            }
        },
        {
            "type": "Feature",
            "geometry": {
                "type": "Point",
                "coordinates": [
                    16.2813435,
                    48.0985874
                ]
            },
            "properties": {
                "name": "Hunyadi Schlosspark"
            }
        },
        {
            "type": "Feature",
            "geometry": {
                "type": "Point",
                "coordinates": [
                    16.2832165,
                    48.096604
                ]
            }
        },
        {
            "type": "Feature",
            "geometry": {
                "type": "Point",
                "coordinates": [
                    16.2841022,
                    48.0962285
                ]
            }
        },
        {
            "type": "Feature",
            "geometry": {
                "type": "Point",
                "coordinates": [
                    16.3124933,
                    48.0907245
                ]
            }
        },
        {
            "type": "Feature",
            "geometry": {
                "type": "Point",
                "coordinates": [
                    16.302862,
                    48.0872136
                ]
            },
            "properties": {
                "name": "Sch\u00f6ffelpark"
            }
        },
        {
            "type": "Feature",
            "geometry": {
                "type": "Point",
                "coordinates": [
                    16.3196881,
                    48.0872344
                ]
            },
            "properties": {
                "name": "Rathauspark"
            }
        },
        {
            "type": "Feature",
            "geometry": {
                "type": "Point",
                "coordinates": [
                    16.3628537,
                    48.1878848
                ]
            },
            "properties": {
                "name": "Rudolf-Sallinger-Park"
            }
        },
        {
            "type": "Feature",
            "geometry": {
                "type": "Point",
                "coordinates": [
                    16.2877676,
                    48.1049448
                ]
            }
        },
        {
            "type": "Feature",
            "geometry": {
                "type": "Point",
                "coordinates": [
                    16.302979,
                    48.2210671
                ]
            }
        },
        {
            "type": "Feature",
            "geometry": {
                "type": "Point",
                "coordinates": [
                    16.2498795,
                    48.2153078
                ]
            },
            "properties": {
                "name": "Camping Wien West"
            }
        },
        {
            "type": "Feature",
            "geometry": {
                "type": "Point",
                "coordinates": [
                    16.2683609,
                    48.160793
                ]
            },
            "properties": {
                "name": "Napoleonwald"
            }
        },
        {
            "type": "Feature",
            "geometry": {
                "type": "Point",
                "coordinates": [
                    16.3044296,
                    48.2087804
                ]
            },
            "properties": {
                "name": "Joachimsthalerplatz"
            }
        },
        {
            "type": "Feature",
            "geometry": {
                "type": "Point",
                "coordinates": [
                    16.3341341,
                    48.205983
                ]
            },
            "properties": {
                "name": "Ludo Hartmann-Park"
            }
        },
        {
            "type": "Feature",
            "geometry": {
                "type": "Point",
                "coordinates": [
                    16.2446585,
                    48.2075997
                ]
            },
            "properties": {
                "name": "Franz-Sauer-Park"
            }
        },
        {
            "type": "Feature",
            "geometry": {
                "type": "Point",
                "coordinates": [
                    16.2433356,
                    48.2080014
                ]
            },
            "properties": {
                "name": "Raimund-Pokorny-Park"
            }
        },
        {
            "type": "Feature",
            "geometry": {
                "type": "Point",
                "coordinates": [
                    16.2503439,
                    48.2019174
                ]
            },
            "properties": {
                "name": "Ferdinand-Wolf-Park"
            }
        },
        {
            "type": "Feature",
            "geometry": {
                "type": "Point",
                "coordinates": [
                    16.3357587,
                    48.2284338
                ]
            },
            "properties": {
                "name": "Norbert-Liebermann-Park"
            }
        },
        {
            "type": "Feature",
            "geometry": {
                "type": "Point",
                "coordinates": [
                    14.5218671,
                    48.3485556
                ]
            }
        },
        {
            "type": "Feature",
            "geometry": {
                "type": "Point",
                "coordinates": [
                    16.3424624,
                    48.2208127
                ]
            },
            "properties": {
                "name": "Anton-Baumann-Park"
            }
        },
        {
            "type": "Feature",
            "geometry": {
                "type": "Point",
                "coordinates": [
                    16.3350968,
                    48.2267423
                ]
            },
            "properties": {
                "name": "Marie-Ebner-Eschenbach-Park"
            }
        },
        {
            "type": "Feature",
            "geometry": {
                "type": "Point",
                "coordinates": [
                    16.2574155,
                    48.1974576
                ]
            },
            "properties": {
                "name": "Franz-Schimon-Park"
            }
        },
        {
            "type": "Feature",
            "geometry": {
                "type": "Point",
                "coordinates": [
                    16.2752973,
                    48.1967599
                ]
            },
            "properties": {
                "name": "Baumgarten-Casino-Park"
            }
        },
        {
            "type": "Feature",
            "geometry": {
                "type": "Point",
                "coordinates": [
                    16.2661378,
                    48.1883407
                ]
            },
            "properties": {
                "name": "Dechant-Kinzl-Park"
            }
        },
        {
            "type": "Feature",
            "geometry": {
                "type": "Point",
                "coordinates": [
                    16.2651774,
                    48.1890088
                ]
            }
        },
        {
            "type": "Feature",
            "geometry": {
                "type": "Point",
                "coordinates": [
                    16.2613569,
                    48.1824735
                ]
            },
            "properties": {
                "name": "Franz-Schmidt-Park"
            }
        },
        {
            "type": "Feature",
            "geometry": {
                "type": "Point",
                "coordinates": [
                    16.2763886,
                    48.1734117
                ]
            },
            "properties": {
                "name": "Friedrich-Julius-Bieber-Anlage"
            }
        },
        {
            "type": "Feature",
            "geometry": {
                "type": "Point",
                "coordinates": [
                    16.2759243,
                    48.1738548
                ]
            }
        },
        {
            "type": "Feature",
            "geometry": {
                "type": "Point",
                "coordinates": [
                    14.2094384,
                    48.0309428
                ]
            },
            "properties": {
                "name": "Kurpark Bad Hall"
            }
        },
        {
            "type": "Feature",
            "geometry": {
                "type": "Point",
                "coordinates": [
                    16.9751168,
                    47.8744966
                ]
            },
            "properties": {
                "name": "Schlosspark"
            }
        },
        {
            "type": "Feature",
            "geometry": {
                "type": "Point",
                "coordinates": [
                    16.3220999,
                    48.2186291
                ]
            },
            "properties": {
                "name": "Clemens-Hofbauer-Park"
            }
        },
        {
            "type": "Feature",
            "geometry": {
                "type": "Point",
                "coordinates": [
                    15.328267,
                    47.2699409
                ]
            },
            "properties": {
                "name": "Volkspark"
            }
        },
        {
            "type": "Feature",
            "geometry": {
                "type": "Point",
                "coordinates": [
                    16.2624656,
                    47.8209616
                ]
            },
            "properties": {
                "name": "Bauer-Theussl-Park"
            }
        },
        {
            "type": "Feature",
            "geometry": {
                "type": "Point",
                "coordinates": [
                    16.2836328,
                    48.1496919
                ]
            }
        },
        {
            "type": "Feature",
            "geometry": {
                "type": "Point",
                "coordinates": [
                    16.2822522,
                    48.1444699
                ]
            },
            "properties": {
                "name": "Fridtjof-Nansen-Park"
            }
        },
        {
            "type": "Feature",
            "geometry": {
                "type": "Point",
                "coordinates": [
                    16.3865397,
                    48.234231
                ]
            },
            "properties": {
                "name": "Mortarapark"
            }
        },
        {
            "type": "Feature",
            "geometry": {
                "type": "Point",
                "coordinates": [
                    16.3090891,
                    48.1806951
                ]
            },
            "properties": {
                "name": "Sch\u00f6nbrunn"
            }
        },
        {
            "type": "Feature",
            "geometry": {
                "type": "Point",
                "coordinates": [
                    13.8649442,
                    48.0871211
                ]
            }
        },
        {
            "type": "Feature",
            "geometry": {
                "type": "Point",
                "coordinates": [
                    16.3019751,
                    48.2355817
                ]
            },
            "properties": {
                "name": "Hans-Bock-Park"
            }
        },
        {
            "type": "Feature",
            "geometry": {
                "type": "Point",
                "coordinates": [
                    16.3150075,
                    48.2321006
                ]
            },
            "properties": {
                "name": "Kastanienpark"
            }
        },
        {
            "type": "Feature",
            "geometry": {
                "type": "Point",
                "coordinates": [
                    16.3180878,
                    48.2314736
                ]
            },
            "properties": {
                "name": "Leopold-Rosenmayr-Park"
            }
        },
        {
            "type": "Feature",
            "geometry": {
                "type": "Point",
                "coordinates": [
                    16.3018744,
                    48.1879332
                ]
            },
            "properties": {
                "name": "Hans-Moser-Park"
            }
        },
        {
            "type": "Feature",
            "geometry": {
                "type": "Point",
                "coordinates": [
                    16.2962694,
                    48.181374
                ]
            },
            "properties": {
                "name": "Katharina-Schratt-Park"
            }
        },
        {
            "type": "Feature",
            "geometry": {
                "type": "Point",
                "coordinates": [
                    16.3059182,
                    48.1689246
                ]
            },
            "properties": {
                "name": "Karl-Voitl-Park"
            }
        },
        {
            "type": "Feature",
            "geometry": {
                "type": "Point",
                "coordinates": [
                    16.3077942,
                    48.1650644
                ]
            },
            "properties": {
                "name": "Hetzendorfer Schlosspark"
            }
        },
        {
            "type": "Feature",
            "geometry": {
                "type": "Point",
                "coordinates": [
                    16.2811448,
                    48.1656343
                ]
            },
            "properties": {
                "name": "Andreas-Rett-Park"
            }
        },
        {
            "type": "Feature",
            "geometry": {
                "type": "Point",
                "coordinates": [
                    16.2800505,
                    48.1393725
                ]
            },
            "properties": {
                "name": "Parkanlage Rudolf-Zeller-Gasse"
            }
        },
        {
            "type": "Feature",
            "geometry": {
                "type": "Point",
                "coordinates": [
                    16.2780848,
                    48.1396493
                ]
            },
            "properties": {
                "name": "Parkanlage Theophil-Hansen-Gasse"
            }
        },
        {
            "type": "Feature",
            "geometry": {
                "type": "Point",
                "coordinates": [
                    16.2832942,
                    48.1412103
                ]
            },
            "properties": {
                "name": "Parkanlage Robinsonweg"
            }
        },
        {
            "type": "Feature",
            "geometry": {
                "type": "Point",
                "coordinates": [
                    16.2775781,
                    48.1476512
                ]
            }
        },
        {
            "type": "Feature",
            "geometry": {
                "type": "Point",
                "coordinates": [
                    16.2700056,
                    48.1516778
                ]
            },
            "properties": {
                "name": "Rathauspark"
            }
        },
        {
            "type": "Feature",
            "geometry": {
                "type": "Point",
                "coordinates": [
                    16.29649,
                    48.1422219
                ]
            }
        },
        {
            "type": "Feature",
            "geometry": {
                "type": "Point",
                "coordinates": [
                    16.2964801,
                    48.1437352
                ]
            },
            "properties": {
                "name": "Dr.-Rudolf-Hatschek-Park"
            }
        },
        {
            "type": "Feature",
            "geometry": {
                "type": "Point",
                "coordinates": [
                    16.2898505,
                    48.1480824
                ]
            },
            "properties": {
                "name": "Mayer-von-Rosenau-Park"
            }
        },
        {
            "type": "Feature",
            "geometry": {
                "type": "Point",
                "coordinates": [
                    16.2822494,
                    48.1780815
                ]
            }
        },
        {
            "type": "Feature",
            "geometry": {
                "type": "Point",
                "coordinates": [
                    16.3691452,
                    48.2220864
                ]
            },
            "properties": {
                "name": "Rosarium Wien"
            }
        },
        {
            "type": "Feature",
            "geometry": {
                "type": "Point",
                "coordinates": [
                    16.2680597,
                    48.1861372
                ]
            }
        },
        {
            "type": "Feature",
            "geometry": {
                "type": "Point",
                "coordinates": [
                    13.8302726,
                    46.6159215
                ]
            },
            "properties": {
                "name": "Dinzlpark"
            }
        },
        {
            "type": "Feature",
            "geometry": {
                "type": "Point",
                "coordinates": [
                    16.3537717,
                    48.1753504
                ]
            },
            "properties": {
                "name": "Martin Luther King Park"
            }
        },
        {
            "type": "Feature",
            "geometry": {
                "type": "Point",
                "coordinates": [
                    16.3632833,
                    48.189718
                ]
            },
            "properties": {
                "name": "Wilhelm-Neusser-Park"
            }
        },
        {
            "type": "Feature",
            "geometry": {
                "type": "Point",
                "coordinates": [
                    16.3047324,
                    48.2140885
                ]
            },
            "properties": {
                "name": "Karl-Kantner-Park"
            }
        },
        {
            "type": "Feature",
            "geometry": {
                "type": "Point",
                "coordinates": [
                    16.2815534,
                    48.198945
                ]
            },
            "properties": {
                "name": "Waidhausenpark"
            }
        },
        {
            "type": "Feature",
            "geometry": {
                "type": "Point",
                "coordinates": [
                    16.090471,
                    48.1852823
                ]
            },
            "properties": {
                "name": "Prof.-Rud.-Pleban-Park"
            }
        },
        {
            "type": "Feature",
            "geometry": {
                "type": "Point",
                "coordinates": [
                    16.3436706,
                    48.2144742
                ]
            }
        },
        {
            "type": "Feature",
            "geometry": {
                "type": "Point",
                "coordinates": [
                    16.3439929,
                    48.2144987
                ]
            }
        },
        {
            "type": "Feature",
            "geometry": {
                "type": "Point",
                "coordinates": [
                    16.344023,
                    48.2140767
                ]
            }
        },
        {
            "type": "Feature",
            "geometry": {
                "type": "Point",
                "coordinates": [
                    16.3436975,
                    48.2140453
                ]
            }
        },
        {
            "type": "Feature",
            "geometry": {
                "type": "Point",
                "coordinates": [
                    16.3422047,
                    48.2122338
                ]
            }
        },
        {
            "type": "Feature",
            "geometry": {
                "type": "Point",
                "coordinates": [
                    16.3425132,
                    48.2122244
                ]
            }
        },
        {
            "type": "Feature",
            "geometry": {
                "type": "Point",
                "coordinates": [
                    16.3421636,
                    48.2118673
                ]
            }
        },
        {
            "type": "Feature",
            "geometry": {
                "type": "Point",
                "coordinates": [
                    16.342476,
                    48.2118544
                ]
            }
        },
        {
            "type": "Feature",
            "geometry": {
                "type": "Point",
                "coordinates": [
                    16.3586813,
                    48.1724246
                ]
            },
            "properties": {
                "name": "Fortunapark"
            }
        },
        {
            "type": "Feature",
            "geometry": {
                "type": "Point",
                "coordinates": [
                    16.3394341,
                    48.1894573
                ]
            },
            "properties": {
                "name": "Fritz-Imhoff-Park"
            }
        },
        {
            "type": "Feature",
            "geometry": {
                "type": "Point",
                "coordinates": [
                    16.332822,
                    48.213437
                ]
            },
            "properties": {
                "name": "Huberpark"
            }
        },
        {
            "type": "Feature",
            "geometry": {
                "type": "Point",
                "coordinates": [
                    13.8445656,
                    46.6077397
                ]
            },
            "properties": {
                "name": "Stadtpark"
            }
        },
        {
            "type": "Feature",
            "geometry": {
                "type": "Point",
                "coordinates": [
                    13.8473067,
                    46.6101367
                ]
            },
            "properties": {
                "name": "Schillerpark"
            }
        },
        {
            "type": "Feature",
            "geometry": {
                "type": "Point",
                "coordinates": [
                    16.4124744,
                    48.2394911
                ]
            },
            "properties": {
                "name": "Donaupark"
            }
        },
        {
            "type": "Feature",
            "geometry": {
                "type": "Point",
                "coordinates": [
                    16.411255,
                    48.2518441
                ]
            },
            "properties": {
                "name": "Freiligrathpark"
            }
        },
        {
            "type": "Feature",
            "geometry": {
                "type": "Point",
                "coordinates": [
                    16.4213814,
                    48.2456655
                ]
            }
        },
        {
            "type": "Feature",
            "geometry": {
                "type": "Point",
                "coordinates": [
                    16.3892347,
                    48.2566569
                ]
            },
            "properties": {
                "name": "Floridsdorfer Aupark"
            }
        },
        {
            "type": "Feature",
            "geometry": {
                "type": "Point",
                "coordinates": [
                    16.359102,
                    48.2153078
                ]
            },
            "properties": {
                "name": "Votivpark"
            }
        },
        {
            "type": "Feature",
            "geometry": {
                "type": "Point",
                "coordinates": [
                    16.3994607,
                    48.251733
                ]
            },
            "properties": {
                "name": "Tora-San-Park"
            }
        },
        {
            "type": "Feature",
            "geometry": {
                "type": "Point",
                "coordinates": [
                    16.3005383,
                    48.1780801
                ]
            },
            "properties": {
                "name": "Maxingpark"
            }
        },
        {
            "type": "Feature",
            "geometry": {
                "type": "Point",
                "coordinates": [
                    16.3656276,
                    48.1659899
                ]
            },
            "properties": {
                "name": "Parkanlage Rudolfsh\u00fcgelgasse"
            }
        },
        {
            "type": "Feature",
            "geometry": {
                "type": "Point",
                "coordinates": [
                    16.3608998,
                    48.1746233
                ]
            },
            "properties": {
                "name": "Barankapark-Hellerwiese"
            }
        },
        {
            "type": "Feature",
            "geometry": {
                "type": "Point",
                "coordinates": [
                    16.3685421,
                    48.1708919
                ]
            }
        },
        {
            "type": "Feature",
            "geometry": {
                "type": "Point",
                "coordinates": [
                    16.3688972,
                    48.1779637
                ]
            },
            "properties": {
                "name": "Erlachpark"
            }
        },
        {
            "type": "Feature",
            "geometry": {
                "type": "Point",
                "coordinates": [
                    14.7743708,
                    47.9577616
                ]
            },
            "properties": {
                "name": "Schillerpark"
            }
        },
        {
            "type": "Feature",
            "geometry": {
                "type": "Point",
                "coordinates": [
                    16.3438618,
                    48.217061
                ]
            },
            "properties": {
                "name": "Gabriele-Possanner-Park"
            }
        },
        {
            "type": "Feature",
            "geometry": {
                "type": "Point",
                "coordinates": [
                    16.343626,
                    48.1864273
                ]
            }
        },
        {
            "type": "Feature",
            "geometry": {
                "type": "Point",
                "coordinates": [
                    16.3449799,
                    48.1848277
                ]
            },
            "properties": {
                "name": "Margareteng\u00fcrtel Park"
            }
        },
        {
            "type": "Feature",
            "geometry": {
                "type": "Point",
                "coordinates": [
                    16.3468112,
                    48.1827227
                ]
            },
            "properties": {
                "name": "Margareteng\u00fcrtel Park"
            }
        },
        {
            "type": "Feature",
            "geometry": {
                "type": "Point",
                "coordinates": [
                    16.3506347,
                    48.1802418
                ]
            },
            "properties": {
                "name": "Herweghpark"
            }
        },
        {
            "type": "Feature",
            "geometry": {
                "type": "Point",
                "coordinates": [
                    16.3422344,
                    48.1938385
                ]
            },
            "properties": {
                "name": "Minna-Lachs-Park"
            }
        },
        {
            "type": "Feature",
            "geometry": {
                "type": "Point",
                "coordinates": [
                    16.3438675,
                    48.193771
                ]
            },
            "properties": {
                "name": "Vinzenz-von-Paul-Park"
            }
        },
        {
            "type": "Feature",
            "geometry": {
                "type": "Point",
                "coordinates": [
                    16.3484738,
                    48.1949438
                ]
            },
            "properties": {
                "name": "Loquaipark"
            }
        },
        {
            "type": "Feature",
            "geometry": {
                "type": "Point",
                "coordinates": [
                    16.2737592,
                    48.1562455
                ]
            },
            "properties": {
                "name": "Druk-Yul-Park"
            }
        },
        {
            "type": "Feature",
            "geometry": {
                "type": "Point",
                "coordinates": [
                    14.7740347,
                    47.962429
                ]
            }
        },
        {
            "type": "Feature",
            "geometry": {
                "type": "Point",
                "coordinates": [
                    14.7732143,
                    47.9587528
                ]
            }
        },
        {
            "type": "Feature",
            "geometry": {
                "type": "Point",
                "coordinates": [
                    13.8422039,
                    46.6202919
                ]
            },
            "properties": {
                "name": "Walter-von-der-Vogelweide-Park"
            }
        },
        {
            "type": "Feature",
            "geometry": {
                "type": "Point",
                "coordinates": [
                    16.3371864,
                    48.2354206
                ]
            }
        },
        {
            "type": "Feature",
            "geometry": {
                "type": "Point",
                "coordinates": [
                    13.7481799,
                    46.7739754
                ]
            },
            "properties": {
                "name": "Seepark"
            }
        },
        {
            "type": "Feature",
            "geometry": {
                "type": "Point",
                "coordinates": [
                    16.3058128,
                    48.3226193
                ]
            },
            "properties": {
                "name": "Schelhammerpark"
            }
        },
        {
            "type": "Feature",
            "geometry": {
                "type": "Point",
                "coordinates": [
                    15.424027,
                    47.0578542
                ]
            }
        },
        {
            "type": "Feature",
            "geometry": {
                "type": "Point",
                "coordinates": [
                    16.3673235,
                    48.0614602
                ]
            },
            "properties": {
                "name": "Laxenburger Schlosspark"
            }
        },
        {
            "type": "Feature",
            "geometry": {
                "type": "Point",
                "coordinates": [
                    14.0440756,
                    46.6194965
                ]
            }
        },
        {
            "type": "Feature",
            "geometry": {
                "type": "Point",
                "coordinates": [
                    14.0427613,
                    46.613494
                ]
            },
            "properties": {
                "name": "Kurpark"
            }
        },
        {
            "type": "Feature",
            "geometry": {
                "type": "Point",
                "coordinates": [
                    14.0442311,
                    46.6112906
                ]
            },
            "properties": {
                "name": "Strandpark"
            }
        },
        {
            "type": "Feature",
            "geometry": {
                "type": "Point",
                "coordinates": [
                    16.2387596,
                    47.8369942
                ]
            }
        },
        {
            "type": "Feature",
            "geometry": {
                "type": "Point",
                "coordinates": [
                    16.3564692,
                    48.220333
                ]
            }
        },
        {
            "type": "Feature",
            "geometry": {
                "type": "Point",
                "coordinates": [
                    16.2770252,
                    48.1688585
                ]
            }
        },