{
    "type": "FeatureCollection",
    "features": [
        {
            "type": "Feature",
            "geometry": {
                "type": "Point",
                "coordinates": [
                    9.1382658,
                    55.4780503
                ]
            },
            "properties": {
                "name": "Thorkilds Vinhandel"
            }
        },
        {
            "type": "Feature",
            "geometry": {
                "type": "Point",
                "coordinates": [
                    12.57179,
                    55.703609
                ]
            }
        },
        {
            "type": "Feature",
            "geometry": {
                "type": "Point",
                "coordinates": [
                    12.5444597,
                    55.8394452
                ]
            },
            "properties": {
                "name": "Vin & spiritus"
            }
        },
        {
            "type": "Feature",
            "geometry": {
                "type": "Point",
                "coordinates": [
                    12.5767603,
                    55.6666481
                ]
            },
            "properties": {
                "name": "Holte Vinlager"
            }
        },
        {
            "type": "Feature",
            "geometry": {
                "type": "Point",
                "coordinates": [
                    8.9535214,
                    56.623083
                ]
            },
            "properties": {
                "name": "Pedersborg Vin"
            }
        },
        {
            "type": "Feature",
            "geometry": {
                "type": "Point",
                "coordinates": [
                    12.598111,
                    55.6664936
                ]
            },
            "properties": {
                "name": "Los Andes"
            }
        },
        {
            "type": "Feature",
            "geometry": {
                "type": "Point",
                "coordinates": [
                    9.4718375,
                    55.491684
                ]
            },
            "properties": {
                "name": "Kolding Vinhandel"
            }
        },
        {
            "type": "Feature",
            "geometry": {
                "type": "Point",
                "coordinates": [
                    12.533069,
                    55.6809859
                ]
            },
            "properties": {
                "name": "Qualityworld"
            }
        },
        {
            "type": "Feature",
            "geometry": {
                "type": "Point",
                "coordinates": [
                    10.2038207,
                    56.1475456
                ]
            },
            "properties": {
                "name": "Aarhus Vinhandel"
            }
        },
        {
            "type": "Feature",
            "geometry": {
                "type": "Point",
                "coordinates": [
                    12.3459176,
                    55.6185432
                ]
            }
        },
        {
            "type": "Feature",
            "geometry": {
                "type": "Point",
                "coordinates": [
                    12.4864956,
                    55.6283607
                ]
            },
            "properties": {
                "name": "Skjold Burne Vinhandel"
            }
        },
        {
            "type": "Feature",
            "geometry": {
                "type": "Point",
                "coordinates": [
                    12.602269,
                    55.664379
                ]
            },
            "properties": {
                "name": "Gunnar Madsen Vin & Tobak"
            }
        },
        {
            "type": "Feature",
            "geometry": {
                "type": "Point",
                "coordinates": [
                    12.6127576,
                    55.6171636
                ]
            },
            "properties": {
                "name": "Bryg Selv"
            }
        },
        {
            "type": "Feature",
            "geometry": {
                "type": "Point",
                "coordinates": [
                    12.4386184,
                    55.6635629
                ]
            },
            "properties": {
                "name": "Br\u00f8ndby\u00f8ster Vinhandel"
            }
        },
        {
            "type": "Feature",
            "geometry": {
                "type": "Point",
                "coordinates": [
                    12.4384592,
                    55.6656605
                ]
            },
            "properties": {
                "name": "Johns Vinhandel"
            }
        },
        {
            "type": "Feature",
            "geometry": {
                "type": "Point",
                "coordinates": [
                    12.589228,
                    55.686275
                ]
            },
            "properties": {
                "name": "Skjold Burne"
            }
        },
        {
            "type": "Feature",
            "geometry": {
                "type": "Point",
                "coordinates": [
                    8.451789,
                    55.4678098
                ]
            },
            "properties": {
                "name": "Vinbaren"
            }
        },
        {
            "type": "Feature",
            "geometry": {
                "type": "Point",
                "coordinates": [
                    12.6150473,
                    55.6453518
                ]
            },
            "properties": {
                "name": "Holte Vinlager"
            }
        },
        {
            "type": "Feature",
            "geometry": {
                "type": "Point",
                "coordinates": [
                    12.5847394,
                    55.680161
                ]
            },
            "properties": {
                "name": "Skjold Burne"
            }
        },
        {
            "type": "Feature",
            "geometry": {
                "type": "Point",
                "coordinates": [
                    12.5767094,
                    55.6772131
                ]
            },
            "properties": {
                "name": "Vin Fin"
            }
        },
        {
            "type": "Feature",
            "geometry": {
                "type": "Point",
                "coordinates": [
                    12.5800318,
                    55.6800144
                ]
            },
            "properties": {
                "name": "Cadenheads Whisky Shop"
            }
        },
        {
            "type": "Feature",
            "geometry": {
                "type": "Point",
                "coordinates": [
                    12.5816783,
                    55.6811342
                ]
            },
            "properties": {
                "name": "Kj\u00e6r & Sommerfeldt"
            }
        },
        {
            "type": "Feature",
            "geometry": {
                "type": "Point",
                "coordinates": [
                    12.5762531,
                    55.6833354
                ]
            },
            "properties": {
                "name": "Rum\u00e6nske Vine"
            }
        },
        {
            "type": "Feature",
            "geometry": {
                "type": "Point",
                "coordinates": [
                    10.1986993,
                    56.1479905
                ]
            },
            "properties": {
                "name": "Smag F\u00f8rst"
            }
        },
        {
            "type": "Feature",
            "geometry": {
                "type": "Point",
                "coordinates": [
                    9.5407217,
                    55.239027
                ]
            }
        },
        {
            "type": "Feature",
            "geometry": {
                "type": "Point",
                "coordinates": [
                    12.3997461,
                    55.6662603
                ]
            },
            "properties": {
                "name": "Kokkens Vinhus"
            }
        },
        {
            "type": "Feature",
            "geometry": {
                "type": "Point",
                "coordinates": [
                    8.6914815,
                    56.955519
                ]
            },
            "properties": {
                "name": "Skjold Burne Vin og ost"
            }
        },
        {
            "type": "Feature",
            "geometry": {
                "type": "Point",
                "coordinates": [
                    12.4997158,
                    55.7046456
                ]
            }
        },
        {
            "type": "Feature",
            "geometry": {
                "type": "Point",
                "coordinates": [
                    12.5630344,
                    55.6893015
                ]
            },
            "properties": {
                "name": "Rh\u00f4ne i Ravnsborggade"
            }
        },
        {
            "type": "Feature",
            "geometry": {
                "type": "Point",
                "coordinates": [
                    12.5313536,
                    55.7208954
                ]
            }
        },
        {
            "type": "Feature",
            "geometry": {
                "type": "Point",
                "coordinates": [
                    12.1885281,
                    55.4539198
                ]
            },
            "properties": {
                "name": "Bryggeriet Braunstein"
            }
        },
        {
            "type": "Feature",
            "geometry": {
                "type": "Point",
                "coordinates": [
                    12.5726746,
                    55.6903236
                ]
            },
            "properties": {
                "name": "Winetrader"
            }
        },
        {
            "type": "Feature",
            "geometry": {
                "type": "Point",
                "coordinates": [
                    8.4805725,
                    55.4756325
                ]
            },
            "properties": {
                "name": "Jagthytten"
            }
        },
        {
            "type": "Feature",
            "geometry": {
                "type": "Point",
                "coordinates": [
                    12.4427806,
                    55.722202
                ]
            },
            "properties": {
                "name": "Vindruen"
            }
        },
        {
            "type": "Feature",
            "geometry": {
                "type": "Point",
                "coordinates": [
                    12.577672,
                    55.7029415
                ]
            },
            "properties": {
                "name": "Holte Vinlager"
            }
        },
        {
            "type": "Feature",
            "geometry": {
                "type": "Point",
                "coordinates": [
                    12.0851931,
                    55.6390768
                ]
            },
            "properties": {
                "name": "AH-Vin"
            }
        },
        {
            "type": "Feature",
            "geometry": {
                "type": "Point",
                "coordinates": [
                    10.591206,
                    57.7228887
                ]
            },
            "properties": {
                "name": "Skagen Vin og Gastronomi"
            }
        },
        {
            "type": "Feature",
            "geometry": {
                "type": "Point",
                "coordinates": [
                    8.760288,
                    55.3276126
                ]
            },
            "properties": {
                "name": "Ribe Bryghus"
            }
        },
        {
            "type": "Feature",
            "geometry": {
                "type": "Point",
                "coordinates": [
                    9.9909484,
                    57.4587044
                ]
            },
            "properties": {
                "name": "Skjold Burne Vin & Tobak"
            }
        },
        {
            "type": "Feature",
            "geometry": {
                "type": "Point",
                "coordinates": [
                    10.3798537,
                    55.3939321
                ]
            },
            "properties": {
                "name": "H J Hansen"
            }
        },
        {
            "type": "Feature",
            "geometry": {
                "type": "Point",
                "coordinates": [
                    12.5738987,
                    55.6832077
                ]
            },
            "properties": {
                "name": "Kaffe-The-Vink\u00e6lderen"
            }
        },
        {
            "type": "Feature",
            "geometry": {
                "type": "Point",
                "coordinates": [
                    9.921136,
                    57.04574
                ]
            },
            "properties": {
                "name": "\u00d8lkonsortiet"
            }
        },
        {
            "type": "Feature",
            "geometry": {
                "type": "Point",
                "coordinates": [
                    10.7360407,
                    55.169989
                ]
            },
            "properties": {
                "name": "Den Belgiske \u00d8lmand"
            }
        },
        {
            "type": "Feature",
            "geometry": {
                "type": "Point",
                "coordinates": [
                    9.876619,
                    55.45968
                ]
            },
            "properties": {
                "name": "Fyns Vin Kompagni"
            }
        },
        {
            "type": "Feature",
            "geometry": {
                "type": "Point",
                "coordinates": [
                    11.70936,
                    55.71769
                ]
            },
            "properties": {
                "name": "Eriksens Vinhandel"
            }
        },
        {
            "type": "Feature",
            "geometry": {
                "type": "Point",
                "coordinates": [
                    12.32679,
                    55.59436
                ]
            },
            "properties": {
                "name": "Vinklubben"
            }
        },
        {
            "type": "Feature",
            "geometry": {
                "type": "Point",
                "coordinates": [
                    11.71288,
                    55.71735
                ]
            },
            "properties": {
                "name": "Vinoble"
            }
        },
        {
            "type": "Feature",
            "geometry": {
                "type": "Point",
                "coordinates": [
                    12.48957,
                    55.68785
                ]
            },
            "properties": {
                "name": "Skjold Burne Vinhandel"
            }
        },
        {
            "type": "Feature",
            "geometry": {
                "type": "Point",
                "coordinates": [
                    12.063142,
                    55.8374043
                ]
            },
            "properties": {
                "name": "Frederikssund Vinlager"
            }
        },
        {
            "type": "Feature",
            "geometry": {
                "type": "Point",
                "coordinates": [
                    9.7575346,
                    55.2536165
                ]
            },
            "properties": {
                "name": "\u00c5r\u00f8 Ving\u00e5rd"
            }
        },
        {
            "type": "Feature",
            "geometry": {
                "type": "Point",
                "coordinates": [
                    8.6951302,
                    56.9547536
                ]
            },
            "properties": {
                "name": "Vinspecialisten"
            }
        },
        {
            "type": "Feature",
            "geometry": {
                "type": "Point",
                "coordinates": [
                    9.583941,
                    57.11424
                ]
            },
            "properties": {
                "name": "Sloths Vin"
            }
        },
        {
            "type": "Feature",
            "geometry": {
                "type": "Point",
                "coordinates": [
                    12.397872,
                    55.643961
                ]
            },
            "properties": {
                "name": "Skovgaard Vine"
            }
        },
        {
            "type": "Feature",
            "geometry": {
                "type": "Point",
                "coordinates": [
                    10.3913649,
                    55.3970941
                ]
            },
            "properties": {
                "name": "Vinoble"
            }
        },
        {
            "type": "Feature",
            "geometry": {
                "type": "Point",
                "coordinates": [
                    10.4267472,
                    55.3826503
                ]
            },
            "properties": {
                "name": "Vinspecialisten"
            }
        },
        {
            "type": "Feature",
            "geometry": {
                "type": "Point",
                "coordinates": [
                    10.4262426,
                    55.3842552
                ]
            },
            "properties": {
                "name": "Johansens Vinhandel"
            }
        },
        {
            "type": "Feature",
            "geometry": {
                "type": "Point",
                "coordinates": [
                    11.8468508,
                    55.9647412
                ]
            },
            "properties": {
                "name": "Halsn\u00e6s Bryghus Butik"
            }
        },
        {
            "type": "Feature",
            "geometry": {
                "type": "Point",
                "coordinates": [
                    10.594186,
                    55.832786
                ]
            },
            "properties": {
                "name": "Carlos corner"
            }
        },
        {
            "type": "Feature",
            "geometry": {
                "type": "Point",
                "coordinates": [
                    10.04483,
                    56.32741
                ]
            },
            "properties": {
                "name": "Skjold Burne Hadsten"
            }
        },
        {
            "type": "Feature",
            "geometry": {
                "type": "Point",
                "coordinates": [
                    12.4713922,
                    55.7950896
                ]
            },
            "properties": {
                "name": "Holte Vinlager"
            }
        },
        {
            "type": "Feature",
            "geometry": {
                "type": "Point",
                "coordinates": [
                    11.9634667,
                    55.3270563
                ]
            },
            "properties": {
                "name": "T\u00f8nden"
            }
        },
        {
            "type": "Feature",
            "geometry": {
                "type": "Point",
                "coordinates": [
                    9.7900931,
                    54.9098821
                ]
            },
            "properties": {
                "name": "Wohlenberg"
            }
        },
        {
            "type": "Feature",
            "geometry": {
                "type": "Point",
                "coordinates": [
                    9.7934398,
                    54.9131178
                ]
            },
            "properties": {
                "name": "Vinspecialisten"
            }
        },
        {
            "type": "Feature",
            "geometry": {
                "type": "Point",
                "coordinates": [
                    11.9956814,
                    54.7596643
                ]
            },
            "properties": {
                "name": "Bjerget"
            }
        },
        {
            "type": "Feature",
            "geometry": {
                "type": "Point",
                "coordinates": [
                    14.9715718,
                    55.2120679
                ]
            },
            "properties": {
                "name": "Provianten"
            }
        },
        {
            "type": "Feature",
            "geometry": {
                "type": "Point",
                "coordinates": [
                    10.6038525,
                    55.0597726
                ]
            },
            "properties": {
                "name": "Kunstbryggeriet Far & S\u00f8n Restaurant"
            }
        },
        {
            "type": "Feature",
            "geometry": {
                "type": "Point",
                "coordinates": [
                    10.4793856,
                    55.2364847
                ]
            },
            "properties": {
                "name": "Vinoble"
            }
        },
        {
            "type": "Feature",
            "geometry": {
                "type": "Point",
                "coordinates": [
                    12.178705,
                    55.457085
                ]
            },
            "properties": {
                "name": "Vino-k"
            }
        },
        {
            "type": "Feature",
            "geometry": {
                "type": "Point",
                "coordinates": [
                    12.5981863,
                    55.6664497
                ]
            },
            "properties": {
                "name": "Vinos Los Andes"
            }
        },
        {
            "type": "Feature",
            "geometry": {
                "type": "Point",
                "coordinates": [
                    12.3625782,
                    55.7319129
                ]
            },
            "properties": {
                "name": "Skjold Burne"
            }
        },
        {
            "type": "Feature",
            "geometry": {
                "type": "Point",
                "coordinates": [
                    12.355287,
                    55.724834
                ]
            },
            "properties": {
                "name": "Wine & Convenience"
            }
        },
        {
            "type": "Feature",
            "geometry": {
                "type": "Point",
                "coordinates": [
                    12.524747,
                    55.679185
                ]
            },
            "properties": {
                "name": "Purple Wine"
            }
        },
        {
            "type": "Feature",
            "geometry": {
                "type": "Point",
                "coordinates": [
                    8.7970849,
                    56.2657043
                ]
            },
            "properties": {
                "name": "Aulum Vinhandel"
            }
        },
        {
            "type": "Feature",
            "geometry": {
                "type": "Point",
                "coordinates": [
                    11.4421178,
                    54.9635463
                ]
            },
            "properties": {
                "name": "Kernegaarden"
            }
        },
        {
            "type": "Feature",
            "geometry": {
                "type": "Point",
                "coordinates": [
                    12.5566162,
                    55.6703133
                ]
            },
            "properties": {
                "name": "\u00d8lbutikken"
            }
        },
        {
            "type": "Feature",
            "geometry": {
                "type": "Point",
                "coordinates": [
                    9.7325768,
                    56.0254114
                ]
            },
            "properties": {
                "name": "Fadandel.DK"
            }
        },
        {
            "type": "Feature",
            "geometry": {
                "type": "Point",
                "coordinates": [
                    12.194833,
                    55.041754
                ]
            },
            "properties": {
                "name": "Noorbohandelen"
            }
        },
        {
            "type": "Feature",
            "geometry": {
                "type": "Point",
                "coordinates": [
                    12.5225991,
                    55.708983
                ]
            },
            "properties": {
                "name": "Cocktailcompany"
            }
        },
        {
            "type": "Feature",
            "geometry": {
                "type": "Point",
                "coordinates": [
                    9.2866202,
                    55.4294091
                ]
            },
            "properties": {
                "name": "Skjold Burne"
            }
        },
        {
            "type": "Feature",
            "geometry": {
                "type": "Point",
                "coordinates": [
                    9.5573693,
                    55.4579503
                ]
            },
            "properties": {
                "name": "Vinduet Vincaf\u00e9"
            }
        },
        {
            "type": "Feature",
            "geometry": {
                "type": "Point",
                "coordinates": [
                    9.3980929,
                    56.4666733
                ]
            },
            "properties": {
                "name": "Lahvino Viborg"
            }
        },
        {
            "type": "Feature",
            "geometry": {
                "type": "Point",
                "coordinates": [
                    9.6558049,
                    54.8984421
                ]
            },
            "properties": {
                "name": "Halmhuset Vin"
            }
        },
        {
            "type": "Feature",
            "geometry": {
                "type": "Point",
                "coordinates": [
                    12.54968,
                    55.67418
                ]
            },
            "properties": {
                "name": "Juuls Vin & Spiritus"
            }
        },
        {
            "type": "Feature",
            "geometry": {
                "type": "Point",
                "coordinates": [
                    12.5536,
                    55.67775
                ]
            },
            "properties": {
                "name": "Sprit & Co"
            }
        },
        {
            "type": "Feature",
            "geometry": {
                "type": "Point",
                "coordinates": [
                    9.5751134,
                    56.4615931
                ]
            },
            "properties": {
                "name": "Blomsterv\u00e6rkstedet Over Viskum"
            }
        },
        {
            "type": "Feature",
            "geometry": {
                "type": "Point",
                "coordinates": [
                    12.6131185,
                    56.0341411
                ]
            },
            "properties": {
                "name": "Helsing\u00f8r Vinhandel"
            }
        },
        {
            "type": "Feature",
            "geometry": {
                "type": "Point",
                "coordinates": [
                    9.5467974,
                    56.1670154
                ]
            },
            "properties": {
                "name": "Piaf Vinhandel"
            }
        },
        {
            "type": "Feature",
            "geometry": {
                "type": "Point",
                "coordinates": [
                    10.3944355,
                    55.3814142
                ]
            },
            "properties": {
                "name": "Sinne Vinimport"
            }
        },
        {
            "type": "Feature",
            "geometry": {
                "type": "Point",
                "coordinates": [
                    8.6900673,
                    55.2917033
                ]
            },
            "properties": {
                "name": "Vester Vedsted Ving\u00e5rd Cafe"
            }
        },
        {
            "type": "Feature",
            "geometry": {
                "type": "Point",
                "coordinates": [
                    11.138072,
                    55.329904
                ]
            },
            "properties": {
                "name": "S\u00f8berg vin"
            }
        },
        {
            "type": "Feature",
            "geometry": {
                "type": "Point",
                "coordinates": [
                    10.6982008,
                    55.0784969
                ]
            },
            "properties": {
                "name": "Skaarup\u00f8re Ving\u00e5rd"
            }
        },
        {
            "type": "Feature",
            "geometry": {
                "type": "Point",
                "coordinates": [
                    8.9746858,
                    56.1140717
                ]
            },
            "properties": {
                "name": "Excellent Wine"
            }
        },
        {
            "type": "Feature",
            "geometry": {
                "type": "Point",
                "coordinates": [
                    12.5802538,
                    55.6978923
                ]
            },
            "properties": {
                "name": "Krone Vin"
            }
        },
        {
            "type": "Feature",
            "geometry": {
                "type": "Point",
                "coordinates": [
                    10.1986583,
                    56.1551693
                ]
            },
            "properties": {
                "name": "Mad Vin Hjem"
            }
        },
        {
            "type": "Feature",
            "geometry": {
                "type": "Point",
                "coordinates": [
                    12.5499149,
                    55.7153127
                ]
            },
            "properties": {
                "name": "GetCocktails.com"
            }
        },
        {
            "type": "Feature",
            "geometry": {
                "type": "Point",
                "coordinates": [
                    11.7655159,
                    55.4833751
                ]
            },
            "properties": {
                "name": "Slangerupgaard"
            }
        },
        {
            "type": "Feature",
            "geometry": {
                "type": "Point",
                "coordinates": [
                    8.4572735,
                    55.4655661
                ]
            },
            "properties": {
                "name": "Mundsk\u00e6nken"
            }
        },
        {
            "type": "Feature",
            "geometry": {
                "type": "Point",
                "coordinates": [
                    12.5452324,
                    55.6919339
                ]
            },
            "properties": {
                "name": "Den sidste dr\u00e5be"
            }
        },
        {
            "type": "Feature",
            "geometry": {
                "type": "Point",
                "coordinates": [
                    10.2086292,
                    56.1605011
                ]
            },
            "properties": {
                "name": "Flask"
            }
        },
        {
            "type": "Feature",
            "geometry": {
                "type": "Point",
                "coordinates": [
                    12.5168096,
                    55.6901689
                ]
            },
            "properties": {
                "name": "Vin\u00f8l Hobby"
            }
        },
        {
            "type": "Feature",
            "geometry": {
                "type": "Point",
                "coordinates": [
                    9.7589866,
                    55.5672774
                ]
            },
            "properties": {
                "name": "Eriksens"
            }
        },
        {
            "type": "Feature",
            "geometry": {
                "type": "Point",
                "coordinates": [
                    12.5710641,
                    55.7601444
                ]
            },
            "properties": {
                "name": "Holger Frederiksen's Eftf"
            }
        },
        {
            "type": "Feature",
            "geometry": {
                "type": "Point",
                "coordinates": [
                    9.4722658,
                    55.485514
                ]
            },
            "properties": {
                "name": "Vin Med Mere"
            }
        },
        {
            "type": "Feature",
            "geometry": {
                "type": "Point",
                "coordinates": [
                    9.8138239,
                    56.9374581
                ]
            },
            "properties": {
                "name": "Caf\u00e9 Guldb\u00e6k Ving\u00e5rd"
            }
        },
        {
            "type": "Feature",
            "geometry": {
                "type": "Point",
                "coordinates": [
                    8.6815025,
                    56.9539309
                ]
            },
            "properties": {
                "name": "Vin & Spiritus"
            }
        },
        {
            "type": "Feature",
            "geometry": {
                "type": "Point",
                "coordinates": [
                    8.4405964,
                    55.4733038
                ]
            },
            "properties": {
                "name": "Vinoman"
            }
        },
        {
            "type": "Feature",
            "geometry": {
                "type": "Point",
                "coordinates": [
                    10.1783717,
                    56.1391587
                ]
            },
            "properties": {
                "name": "Marselis Vine"
            }
        },
        {
            "type": "Feature",
            "geometry": {
                "type": "Point",
                "coordinates": [
                    9.9168798,
                    57.048606
                ]
            },
            "properties": {
                "name": "D'Wine"
            }
        },
        {
            "type": "Feature",
            "geometry": {
                "type": "Point",
                "coordinates": [
                    12.61289,
                    56.03429
                ]
            },
            "properties": {
                "name": "Kroatisk vin & Delikatesser"
            }
        },
        {
            "type": "Feature",
            "geometry": {
                "type": "Point",
                "coordinates": [
                    11.985131,
                    55.669231
                ]
            },
            "properties": {
                "name": "Herslev Bryghus G\u00e5rdbutik og \u00d8lsmagning"
            }
        },
        {
            "type": "Feature",
            "geometry": {
                "type": "Point",
                "coordinates": [
                    9.375479,
                    56.398863
                ]
            },
            "properties": {
                "name": "Margarita Wines Butik"
            }
        },
        {
            "type": "Feature",
            "geometry": {
                "type": "Point",
                "coordinates": [
                    9.9143179,
                    55.4649624
                ]
            },
            "properties": {
                "name": "Indslev Bryggeri"
            }
        },
        {
            "type": "Feature",
            "geometry": {
                "type": "Point",
                "coordinates": [
                    8.4429133,
                    55.4666703
                ]
            },
            "properties": {
                "name": "Vinspecialisten"
            }
        },
        {
            "type": "Feature",
            "geometry": {
                "type": "Point",
                "coordinates": [
                    10.5368343,
                    57.4413931
                ]
            },
            "properties": {
                "name": "Vinspecialisten"
            }
        },
        {
            "type": "Feature",
            "geometry": {
                "type": "Point",
                "coordinates": [
                    8.432332,
                    55.4749609
                ]
            }
        },
        {
            "type": "Feature",
            "geometry": {
                "type": "Point",
                "coordinates": [
                    12.6152781,
                    56.0355176
                ]
            },
            "properties": {
                "name": "Trekroner vin"
            }
        },
        {
            "type": "Feature",
            "geometry": {
                "type": "Point",
                "coordinates": [
                    12.5588469,
                    55.6916227
                ]
            },
            "properties": {
                "name": "Shoppen"
            }
        },
        {
            "type": "Feature",
            "geometry": {
                "type": "Point",
                "coordinates": [
                    12.5679047,
                    55.6848612
                ]
            },
            "properties": {
                "name": "SmagF\u00f8rst"
            }
        },
        {
            "type": "Feature",
            "geometry": {
                "type": "Point",
                "coordinates": [
                    10.2043075,
                    56.1577307
                ]
            },
            "properties": {
                "name": "Pinot Vin og Spiritus"
            }
        },
        {
            "type": "Feature",
            "geometry": {
                "type": "Point",
                "coordinates": [
                    12.6347325,
                    55.6384729
                ]
            },
            "properties": {
                "name": "Skotteg\u00e5rden Vin og Tobak"
            }
        },
        {
            "type": "Feature",
            "geometry": {
                "type": "Point",
                "coordinates": [
                    10.79161,
                    55.312393
                ]
            },
            "properties": {
                "name": "Vinspecialisten Nyborg"
            }
        },
        {
            "type": "Feature",
            "geometry": {
                "type": "Point",
                "coordinates": [
                    10.1997054,
                    56.1503901
                ]
            },
            "properties": {
                "name": "Vinhandel Ebbe Nielsen"
            }
        },
        {
            "type": "Feature",
            "geometry": {
                "type": "Point",
                "coordinates": [
                    9.8971776,
                    57.0143037
                ]
            },
            "properties": {
                "name": "Sigurd M\u00fcller Vinhandel A/S"
            }
        }
    ],
    "crs": {
        "type": "name",
        "properties": {
            "name": "urn:ogc:def:crs:OGC:1.3:CRS84"
        }
    }
}