{
    "type": "FeatureCollection",
    "features": [
        {
            "type": "Feature",
            "geometry": {
                "type": "Point",
                "coordinates": [
                    2.3497522,
                    48.8407951
                ]
            },
            "properties": {
                "name": "La Fontaine aux Vins"
            }
        },
        {
            "type": "Feature",
            "geometry": {
                "type": "Point",
                "coordinates": [
                    4.9027974,
                    46.5848394
                ]
            },
            "properties": {
                "name": "Les Vignerons de Mancey"
            }
        },
        {
            "type": "Feature",
            "geometry": {
                "type": "Point",
                "coordinates": [
                    5.4459994,
                    43.5145443
                ]
            },
            "properties": {
                "name": "Simplement vin"
            }
        },
        {
            "type": "Feature",
            "geometry": {
                "type": "Point",
                "coordinates": [
                    5.728402,
                    45.1879078
                ]
            },
            "properties": {
                "name": "Micaud C\u00f4t\u00e9 Rue"
            }
        },
        {
            "type": "Feature",
            "geometry": {
                "type": "Point",
                "coordinates": [
                    5.3294372,
                    43.5864642
                ]
            },
            "properties": {
                "name": "Domaine de la Cama\u00efssette"
            }
        },
        {
            "type": "Feature",
            "geometry": {
                "type": "Point",
                "coordinates": [
                    5.3180179,
                    43.5969142
                ]
            },
            "properties": {
                "name": "Domaine de la Montoraune"
            }
        },
        {
            "type": "Feature",
            "geometry": {
                "type": "Point",
                "coordinates": [
                    5.2986001,
                    43.6166949
                ]
            },
            "properties": {
                "name": "Domaine du Val Dernier"
            }
        },
        {
            "type": "Feature",
            "geometry": {
                "type": "Point",
                "coordinates": [
                    6.3532611,
                    46.9044165
                ]
            },
            "properties": {
                "name": "Au bon \u00c9chanson"
            }
        },
        {
            "type": "Feature",
            "geometry": {
                "type": "Point",
                "coordinates": [
                    2.2407451,
                    48.6607142
                ]
            },
            "properties": {
                "name": "La Cave de Nozay"
            }
        },
        {
            "type": "Feature",
            "geometry": {
                "type": "Point",
                "coordinates": [
                    6.3509114,
                    46.902323
                ]
            },
            "properties": {
                "name": "Vins Barthot"
            }
        },
        {
            "type": "Feature",
            "geometry": {
                "type": "Point",
                "coordinates": [
                    0.0610351,
                    43.6113582
                ]
            },
            "properties": {
                "name": "Cave de Plaisance"
            }
        },
        {
            "type": "Feature",
            "geometry": {
                "type": "Point",
                "coordinates": [
                    5.7238106,
                    45.1865887
                ]
            },
            "properties": {
                "name": "L'\u00c9chanson"
            }
        },
        {
            "type": "Feature",
            "geometry": {
                "type": "Point",
                "coordinates": [
                    2.419166,
                    47.0846539
                ]
            },
            "properties": {
                "name": "Aux c\u00e9pages de France"
            }
        },
        {
            "type": "Feature",
            "geometry": {
                "type": "Point",
                "coordinates": [
                    1.5217345,
                    43.6431098
                ]
            }
        },
        {
            "type": "Feature",
            "geometry": {
                "type": "Point",
                "coordinates": [
                    4.8486101,
                    45.7595617
                ]
            },
            "properties": {
                "name": "P\u00e9ch\u00e9s Malt\u00e9s"
            }
        },
        {
            "type": "Feature",
            "geometry": {
                "type": "Point",
                "coordinates": [
                    1.4441384,
                    43.5981222
                ]
            },
            "properties": {
                "name": "Nicolas"
            }
        },
        {
            "type": "Feature",
            "geometry": {
                "type": "Point",
                "coordinates": [
                    2.4871926,
                    42.6427265
                ]
            },
            "properties": {
                "name": "Cave Coop\u00e9rative Vinicole de Marquixanes"
            }
        },
        {
            "type": "Feature",
            "geometry": {
                "type": "Point",
                "coordinates": [
                    -1.7456794,
                    49.529759
                ]
            },
            "properties": {
                "name": "Cidre/Calvados Theo Capelle"
            }
        },
        {
            "type": "Feature",
            "geometry": {
                "type": "Point",
                "coordinates": [
                    7.4725155,
                    48.4620414
                ]
            },
            "properties": {
                "name": "Vins Robert Blanck"
            }
        },
        {
            "type": "Feature",
            "geometry": {
                "type": "Point",
                "coordinates": [
                    2.6889352,
                    48.4070177
                ]
            }
        },
        {
            "type": "Feature",
            "geometry": {
                "type": "Point",
                "coordinates": [
                    2.2597825,
                    48.9889405
                ]
            },
            "properties": {
                "name": "Les C\u00e9pages d'Ermont"
            }
        },
        {
            "type": "Feature",
            "geometry": {
                "type": "Point",
                "coordinates": [
                    7.9519396,
                    49.0374131
                ]
            }
        },
        {
            "type": "Feature",
            "geometry": {
                "type": "Point",
                "coordinates": [
                    2.097422,
                    49.0507696
                ]
            },
            "properties": {
                "name": "La Cave des Remparts"
            }
        },
        {
            "type": "Feature",
            "geometry": {
                "type": "Point",
                "coordinates": [
                    2.09703,
                    49.0491325
                ]
            }
        },
        {
            "type": "Feature",
            "geometry": {
                "type": "Point",
                "coordinates": [
                    -1.6203134,
                    48.0876303
                ]
            },
            "properties": {
                "name": "Les Caves de R\u00e9gusse"
            }
        },
        {
            "type": "Feature",
            "geometry": {
                "type": "Point",
                "coordinates": [
                    4.3584382,
                    43.8378602
                ]
            },
            "properties": {
                "name": "Nicolas"
            }
        },
        {
            "type": "Feature",
            "geometry": {
                "type": "Point",
                "coordinates": [
                    2.2594379,
                    48.9895391
                ]
            },
            "properties": {
                "name": "Nicolas"
            }
        },
        {
            "type": "Feature",
            "geometry": {
                "type": "Point",
                "coordinates": [
                    2.3951017,
                    48.8473574
                ]
            },
            "properties": {
                "name": "Cave Michel Renaud"
            }
        },
        {
            "type": "Feature",
            "geometry": {
                "type": "Point",
                "coordinates": [
                    3.8904666,
                    43.6091335
                ]
            },
            "properties": {
                "name": "Aux Grands Vins de France"
            }
        },
        {
            "type": "Feature",
            "geometry": {
                "type": "Point",
                "coordinates": [
                    3.8821141,
                    43.6030229
                ]
            },
            "properties": {
                "name": "Le Tire-Bouteilles"
            }
        },
        {
            "type": "Feature",
            "geometry": {
                "type": "Point",
                "coordinates": [
                    3.8810541,
                    43.6153766
                ]
            },
            "properties": {
                "name": "La Courte-\u00c9chelle"
            }
        },
        {
            "type": "Feature",
            "geometry": {
                "type": "Point",
                "coordinates": [
                    5.9562819,
                    46.5762882
                ]
            },
            "properties": {
                "name": "Ch\u00e2teau Bethanie"
            }
        },
        {
            "type": "Feature",
            "geometry": {
                "type": "Point",
                "coordinates": [
                    3.8777004,
                    43.605461
                ]
            },
            "properties": {
                "name": "Au Petit Bonheur"
            }
        },
        {
            "type": "Feature",
            "geometry": {
                "type": "Point",
                "coordinates": [
                    4.0756275,
                    48.2980682
                ]
            },
            "properties": {
                "name": "Nicolas"
            }
        },
        {
            "type": "Feature",
            "geometry": {
                "type": "Point",
                "coordinates": [
                    2.4058097,
                    48.8647287
                ]
            },
            "properties": {
                "name": "Nicolas"
            }
        },
        {
            "type": "Feature",
            "geometry": {
                "type": "Point",
                "coordinates": [
                    3.8704705,
                    43.5946276
                ]
            },
            "properties": {
                "name": "Les Caves du Mas Drevon"
            }
        },
        {
            "type": "Feature",
            "geometry": {
                "type": "Point",
                "coordinates": [
                    3.8582998,
                    43.6042445
                ]
            },
            "properties": {
                "name": "Marivin"
            }
        },
        {
            "type": "Feature",
            "geometry": {
                "type": "Point",
                "coordinates": [
                    2.5612015,
                    42.8139365
                ]
            },
            "properties": {
                "name": "Cave Majoral"
            }
        },
        {
            "type": "Feature",
            "geometry": {
                "type": "Point",
                "coordinates": [
                    2.5837501,
                    42.8103352
                ]
            },
            "properties": {
                "name": "Domaine Serrelongue"
            }
        },
        {
            "type": "Feature",
            "geometry": {
                "type": "Point",
                "coordinates": [
                    2.5953542,
                    42.810086
                ]
            },
            "properties": {
                "name": "Le Cellier des vignerons de Maury"
            }
        },
        {
            "type": "Feature",
            "geometry": {
                "type": "Point",
                "coordinates": [
                    166.4711423,
                    -22.2450048
                ]
            },
            "properties": {
                "name": "Noum\u00e9a Gros"
            }
        },
        {
            "type": "Feature",
            "geometry": {
                "type": "Point",
                "coordinates": [
                    2.2976079,
                    48.8377272
                ]
            },
            "properties": {
                "name": "Nicolas Convention"
            }
        },
        {
            "type": "Feature",
            "geometry": {
                "type": "Point",
                "coordinates": [
                    1.3224905,
                    43.5999755
                ]
            },
            "properties": {
                "name": "La Cave de Fac\u00e9cile"
            }
        },
        {
            "type": "Feature",
            "geometry": {
                "type": "Point",
                "coordinates": [
                    2.2704497,
                    48.9146851
                ]
            },
            "properties": {
                "name": "Caves Selection"
            }
        },
        {
            "type": "Feature",
            "geometry": {
                "type": "Point",
                "coordinates": [
                    3.8596882,
                    43.5933921
                ]
            },
            "properties": {
                "name": "Caves Calmels"
            }
        },
        {
            "type": "Feature",
            "geometry": {
                "type": "Point",
                "coordinates": [
                    3.865572,
                    43.6106559
                ]
            },
            "properties": {
                "name": "La Cave des Arceaux"
            }
        },
        {
            "type": "Feature",
            "geometry": {
                "type": "Point",
                "coordinates": [
                    3.864093,
                    43.612
                ]
            },
            "properties": {
                "name": "La Cave Gourmande"
            }
        },
        {
            "type": "Feature",
            "geometry": {
                "type": "Point",
                "coordinates": [
                    3.8746279,
                    43.6093338
                ]
            },
            "properties": {
                "name": "Maison R\u00e9gionale des Vins et Produits du Terroir"
            }
        },
        {
            "type": "Feature",
            "geometry": {
                "type": "Point",
                "coordinates": [
                    4.8416969,
                    45.7592593
                ]
            },
            "properties": {
                "name": "Le pressoir"
            }
        },
        {
            "type": "Feature",
            "geometry": {
                "type": "Point",
                "coordinates": [
                    2.4853109,
                    48.8037708
                ]
            },
            "properties": {
                "name": "Les Caves de la Mairie"
            }
        },
        {
            "type": "Feature",
            "geometry": {
                "type": "Point",
                "coordinates": [
                    2.3555429,
                    48.8522343
                ]
            },
            "properties": {
                "name": "Nicolas"
            }
        },
        {
            "type": "Feature",
            "geometry": {
                "type": "Point",
                "coordinates": [
                    3.8171792,
                    43.6274222
                ]
            },
            "properties": {
                "name": "Caveau des Halles"
            }
        },
        {
            "type": "Feature",
            "geometry": {
                "type": "Point",
                "coordinates": [
                    2.167248,
                    48.99075
                ]
            },
            "properties": {
                "name": "Nicolas"
            }
        },
        {
            "type": "Feature",
            "geometry": {
                "type": "Point",
                "coordinates": [
                    3.8767886,
                    43.6101352
                ]
            },
            "properties": {
                "name": "Ch\u00e2teau de Flaugergues"
            }
        },
        {
            "type": "Feature",
            "geometry": {
                "type": "Point",
                "coordinates": [
                    2.3717664,
                    48.8817462
                ]
            },
            "properties": {
                "name": "Nicolas"
            }
        },
        {
            "type": "Feature",
            "geometry": {
                "type": "Point",
                "coordinates": [
                    -0.4642785,
                    46.3260447
                ]
            },
            "properties": {
                "name": "Cavavin"
            }
        },
        {
            "type": "Feature",
            "geometry": {
                "type": "Point",
                "coordinates": [
                    -0.4632606,
                    46.3258835
                ]
            },
            "properties": {
                "name": "L'\u0153noteca"
            }
        },
        {
            "type": "Feature",
            "geometry": {
                "type": "Point",
                "coordinates": [
                    -4.4790329,
                    48.3970115
                ]
            },
            "properties": {
                "name": "Les Caves Savantes"
            }
        },
        {
            "type": "Feature",
            "geometry": {
                "type": "Point",
                "coordinates": [
                    5.4096632,
                    44.0918939
                ]
            },
            "properties": {
                "name": "Caveau Saltus"
            }
        },
        {
            "type": "Feature",
            "geometry": {
                "type": "Point",
                "coordinates": [
                    5.1089547,
                    45.6371077
                ]
            },
            "properties": {
                "name": "Cellier gourmand"
            }
        },
        {
            "type": "Feature",
            "geometry": {
                "type": "Point",
                "coordinates": [
                    2.8353542,
                    43.1757733
                ]
            },
            "properties": {
                "name": "Cave d'Orf\u00e9e"
            }
        },
        {
            "type": "Feature",
            "geometry": {
                "type": "Point",
                "coordinates": [
                    3.8155869,
                    43.6782456
                ]
            },
            "properties": {
                "name": "V. Marchand de Vins"
            }
        },
        {
            "type": "Feature",
            "geometry": {
                "type": "Point",
                "coordinates": [
                    6.1841091,
                    48.6921213
                ]
            },
            "properties": {
                "name": "Les Domaines"
            }
        },
        {
            "type": "Feature",
            "geometry": {
                "type": "Point",
                "coordinates": [
                    2.4853735,
                    48.8041912
                ]
            },
            "properties": {
                "name": "Nicolas"
            }
        },
        {
            "type": "Feature",
            "geometry": {
                "type": "Point",
                "coordinates": [
                    -0.6452216,
                    44.852321
                ]
            }
        },
        {
            "type": "Feature",
            "geometry": {
                "type": "Point",
                "coordinates": [
                    -0.325,
                    45.6903512
                ]
            },
            "properties": {
                "name": "Brasserie des Gabariers"
            }
        },
        {
            "type": "Feature",
            "geometry": {
                "type": "Point",
                "coordinates": [
                    3.2483421,
                    45.5439338
                ]
            },
            "properties": {
                "name": "Au bon c\u00f4teau"
            }
        },
        {
            "type": "Feature",
            "geometry": {
                "type": "Point",
                "coordinates": [
                    0.9744061,
                    46.8294071
                ]
            },
            "properties": {
                "name": "Le Ch\u00e2teau de Ris"
            }
        },
        {
            "type": "Feature",
            "geometry": {
                "type": "Point",
                "coordinates": [
                    3.129855,
                    42.4810659
                ]
            },
            "properties": {
                "name": "Domaine Bertha Maillol"
            }
        },
        {
            "type": "Feature",
            "geometry": {
                "type": "Point",
                "coordinates": [
                    2.3374625,
                    48.8537681
                ]
            }
        },
        {
            "type": "Feature",
            "geometry": {
                "type": "Point",
                "coordinates": [
                    4.04571,
                    49.2442867
                ]
            },
            "properties": {
                "name": "Taittinger"
            }
        },
        {
            "type": "Feature",
            "geometry": {
                "type": "Point",
                "coordinates": [
                    3.1276639,
                    42.4809195
                ]
            },
            "properties": {
                "name": "Cave Saint-Jacques"
            }
        },
        {
            "type": "Feature",
            "geometry": {
                "type": "Point",
                "coordinates": [
                    2.1464371,
                    47.1613796
                ]
            },
            "properties": {
                "name": "Christophe et Serge Gallon"
            }
        },
        {
            "type": "Feature",
            "geometry": {
                "type": "Point",
                "coordinates": [
                    2.0810567,
                    47.1665364
                ]
            },
            "properties": {
                "name": "Bigonneau"
            }
        },
        {
            "type": "Feature",
            "geometry": {
                "type": "Point",
                "coordinates": [
                    3.1330087,
                    42.4802342
                ]
            },
            "properties": {
                "name": "Domaine St S\u00e9bastien"
            }
        },
        {
            "type": "Feature",
            "geometry": {
                "type": "Point",
                "coordinates": [
                    2.253021,
                    48.9240367
                ]
            },
            "properties": {
                "name": "Nicolas"
            }
        },
        {
            "type": "Feature",
            "geometry": {
                "type": "Point",
                "coordinates": [
                    2.1639161,
                    48.7302791
                ]
            },
            "properties": {
                "name": "CAVE"
            }
        },
        {
            "type": "Feature",
            "geometry": {
                "type": "Point",
                "coordinates": [
                    7.2746413,
                    48.0996313
                ]
            },
            "properties": {
                "name": "Mullenbach"
            }
        },
        {
            "type": "Feature",
            "geometry": {
                "type": "Point",
                "coordinates": [
                    6.7051783,
                    48.0066217
                ]
            },
            "properties": {
                "name": "Lecomte Blaise"
            }
        },
        {
            "type": "Feature",
            "geometry": {
                "type": "Point",
                "coordinates": [
                    -0.3283179,
                    45.6929185
                ]
            },
            "properties": {
                "name": "La Cave de Visan"
            }
        },
        {
            "type": "Feature",
            "geometry": {
                "type": "Point",
                "coordinates": [
                    -1.3585784,
                    46.8230219
                ]
            },
            "properties": {
                "name": "Cave des Maines"
            }
        },
        {
            "type": "Feature",
            "geometry": {
                "type": "Point",
                "coordinates": [
                    -1.3405444,
                    45.9752687
                ]
            },
            "properties": {
                "name": "Cave des Vignerons R\u00e9unis"
            }
        },
        {
            "type": "Feature",
            "geometry": {
                "type": "Point",
                "coordinates": [
                    0.813859,
                    48.3292903
                ]
            },
            "properties": {
                "name": "Brasserie La Nogentaise"
            }
        },
        {
            "type": "Feature",
            "geometry": {
                "type": "Point",
                "coordinates": [
                    2.3094456,
                    48.8339438
                ]
            },
            "properties": {
                "name": "Cave ?"
            }
        },
        {
            "type": "Feature",
            "geometry": {
                "type": "Point",
                "coordinates": [
                    6.4111724,
                    47.8870099
                ]
            },
            "properties": {
                "name": "Distillerie Paul Devoille"
            }
        },
        {
            "type": "Feature",
            "geometry": {
                "type": "Point",
                "coordinates": [
                    6.4125783,
                    47.8888797
                ]
            },
            "properties": {
                "name": "Distilleries Peureux"
            }
        },
        {
            "type": "Feature",
            "geometry": {
                "type": "Point",
                "coordinates": [
                    3.9939296,
                    47.8625269
                ]
            },
            "properties": {
                "name": "Domaine de Maison Rouge"
            }
        },
        {
            "type": "Feature",
            "geometry": {
                "type": "Point",
                "coordinates": [
                    4.5583239,
                    47.2605237
                ]
            },
            "properties": {
                "name": "Vins sur vingt"
            }
        },
        {
            "type": "Feature",
            "geometry": {
                "type": "Point",
                "coordinates": [
                    9.3637752,
                    42.6998825
                ]
            },
            "properties": {
                "name": "Domaine Lazzarini"
            }
        },
        {
            "type": "Feature",
            "geometry": {
                "type": "Point",
                "coordinates": [
                    2.3392545,
                    49.0400509
                ]
            },
            "properties": {
                "name": "Nicolas"
            }
        },
        {
            "type": "Feature",
            "geometry": {
                "type": "Point",
                "coordinates": [
                    4.5544799,
                    47.2623638
                ]
            },
            "properties": {
                "name": "Bar"
            }
        },
        {
            "type": "Feature",
            "geometry": {
                "type": "Point",
                "coordinates": [
                    -0.325892,
                    45.6933281
                ]
            },
            "properties": {
                "name": "Cognath\u00e8que"
            }
        },
        {
            "type": "Feature",
            "geometry": {
                "type": "Point",
                "coordinates": [
                    166.3749543,
                    -22.1530201
                ]
            },
            "properties": {
                "name": "Maison Rodolfi"
            }
        },
        {
            "type": "Feature",
            "geometry": {
                "type": "Point",
                "coordinates": [
                    7.4361293,
                    48.4631964
                ]
            },
            "properties": {
                "name": "Paul Schoettel"
            }
        },
        {
            "type": "Feature",
            "geometry": {
                "type": "Point",
                "coordinates": [
                    -0.8504397,
                    45.3779254
                ]
            },
            "properties": {
                "name": "Ch\u00e2teau de la Tour de By"
            }
        },
        {
            "type": "Feature",
            "geometry": {
                "type": "Point",
                "coordinates": [
                    3.1284997,
                    42.4821927
                ]
            },
            "properties": {
                "name": "Domaine du Traginer"
            }
        },
        {
            "type": "Feature",
            "geometry": {
                "type": "Point",
                "coordinates": [
                    2.2601064,
                    48.9622101
                ]
            },
            "properties": {
                "name": "Inter-Caves"
            }
        },
        {
            "type": "Feature",
            "geometry": {
                "type": "Point",
                "coordinates": [
                    2.246865,
                    48.8394862
                ]
            },
            "properties": {
                "name": "Nicolas"
            }
        },
        {
            "type": "Feature",
            "geometry": {
                "type": "Point",
                "coordinates": [
                    -1.0322129,
                    45.627894
                ]
            },
            "properties": {
                "name": "Cave Ch\u00e2teau Berthenon"
            }
        },
        {
            "type": "Feature",
            "geometry": {
                "type": "Point",
                "coordinates": [
                    7.2650205,
                    48.1385709
                ]
            },
            "properties": {
                "name": "Cave de l'Ami Fritz"
            }
        },
        {
            "type": "Feature",
            "geometry": {
                "type": "Point",
                "coordinates": [
                    7.2633116,
                    48.1387619
                ]
            },
            "properties": {
                "name": "s Bierladl"
            }
        },
        {
            "type": "Feature",
            "geometry": {
                "type": "Point",
                "coordinates": [
                    7.2631809,
                    48.138771
                ]
            },
            "properties": {
                "name": "Alambics Pressoirs"
            }
        },
        {
            "type": "Feature",
            "geometry": {
                "type": "Point",
                "coordinates": [
                    2.2427412,
                    48.8352107
                ]
            },
            "properties": {
                "name": "Nicolas"
            }
        },
        {
            "type": "Feature",
            "geometry": {
                "type": "Point",
                "coordinates": [
                    7.2599693,
                    48.1401453
                ]
            },
            "properties": {
                "name": "Chez le Vigneron"
            }
        },
        {
            "type": "Feature",
            "geometry": {
                "type": "Point",
                "coordinates": [
                    5.2264598,
                    44.056837
                ]
            },
            "properties": {
                "name": "Terra ventoux"
            }
        },
        {
            "type": "Feature",
            "geometry": {
                "type": "Point",
                "coordinates": [
                    166.4475651,
                    -22.2925402
                ]
            },
            "properties": {
                "name": "Le Pavillon des Vins"
            }
        },
        {
            "type": "Feature",
            "geometry": {
                "type": "Point",
                "coordinates": [
                    2.2797027,
                    48.8263977
                ]
            },
            "properties": {
                "name": "Nicolas"
            }
        },
        {
            "type": "Feature",
            "geometry": {
                "type": "Point",
                "coordinates": [
                    3.864363,
                    43.533351
                ]
            }
        },
        {
            "type": "Feature",
            "geometry": {
                "type": "Point",
                "coordinates": [
                    2.2599993,
                    48.8845556
                ]
            },
            "properties": {
                "name": "Nicolas"
            }
        },
        {
            "type": "Feature",
            "geometry": {
                "type": "Point",
                "coordinates": [
                    7.31007,
                    48.0420742
                ]
            },
            "properties": {
                "name": "Wolfberger"
            }
        },
        {
            "type": "Feature",
            "geometry": {
                "type": "Point",
                "coordinates": [
                    -0.2316644,
                    44.906801
                ]
            },
            "properties": {
                "name": "Cave"
            }
        },
        {
            "type": "Feature",
            "geometry": {
                "type": "Point",
                "coordinates": [
                    2.2408852,
                    43.6078847
                ]
            },
            "properties": {
                "name": "La Cave de Laurent"
            }
        },
        {
            "type": "Feature",
            "geometry": {
                "type": "Point",
                "coordinates": [
                    0.9269717,
                    44.9185037
                ]
            },
            "properties": {
                "name": "Chai Monique"
            }
        },
        {
            "type": "Feature",
            "geometry": {
                "type": "Point",
                "coordinates": [
                    2.2469108,
                    48.8273787
                ]
            },
            "properties": {
                "name": "Nicolas"
            }
        },
        {
            "type": "Feature",
            "geometry": {
                "type": "Point",
                "coordinates": [
                    2.2466769,
                    48.8282574
                ]
            },
            "properties": {
                "name": "Caves Saint-Clair"
            }
        },
        {
            "type": "Feature",
            "geometry": {
                "type": "Point",
                "coordinates": [
                    2.2384883,
                    48.842712
                ]
            },
            "properties": {
                "name": "Nicolas"
            }
        },
        {
            "type": "Feature",
            "geometry": {
                "type": "Point",
                "coordinates": [
                    4.6245282,
                    43.6772537
                ]
            },
            "properties": {
                "name": "Cave \u00e0 vins"
            }
        },
        {
            "type": "Feature",
            "geometry": {
                "type": "Point",
                "coordinates": [
                    -0.5076352,
                    43.8923087
                ]
            },
            "properties": {
                "name": "Chai et Rasades"
            }
        },
        {
            "type": "Feature",
            "geometry": {
                "type": "Point",
                "coordinates": [
                    -2.831321,
                    47.8843332
                ]
            },
            "properties": {
                "name": "Eclats de Vigne"
            }
        },
        {
            "type": "Feature",
            "geometry": {
                "type": "Point",
                "coordinates": [
                    2.3621824,
                    48.8547178
                ]
            },
            "properties": {
                "name": "Nicolas"
            }
        },
        {
            "type": "Feature",
            "geometry": {
                "type": "Point",
                "coordinates": [
                    6.108165,
                    43.8138566
                ]
            }
        },
        {
            "type": "Feature",
            "geometry": {
                "type": "Point",
                "coordinates": [
                    -1.2182934,
                    48.1091036
                ]
            },
            "properties": {
                "name": "V&B"
            }
        },
        {
            "type": "Feature",
            "geometry": {
                "type": "Point",
                "coordinates": [
                    1.9719145,
                    48.7926552
                ]
            },
            "properties": {
                "name": "La Cave de la Clef Saint-Pierre"
            }
        },
        {
            "type": "Feature",
            "geometry": {
                "type": "Point",
                "coordinates": [
                    4.8185164,
                    45.8143488
                ]
            },
            "properties": {
                "name": "La cave du ch\u00e2teau"
            }
        },
        {
            "type": "Feature",
            "geometry": {
                "type": "Point",
                "coordinates": [
                    -0.8464834,
                    45.2075509
                ]
            },
            "properties": {
                "name": "Ch\u00e2teau Fontesteau"
            }
        },
        {
            "type": "Feature",
            "geometry": {
                "type": "Point",
                "coordinates": [
                    -1.5795255,
                    47.2026743
                ]
            },
            "properties": {
                "name": "De la couleur au vin"
            }
        },
        {
            "type": "Feature",
            "geometry": {
                "type": "Point",
                "coordinates": [
                    2.5111766,
                    48.8117796
                ]
            },
            "properties": {
                "name": "Nicolas"
            }
        },
        {
            "type": "Feature",
            "geometry": {
                "type": "Point",
                "coordinates": [
                    1.3388432,
                    43.6080309
                ]
            },
            "properties": {
                "name": "Mado Vins"
            }
        },
        {
            "type": "Feature",
            "geometry": {
                "type": "Point",
                "coordinates": [
                    2.2893834,
                    48.8942079
                ]
            }
        },
        {
            "type": "Feature",
            "geometry": {
                "type": "Point",
                "coordinates": [
                    2.3136717,
                    48.8421726
                ]
            },
            "properties": {
                "name": "Nicolas"
            }
        },
        {
            "type": "Feature",
            "geometry": {
                "type": "Point",
                "coordinates": [
                    2.3760902,
                    48.6891593
                ]
            },
            "properties": {
                "name": "Nicolas"
            }
        },
        {
            "type": "Feature",
            "geometry": {
                "type": "Point",
                "coordinates": [
                    2.4073092,
                    49.3815564
                ]
            },
            "properties": {
                "name": "La Cave de Clermont"
            }
        },
        {
            "type": "Feature",
            "geometry": {
                "type": "Point",
                "coordinates": [
                    1.3394861,
                    43.6105055
                ]
            },
            "properties": {
                "name": "Une Cave, un Sommelier"
            }
        },
        {
            "type": "Feature",
            "geometry": {
                "type": "Point",
                "coordinates": [
                    2.2281708,
                    48.9836218
                ]
            },
            "properties": {
                "name": "Nicolas"
            }
        },
        {
            "type": "Feature",
            "geometry": {
                "type": "Point",
                "coordinates": [
                    6.1411373,
                    43.0424196
                ]
            }
        },
        {
            "type": "Feature",
            "geometry": {
                "type": "Point",
                "coordinates": [
                    -3.4326917,
                    47.994947
                ]
            }
        },
        {
            "type": "Feature",
            "geometry": {
                "type": "Point",
                "coordinates": [
                    -1.5704004,
                    47.1914855
                ]
            },
            "properties": {
                "name": "Cave Saint-Lupien"
            }
        },
        {
            "type": "Feature",
            "geometry": {
                "type": "Point",
                "coordinates": [
                    -1.1391421,
                    44.7677541
                ]
            },
            "properties": {
                "name": "Chez Mado"
            }
        },
        {
            "type": "Feature",
            "geometry": {
                "type": "Point",
                "coordinates": [
                    0.689777,
                    47.3872811
                ]
            }
        },
        {
            "type": "Feature",
            "geometry": {
                "type": "Point",
                "coordinates": [
                    4.881951,
                    44.9062964
                ]
            },
            "properties": {
                "name": "Univers Boisson"
            }
        },
        {
            "type": "Feature",
            "geometry": {
                "type": "Point",
                "coordinates": [
                    2.2954453,
                    48.8471395
                ]
            },
            "properties": {
                "name": "Nicolas"
            }
        },
        {
            "type": "Feature",
            "geometry": {
                "type": "Point",
                "coordinates": [
                    6.2638162,
                    43.3780409
                ]
            },
            "properties": {
                "name": "Commanderie de Peyrassol"
            }
        },
        {
            "type": "Feature",
            "geometry": {
                "type": "Point",
                "coordinates": [
                    2.4859303,
                    48.7976
                ]
            },
            "properties": {
                "name": "Nicolas"
            }
        },
        {
            "type": "Feature",
            "geometry": {
                "type": "Point",
                "coordinates": [
                    2.2366495,
                    48.8456326
                ]
            },
            "properties": {
                "name": "Nicolas"
            }
        },
        {
            "type": "Feature",
            "geometry": {
                "type": "Point",
                "coordinates": [
                    2.2358404,
                    48.8454535
                ]
            },
            "properties": {
                "name": "Le Repaire de Bacchus"
            }
        },
        {
            "type": "Feature",
            "geometry": {
                "type": "Point",
                "coordinates": [
                    7.7507635,
                    48.5888714
                ]
            },
            "properties": {
                "name": "La Cave du Sommelier"
            }
        },
        {
            "type": "Feature",
            "geometry": {
                "type": "Point",
                "coordinates": [
                    -1.6505671,
                    48.1049291
                ]
            },
            "properties": {
                "name": "Confidence des vignobles"
            }
        },
        {
            "type": "Feature",
            "geometry": {
                "type": "Point",
                "coordinates": [
                    2.4974753,
                    48.7272406
                ]
            },
            "properties": {
                "name": "Inter Caves"
            }
        },
        {
            "type": "Feature",
            "geometry": {
                "type": "Point",
                "coordinates": [
                    2.2622325,
                    48.9702171
                ]
            },
            "properties": {
                "name": "Nicolas"
            }
        },
        {
            "type": "Feature",
            "geometry": {
                "type": "Point",
                "coordinates": [
                    5.8892875,
                    48.6731066
                ]
            },
            "properties": {
                "name": "La Cave Lorraine"
            }
        },
        {
            "type": "Feature",
            "geometry": {
                "type": "Point",
                "coordinates": [
                    -0.1999783,
                    48.8973111
                ]
            },
            "properties": {
                "name": "Cellier Boulais"
            }
        },
        {
            "type": "Feature",
            "geometry": {
                "type": "Point",
                "coordinates": [
                    -1.1993561,
                    45.0007873
                ]
            },
            "properties": {
                "name": "Gave Chez Kiki"
            }
        },
        {
            "type": "Feature",
            "geometry": {
                "type": "Point",
                "coordinates": [
                    2.3905619,
                    48.8379815
                ]
            },
            "properties": {
                "name": "Nicolas"
            }
        },
        {
            "type": "Feature",
            "geometry": {
                "type": "Point",
                "coordinates": [
                    2.2433528,
                    48.8458417
                ]
            },
            "properties": {
                "name": "Caves Paris-Libourne"
            }
        },
        {
            "type": "Feature",
            "geometry": {
                "type": "Point",
                "coordinates": [
                    -0.2958899,
                    45.7098367
                ]
            },
            "properties": {
                "name": "SCEA Brard Blanchard"
            }
        },
        {
            "type": "Feature",
            "geometry": {
                "type": "Point",
                "coordinates": [
                    3.7275663,
                    48.0025439
                ]
            },
            "properties": {
                "name": "La cave des vins de france"
            }
        },
        {
            "type": "Feature",
            "geometry": {
                "type": "Point",
                "coordinates": [
                    -0.998728,
                    45.6020406
                ]
            }
        },
        {
            "type": "Feature",
            "geometry": {
                "type": "Point",
                "coordinates": [
                    -1.1999817,
                    45.0025934
                ]
            },
            "properties": {
                "name": "Cave Chai Davy"
            }
        },
        {
            "type": "Feature",
            "geometry": {
                "type": "Point",
                "coordinates": [
                    2.4715528,
                    48.8072248
                ]
            },
            "properties": {
                "name": "Nicolas"
            }
        },
        {
            "type": "Feature",
            "geometry": {
                "type": "Point",
                "coordinates": [
                    5.88511,
                    43.758992
                ]
            },
            "properties": {
                "name": "Les Caves de R\u00e9gusse"
            }
        },
        {
            "type": "Feature",
            "geometry": {
                "type": "Point",
                "coordinates": [
                    1.5259492,
                    43.5857791
                ]
            },
            "properties": {
                "name": "La bonne Treille"
            }
        },
        {
            "type": "Feature",
            "geometry": {
                "type": "Point",
                "coordinates": [
                    2.3111485,
                    48.8508151
                ]
            },
            "properties": {
                "name": "Les Vins du Terroir"
            }
        },
        {
            "type": "Feature",
            "geometry": {
                "type": "Point",
                "coordinates": [
                    2.3115177,
                    48.8504274
                ]
            },
            "properties": {
                "name": "A. Laurans"
            }
        },
        {
            "type": "Feature",
            "geometry": {
                "type": "Point",
                "coordinates": [
                    4.5723176,
                    47.8592446
                ]
            },
            "properties": {
                "name": "Les Vignerons de Haute Bourgogne"
            }
        },
        {
            "type": "Feature",
            "geometry": {
                "type": "Point",
                "coordinates": [
                    5.8121838,
                    43.1140466
                ]
            },
            "properties": {
                "name": "Cave des Lones"
            }
        },
        {
            "type": "Feature",
            "geometry": {
                "type": "Point",
                "coordinates": [
                    0.9969584,
                    47.1278258
                ]
            },
            "properties": {
                "name": "Les Flaveurs de la Terre"
            }
        },
        {
            "type": "Feature",
            "geometry": {
                "type": "Point",
                "coordinates": [
                    -1.1974555,
                    45.0011983
                ]
            },
            "properties": {
                "name": "Vignobles Lascaux"
            }
        },
        {
            "type": "Feature",
            "geometry": {
                "type": "Point",
                "coordinates": [
                    1.827134,
                    46.4344408
                ]
            }
        },
        {
            "type": "Feature",
            "geometry": {
                "type": "Point",
                "coordinates": [
                    4.5190442,
                    43.9663447
                ]
            },
            "properties": {
                "name": "Caveau de Vers-Pont du Gard"
            }
        },
        {
            "type": "Feature",
            "geometry": {
                "type": "Point",
                "coordinates": [
                    2.2375948,
                    48.8435161
                ]
            },
            "properties": {
                "name": "Vin et Cie"
            }
        },
        {
            "type": "Feature",
            "geometry": {
                "type": "Point",
                "coordinates": [
                    2.3095377,
                    48.9688207
                ]
            },
            "properties": {
                "name": "Aux Caves d'Enghien"
            }
        },
        {
            "type": "Feature",
            "geometry": {
                "type": "Point",
                "coordinates": [
                    3.2853716,
                    49.8518039
                ]
            },
            "properties": {
                "name": "Chai n\u00b0 5"
            }
        },
        {
            "type": "Feature",
            "geometry": {
                "type": "Point",
                "coordinates": [
                    -4.644019,
                    48.3748764
                ]
            }
        },
        {
            "type": "Feature",
            "geometry": {
                "type": "Point",
                "coordinates": [
                    2.2583643,
                    48.8848194
                ]
            },
            "properties": {
                "name": "Caves de Longchamp"
            }
        },
        {
            "type": "Feature",
            "geometry": {
                "type": "Point",
                "coordinates": [
                    4.8406374,
                    44.120449
                ]
            },
            "properties": {
                "name": "Vins&bi\u00e8res"
            }
        },
        {
            "type": "Feature",
            "geometry": {
                "type": "Point",
                "coordinates": [
                    4.8080977,
                    44.1375486
                ]
            },
            "properties": {
                "name": "C\u00f4t\u00e9 Rh\u00f4ne"
            }
        },
        {
            "type": "Feature",
            "geometry": {
                "type": "Point",
                "coordinates": [
                    2.3709603,
                    48.8554726
                ]
            },
            "properties": {
                "name": "La Cave, \u00e0 la Bastille"
            }
        },
        {
            "type": "Feature",
            "geometry": {
                "type": "Point",
                "coordinates": [
                    4.2348685,
                    43.5840117
                ]
            },
            "properties": {
                "name": "Caveau des Sablons"
            }
        },
        {
            "type": "Feature",
            "geometry": {
                "type": "Point",
                "coordinates": [
                    6.1768418,
                    48.7009589
                ]
            },
            "properties": {
                "name": "Esprit de Malt"
            }
        },
        {
            "type": "Feature",
            "geometry": {
                "type": "Point",
                "coordinates": [
                    166.4446789,
                    -22.2880193
                ]
            },
            "properties": {
                "name": "La Maison Ballande"
            }
        },
        {
            "type": "Feature",
            "geometry": {
                "type": "Point",
                "coordinates": [
                    -0.9930094,
                    43.6090906
                ]
            },
            "properties": {
                "name": "Cave Vinicole"
            }
        },
        {
            "type": "Feature",
            "geometry": {
                "type": "Point",
                "coordinates": [
                    1.4786904,
                    43.778552
                ]
            },
            "properties": {
                "name": "Ch\u00e2teau Plaisance"
            }
        },
        {
            "type": "Feature",
            "geometry": {
                "type": "Point",
                "coordinates": [
                    1.9053669,
                    47.8984059
                ]
            },
            "properties": {
                "name": "Cave de Marc & S\u00e9bastien"
            }
        },
        {
            "type": "Feature",
            "geometry": {
                "type": "Point",
                "coordinates": [
                    -0.5847014,
                    47.5034728
                ]
            }
        },
        {
            "type": "Feature",
            "geometry": {
                "type": "Point",
                "coordinates": [
                    2.2662697,
                    48.8844516
                ]
            },
            "properties": {
                "name": "Nicolas"
            }
        },
        {
            "type": "Feature",
            "geometry": {
                "type": "Point",
                "coordinates": [
                    3.5141798,
                    43.2822701
                ]
            },
            "properties": {
                "name": "Cave \u00e0 Vins du Port"
            }
        },
        {
            "type": "Feature",
            "geometry": {
                "type": "Point",
                "coordinates": [
                    3.51032,
                    43.2863298
                ]
            },
            "properties": {
                "name": "Cellier des Cigales"
            }
        },
        {
            "type": "Feature",
            "geometry": {
                "type": "Point",
                "coordinates": [
                    4.8020676,
                    44.102831
                ]
            },
            "properties": {
                "name": "Caveau"
            }
        },
        {
            "type": "Feature",
            "geometry": {
                "type": "Point",
                "coordinates": [
                    9.3769269,
                    41.6982471
                ]
            },
            "properties": {
                "name": "Domaine de Granajolo"
            }
        },
        {
            "type": "Feature",
            "geometry": {
                "type": "Point",
                "coordinates": [
                    6.4632008,
                    43.5333072
                ]
            },
            "properties": {
                "name": "Cave Viticole"
            }
        },
        {
            "type": "Feature",
            "geometry": {
                "type": "Point",
                "coordinates": [
                    4.860126,
                    47.0660787
                ]
            },
            "properties": {
                "name": "Caveau des Propri\u00e9taires d'Aloxe"
            }
        },
        {
            "type": "Feature",
            "geometry": {
                "type": "Point",
                "coordinates": [
                    -0.4887288,
                    46.3041637
                ]
            },
            "properties": {
                "name": "L'ambassade du Vin"
            }
        },
        {
            "type": "Feature",
            "geometry": {
                "type": "Point",
                "coordinates": [
                    4.8343969,
                    44.0605752
                ]
            },
            "properties": {
                "name": "Domaine Roger Sabon"
            }
        },
        {
            "type": "Feature",
            "geometry": {
                "type": "Point",
                "coordinates": [
                    5.7727379,
                    46.9030993
                ]
            },
            "properties": {
                "name": "Domaine Andr\u00e9 et Mireille Tissot"
            }
        },
        {
            "type": "Feature",
            "geometry": {
                "type": "Point",
                "coordinates": [
                    5.7728514,
                    46.9029052
                ]
            },
            "properties": {
                "name": "Vins Henri Maire"
            }
        },
        {
            "type": "Feature",
            "geometry": {
                "type": "Point",
                "coordinates": [
                    5.6242199,
                    46.7554614
                ]
            },
            "properties": {
                "name": "Domaine Macle"
            }
        },
        {
            "type": "Feature",
            "geometry": {
                "type": "Point",
                "coordinates": [
                    5.6258271,
                    46.7551855
                ]
            },
            "properties": {
                "name": "Domaine Geneletti"
            }
        },
        {
            "type": "Feature",
            "geometry": {
                "type": "Point",
                "coordinates": [
                    5.628327,
                    46.7551213
                ]
            },
            "properties": {
                "name": "Domaine Berthet-Bondet"
            }
        },
        {
            "type": "Feature",
            "geometry": {
                "type": "Point",
                "coordinates": [
                    4.7097522,
                    46.1157087
                ]
            }
        },
        {
            "type": "Feature",
            "geometry": {
                "type": "Point",
                "coordinates": [
                    4.9807175,
                    47.2446833
                ]
            },
            "properties": {
                "name": "Cuverie Gelin"
            }
        },
        {
            "type": "Feature",
            "geometry": {
                "type": "Point",
                "coordinates": [
                    1.4637054,
                    43.5957272
                ]
            },
            "properties": {
                "name": "La cave \u00e0 vin"
            }
        },
        {
            "type": "Feature",
            "geometry": {
                "type": "Point",
                "coordinates": [
                    -1.4090604,
                    48.259353
                ]
            },
            "properties": {
                "name": "Le Chai du Barbu"
            }
        },
        {
            "type": "Feature",
            "geometry": {
                "type": "Point",
                "coordinates": [
                    0.2464246,
                    47.90677
                ]
            },
            "properties": {
                "name": "Le Kiosqu'\u00e0 Vin"
            }
        },
        {
            "type": "Feature",
            "geometry": {
                "type": "Point",
                "coordinates": [
                    3.9332485,
                    47.0660904
                ]
            }
        },
        {
            "type": "Feature",
            "geometry": {
                "type": "Point",
                "coordinates": [
                    4.8359504,
                    44.2873532
                ]
            }
        },
        {
            "type": "Feature",
            "geometry": {
                "type": "Point",
                "coordinates": [
                    4.8363121,
                    44.2870107
                ]
            },
            "properties": {
                "name": "Cave Coop\u00e9rative \"La Suzienne\""
            }
        },
        {
            "type": "Feature",
            "geometry": {
                "type": "Point",
                "coordinates": [
                    4.7875734,
                    44.3126421
                ]
            },
            "properties": {
                "name": "Domaine La Croix Chabri\u00e8re"
            }
        },
        {
            "type": "Feature",
            "geometry": {
                "type": "Point",
                "coordinates": [
                    2.7131488,
                    42.7018494
                ]
            },
            "properties": {
                "name": "Domaine Boucabeille"
            }
        },
        {
            "type": "Feature",
            "geometry": {
                "type": "Point",
                "coordinates": [
                    1.8936592,
                    49.0850668
                ]
            },
            "properties": {
                "name": "Ferme Brasserie du Vexin"
            }
        },
        {
            "type": "Feature",
            "geometry": {
                "type": "Point",
                "coordinates": [
                    6.7301552,
                    46.0829436
                ]
            },
            "properties": {
                "name": "La Samaritaine"
            }
        },
        {
            "type": "Feature",
            "geometry": {
                "type": "Point",
                "coordinates": [
                    3.290111,
                    44.557686
                ]
            },
            "properties": {
                "name": "cellier du G\u00e9vaudan"
            }
        },
        {
            "type": "Feature",
            "geometry": {
                "type": "Point",
                "coordinates": [
                    2.4931609,
                    45.1371619
                ]
            },
            "properties": {
                "name": "Cave de Barrouze"
            }
        },
        {
            "type": "Feature",
            "geometry": {
                "type": "Point",
                "coordinates": [
                    3.2951427,
                    49.8460377
                ]
            },
            "properties": {
                "name": "Les Caves du Port"
            }
        },
        {
            "type": "Feature",
            "geometry": {
                "type": "Point",
                "coordinates": [
                    2.1817981,
                    48.8774141
                ]
            },
            "properties": {
                "name": "Nicolas"
            }
        },
        {
            "type": "Feature",
            "geometry": {
                "type": "Point",
                "coordinates": [
                    -0.4601675,
                    46.3208076
                ]
            },
            "properties": {
                "name": "Le Chai Saint-Hilaire"
            }
        },
        {
            "type": "Feature",
            "geometry": {
                "type": "Point",
                "coordinates": [
                    -0.2387874,
                    44.9291026
                ]
            },
            "properties": {
                "name": "Ch\u00e2teau Fayat Pomerol"
            }
        },
        {
            "type": "Feature",
            "geometry": {
                "type": "Point",
                "coordinates": [
                    1.3121597,
                    43.5709504
                ]
            },
            "properties": {
                "name": "Le Temps des Vendanges"
            }
        },
        {
            "type": "Feature",
            "geometry": {
                "type": "Point",
                "coordinates": [
                    1.8917544,
                    44.8600994
                ]
            }
        },
        {
            "type": "Feature",
            "geometry": {
                "type": "Point",
                "coordinates": [
                    0.307486,
                    44.7325875
                ]
            },
            "properties": {
                "name": "Clos des Figuiers"
            }
        },
        {
            "type": "Feature",
            "geometry": {
                "type": "Point",
                "coordinates": [
                    -0.2272291,
                    44.9443672
                ]
            },
            "properties": {
                "name": "Ch\u00e2teau de Sales"
            }
        },
        {
            "type": "Feature",
            "geometry": {
                "type": "Point",
                "coordinates": [
                    4.8318973,
                    44.0557555
                ]
            },
            "properties": {
                "name": "Cave Famille Perrin"
            }
        },
        {
            "type": "Feature",
            "geometry": {
                "type": "Point",
                "coordinates": [
                    7.2850839,
                    48.1259272
                ]
            },
            "properties": {
                "name": "Domaine Maurice Griss"
            }
        },
        {
            "type": "Feature",
            "geometry": {
                "type": "Point",
                "coordinates": [
                    4.8788768,
                    45.7656621
                ]
            },
            "properties": {
                "name": "La Cave des Gratte-Ciel"
            }
        },
        {
            "type": "Feature",
            "geometry": {
                "type": "Point",
                "coordinates": [
                    4.8796828,
                    45.7688862
                ]
            },
            "properties": {
                "name": "Nicolas"
            }
        },
        {
            "type": "Feature",
            "geometry": {
                "type": "Point",
                "coordinates": [
                    5.0392655,
                    47.3226219
                ]
            },
            "properties": {
                "name": "Nicolas"
            }
        },
        {
            "type": "Feature",
            "geometry": {
                "type": "Point",
                "coordinates": [
                    3.5522448,
                    43.7023396
                ]
            },
            "properties": {
                "name": "Domaine des Gr\u00e9caux (Cave \u00e0 vins)"
            }
        },
        {
            "type": "Feature",
            "geometry": {
                "type": "Point",
                "coordinates": [
                    3.5518343,
                    43.7020919
                ]
            },
            "properties": {
                "name": "Domaine Alexandra (Cave \u00e0 vins)"
            }
        },
        {
            "type": "Feature",
            "geometry": {
                "type": "Point",
                "coordinates": [
                    3.5461762,
                    43.6683411
                ]
            },
            "properties": {
                "name": "Domaine de Pierrefont"
            }
        },
        {
            "type": "Feature",
            "geometry": {
                "type": "Point",
                "coordinates": [
                    3.551546,
                    43.6984517
                ]
            },
            "properties": {
                "name": "Les Graves de Saint-Jean-de-Fos"
            }
        },
        {
            "type": "Feature",
            "geometry": {
                "type": "Point",
                "coordinates": [
                    3.5534696,
                    43.6990763
                ]
            },
            "properties": {
                "name": "Domaine des Orjouls, caveau vente de vin"
            }
        },
        {
            "type": "Feature",
            "geometry": {
                "type": "Point",
                "coordinates": [
                    2.2564262,
                    48.8979764
                ]
            },
            "properties": {
                "name": "Les Caves de Courbevoie"
            }
        },
        {
            "type": "Feature",
            "geometry": {
                "type": "Point",
                "coordinates": [
                    55.7477986,
                    -21.0885954
                ]
            }
        },
        {
            "type": "Feature",
            "geometry": {
                "type": "Point",
                "coordinates": [
                    4.8438118,
                    45.87667
                ]
            },
            "properties": {
                "name": "Cellier Neuvillois"
            }
        },
        {
            "type": "Feature",
            "geometry": {
                "type": "Point",
                "coordinates": [
                    2.2764103,
                    48.8631122
                ]
            },
            "properties": {
                "name": "Nicolas"
            }
        },
        {
            "type": "Feature",
            "geometry": {
                "type": "Point",
                "coordinates": [
                    -1.5128368,
                    47.2592531
                ]
            },
            "properties": {
                "name": "La Cervoiserie"
            }
        },
        {
            "type": "Feature",
            "geometry": {
                "type": "Point",
                "coordinates": [
                    2.4678809,
                    48.8459575
                ]
            },
            "properties": {
                "name": "La Cave de Fontenay"
            }
        },
        {
            "type": "Feature",
            "geometry": {
                "type": "Point",
                "coordinates": [
                    -1.6677013,
                    48.0906414
                ]
            },
            "properties": {
                "name": "Le Cellier Rennais"
            }
        },
        {
            "type": "Feature",
            "geometry": {
                "type": "Point",
                "coordinates": [
                    7.2978926,
                    47.9574466
                ]
            },
            "properties": {
                "name": "Domaine Hunold"
            }
        },
        {
            "type": "Feature",
            "geometry": {
                "type": "Point",
                "coordinates": [
                    2.2841706,
                    48.8690486
                ]
            },
            "properties": {
                "name": "Nicolas"
            }
        },
        {
            "type": "Feature",
            "geometry": {
                "type": "Point",
                "coordinates": [
                    2.5858113,
                    42.8098167
                ]
            },
            "properties": {
                "name": "Les Vignerons de de Maury"
            }
        },
        {
            "type": "Feature",
            "geometry": {
                "type": "Point",
                "coordinates": [
                    -0.5881957,
                    43.1388797
                ]
            }
        },
        {
            "type": "Feature",
            "geometry": {
                "type": "Point",
                "coordinates": [
                    2.5107803,
                    48.8060469
                ]
            }
        },
        {
            "type": "Feature",
            "geometry": {
                "type": "Point",
                "coordinates": [
                    4.875436,
                    44.008296
                ]
            },
            "properties": {
                "name": "Cave des chartreux"
            }
        },
        {
            "type": "Feature",
            "geometry": {
                "type": "Point",
                "coordinates": [
                    2.3563478,
                    48.8766992
                ]
            },
            "properties": {
                "name": "Caves Bardou"
            }
        },
        {
            "type": "Feature",
            "geometry": {
                "type": "Point",
                "coordinates": [
                    2.3670778,
                    48.8820678
                ]
            }
        },
        {
            "type": "Feature",
            "geometry": {
                "type": "Point",
                "coordinates": [
                    2.3358419,
                    48.8692624
                ]
            },
            "properties": {
                "name": "Nicolas"
            }
        },
        {
            "type": "Feature",
            "geometry": {
                "type": "Point",
                "coordinates": [
                    5.0337737,
                    47.320331
                ]
            },
            "properties": {
                "name": "Wine apart"
            }
        },
        {
            "type": "Feature",
            "geometry": {
                "type": "Point",
                "coordinates": [
                    5.0327912,
                    47.3183058
                ]
            },
            "properties": {
                "name": "\u00d4gr\u00e9 du vin"
            }
        },
        {
            "type": "Feature",
            "geometry": {
                "type": "Point",
                "coordinates": [
                    2.2867129,
                    48.9915861
                ]
            },
            "properties": {
                "name": "Nicolas"
            }
        },
        {
            "type": "Feature",
            "geometry": {
                "type": "Point",
                "coordinates": [
                    166.4509687,
                    -22.2961372
                ]
            },
            "properties": {
                "name": "La vinoth\u00e8que"
            }
        },
        {
            "type": "Feature",
            "geometry": {
                "type": "Point",
                "coordinates": [
                    166.44841,
                    -22.23696
                ]
            },
            "properties": {
                "name": "La Vinoth\u00e8que"
            }
        },
        {
            "type": "Feature",
            "geometry": {
                "type": "Point",
                "coordinates": [
                    166.462231,
                    -22.268184
                ]
            },
            "properties": {
                "name": "La vinoth\u00e8que"
            }
        },
        {
            "type": "Feature",
            "geometry": {
                "type": "Point",
                "coordinates": [
                    -1.7125809,
                    47.2126057
                ]
            },
            "properties": {
                "name": "Cave de l'Enclos"
            }
        },
        {
            "type": "Feature",
            "geometry": {
                "type": "Point",
                "coordinates": [
                    4.8663467,
                    45.7725979
                ]
            },
            "properties": {
                "name": "Aux Caves des Charpennes"
            }
        },
        {
            "type": "Feature",
            "geometry": {
                "type": "Point",
                "coordinates": [
                    0.0840985,
                    48.430763
                ]
            },
            "properties": {
                "name": "Les Caves de la Rotonde"
            }
        },
        {
            "type": "Feature",
            "geometry": {
                "type": "Point",
                "coordinates": [
                    2.2490224,
                    48.8960367
                ]
            },
            "properties": {
                "name": "Nicolas"
            }
        },
        {
            "type": "Feature",
            "geometry": {
                "type": "Point",
                "coordinates": [
                    3.1154051,
                    42.4776238
                ]
            },
            "properties": {
                "name": "Celliers des Templiers"
            }
        },
        {
            "type": "Feature",
            "geometry": {
                "type": "Point",
                "coordinates": [
                    5.9200471,
                    45.5664287
                ]
            },
            "properties": {
                "name": "Les 400 Crus"
            }
        },
        {
            "type": "Feature",
            "geometry": {
                "type": "Point",
                "coordinates": [
                    5.9201516,
                    45.567315
                ]
            },
            "properties": {
                "name": "Nicolas"
            }
        },
        {
            "type": "Feature",
            "geometry": {
                "type": "Point",
                "coordinates": [
                    -0.2733278,
                    44.5908763
                ]
            },
            "properties": {
                "name": "Ch\u00e2teau La Rame"
            }
        },
        {
            "type": "Feature",
            "geometry": {
                "type": "Point",
                "coordinates": [
                    0.2532279,
                    44.8736841
                ]
            },
            "properties": {
                "name": "Cave vinicole Alliance Aquitaine"
            }
        },
        {
            "type": "Feature",
            "geometry": {
                "type": "Point",
                "coordinates": [
                    4.808631,
                    43.948426
                ]
            },
            "properties": {
                "name": "AOC"
            }
        },
        {
            "type": "Feature",
            "geometry": {
                "type": "Point",
                "coordinates": [
                    4.805593,
                    43.94674
                ]
            },
            "properties": {
                "name": "Nicolas"
            }
        },
        {
            "type": "Feature",
            "geometry": {
                "type": "Point",
                "coordinates": [
                    4.808785,
                    43.94841
                ]
            },
            "properties": {
                "name": "La coupe d'or"
            }
        },
        {
            "type": "Feature",
            "geometry": {
                "type": "Point",
                "coordinates": [
                    2.8236084,
                    49.4171064
                ]
            },
            "properties": {
                "name": "Le Bon Conseil"
            }
        },
        {
            "type": "Feature",
            "geometry": {
                "type": "Point",
                "coordinates": [
                    2.8253186,
                    49.4179441
                ]
            },
            "properties": {
                "name": "Nicolas"
            }
        },
        {
            "type": "Feature",
            "geometry": {
                "type": "Point",
                "coordinates": [
                    -0.6640904,
                    45.1249652
                ]
            },
            "properties": {
                "name": "Les Caves de la Citadelle"
            }
        },
        {
            "type": "Feature",
            "geometry": {
                "type": "Point",
                "coordinates": [
                    -0.6629318,
                    45.1274122
                ]
            },
            "properties": {
                "name": "La maison des vins"
            }
        },
        {
            "type": "Feature",
            "geometry": {
                "type": "Point",
                "coordinates": [
                    2.4668719,
                    48.8174682
                ]
            },
            "properties": {
                "name": "Nicolas"
            }
        },
        {
            "type": "Feature",
            "geometry": {
                "type": "Point",
                "coordinates": [
                    2.2356253,
                    48.8071364
                ]
            },
            "properties": {
                "name": "Nicolas"
            }
        },
        {
            "type": "Feature",
            "geometry": {
                "type": "Point",
                "coordinates": [
                    0.2425921,
                    44.7457559
                ]
            },
            "properties": {
                "name": "Les Caves Particuli\u00e8res"
            }
        },
        {
            "type": "Feature",
            "geometry": {
                "type": "Point",
                "coordinates": [
                    7.5530218,
                    47.597227
                ]
            },
            "properties": {
                "name": "Brasserie de Saint-Louis"
            }
        },
        {
            "type": "Feature",
            "geometry": {
                "type": "Point",
                "coordinates": [
                    2.2043952,
                    43.0552482
                ]
            },
            "properties": {
                "name": "Sieur d'Arques"
            }
        },
        {
            "type": "Feature",
            "geometry": {
                "type": "Point",
                "coordinates": [
                    -1.3293718,
                    45.9163605
                ]
            },
            "properties": {
                "name": "Vinoth\u00e8que du Caveau"
            }
        },
        {
            "type": "Feature",
            "geometry": {
                "type": "Point",
                "coordinates": [
                    -1.3312745,
                    45.9174533
                ]
            },
            "properties": {
                "name": "Cave Arriv\u00e9"
            }
        },
        {
            "type": "Feature",
            "geometry": {
                "type": "Point",
                "coordinates": [
                    -2.7351923,
                    48.4992477
                ]
            },
            "properties": {
                "name": "V&B - Vins & Bi\u00e8res"
            }
        },
        {
            "type": "Feature",
            "geometry": {
                "type": "Point",
                "coordinates": [
                    2.3250457,
                    48.8271896
                ]
            },
            "properties": {
                "name": "Nicolas"
            }
        },
        {
            "type": "Feature",
            "geometry": {
                "type": "Point",
                "coordinates": [
                    2.3244326,
                    48.823687
                ]
            },
            "properties": {
                "name": "Nicolas"
            }
        },
        {
            "type": "Feature",
            "geometry": {
                "type": "Point",
                "coordinates": [
                    2.3745043,
                    48.8493179
                ]
            },
            "properties": {
                "name": "Ici-m\u00eame"
            }
        },
        {
            "type": "Feature",
            "geometry": {
                "type": "Point",
                "coordinates": [
                    2.237717,
                    48.8113471
                ]
            },
            "properties": {
                "name": "Les Longs R\u00e9ages"
            }
        },
        {
            "type": "Feature",
            "geometry": {
                "type": "Point",
                "coordinates": [
                    3.8518212,
                    43.6009498
                ]
            }
        },
        {
            "type": "Feature",
            "geometry": {
                "type": "Point",
                "coordinates": [
                    2.7311148,
                    50.2981815
                ]
            },
            "properties": {
                "name": "B&V"
            }
        },
        {
            "type": "Feature",
            "geometry": {
                "type": "Point",
                "coordinates": [
                    4.580307,
                    44.9818808
                ]
            },
            "properties": {
                "name": "Les Chopes du Moulin"
            }
        },
        {
            "type": "Feature",
            "geometry": {
                "type": "Point",
                "coordinates": [
                    2.3822539,
                    48.8751101
                ]
            },
            "properties": {
                "name": "Les Caves d'argent"
            }
        },
        {
            "type": "Feature",
            "geometry": {
                "type": "Point",
                "coordinates": [
                    -1.5462155,
                    47.235157
                ]
            },
            "properties": {
                "name": "Cave de la Chapelle"
            }
        },
        {
            "type": "Feature",
            "geometry": {
                "type": "Point",
                "coordinates": [
                    2.2353993,
                    48.8271351
                ]
            },
            "properties": {
                "name": "Les Domaines Qui Montent"
            }
        },
        {
            "type": "Feature",
            "geometry": {
                "type": "Point",
                "coordinates": [
                    5.8358553,
                    48.7206861
                ]
            },
            "properties": {
                "name": "Alain Migot"
            }
        },
        {
            "type": "Feature",
            "geometry": {
                "type": "Point",
                "coordinates": [
                    4.770982,
                    44.291546
                ]
            },
            "properties": {
                "name": "Ch\u00e2teau Gourdon"
            }
        },
        {
            "type": "Feature",
            "geometry": {
                "type": "Point",
                "coordinates": [
                    3.8756134,
                    43.6058793
                ]
            },
            "properties": {
                "name": "Les Pens\u00e9es du Vin"
            }
        },
        {
            "type": "Feature",
            "geometry": {
                "type": "Point",
                "coordinates": [
                    2.2450141,
                    48.8284314
                ]
            },
            "properties": {
                "name": "Le Palais des Vins"
            }
        },
        {
            "type": "Feature",
            "geometry": {
                "type": "Point",
                "coordinates": [
                    -1.5428184,
                    47.2270344
                ]
            },
            "properties": {
                "name": "La Cave Nature"
            }
        },
        {
            "type": "Feature",
            "geometry": {
                "type": "Point",
                "coordinates": [
                    2.1875025,
                    48.6968898
                ]
            },
            "properties": {
                "name": "Cave d'Orsay"
            }
        },
        {
            "type": "Feature",
            "geometry": {
                "type": "Point",
                "coordinates": [
                    0.1082765,
                    49.5060195
                ]
            },
            "properties": {
                "name": "Les vins de la Gironde"
            }
        },
        {
            "type": "Feature",
            "geometry": {
                "type": "Point",
                "coordinates": [
                    4.681662,
                    46.8911801
                ]
            },
            "properties": {
                "name": "Cave de Cheilly"
            }
        },
        {
            "type": "Feature",
            "geometry": {
                "type": "Point",
                "coordinates": [
                    4.6684276,
                    46.8938527
                ]
            },
            "properties": {
                "name": "Caveau Chevrot"
            }
        },
        {
            "type": "Feature",
            "geometry": {
                "type": "Point",
                "coordinates": [
                    -2.177423,
                    46.9408355
                ]
            },
            "properties": {
                "name": "Cave \u00e0 vins Arriv\u00e9"
            }
        },
        {
            "type": "Feature",
            "geometry": {
                "type": "Point",
                "coordinates": [
                    6.1774029,
                    48.7013036
                ]
            },
            "properties": {
                "name": "La Cave du Faubourg"
            }
        },
        {
            "type": "Feature",
            "geometry": {
                "type": "Point",
                "coordinates": [
                    -1.9438241,
                    48.29509
                ]
            },
            "properties": {
                "name": "La Cave d'\u00c9lodie"
            }
        },
        {
            "type": "Feature",
            "geometry": {
                "type": "Point",
                "coordinates": [
                    -1.9438691,
                    48.295046
                ]
            },
            "properties": {
                "name": "La Part des Anges"
            }
        },
        {
            "type": "Feature",
            "geometry": {
                "type": "Point",
                "coordinates": [
                    -1.5530783,
                    47.2066332
                ]
            },
            "properties": {
                "name": "10 Vins"
            }
        },
        {
            "type": "Feature",
            "geometry": {
                "type": "Point",
                "coordinates": [
                    5.6288961,
                    44.0391123
                ]
            },
            "properties": {
                "name": "Les Vins au Vert"
            }
        },
        {
            "type": "Feature",
            "geometry": {
                "type": "Point",
                "coordinates": [
                    7.7359389,
                    48.607309
                ]
            },
            "properties": {
                "name": "Le Domaine du Vin"
            }
        },
        {
            "type": "Feature",
            "geometry": {
                "type": "Point",
                "coordinates": [
                    -2.0445983,
                    48.4533439
                ]
            },
            "properties": {
                "name": "Argile et Vin"
            }
        },
        {
            "type": "Feature",
            "geometry": {
                "type": "Point",
                "coordinates": [
                    -0.6046611,
                    44.9766236
                ]
            },
            "properties": {
                "name": "Cave Vinicole La M\u00e9docaine"
            }
        },
        {
            "type": "Feature",
            "geometry": {
                "type": "Point",
                "coordinates": [
                    2.342951,
                    48.893953
                ]
            },
            "properties": {
                "name": "Vinum Picatum"
            }
        },
        {
            "type": "Feature",
            "geometry": {
                "type": "Point",
                "coordinates": [
                    2.343072,
                    48.893433
                ]
            },
            "properties": {
                "name": "Nicolas"
            }
        },
        {
            "type": "Feature",
            "geometry": {
                "type": "Point",
                "coordinates": [
                    7.2977555,
                    48.1668319
                ]
            },
            "properties": {
                "name": "Dopff Irion"
            }
        },
        {
            "type": "Feature",
            "geometry": {
                "type": "Point",
                "coordinates": [
                    4.3512076,
                    43.8230103
                ]
            },
            "properties": {
                "name": "Les Chais de Bacchus"
            }
        },
        {
            "type": "Feature",
            "geometry": {
                "type": "Point",
                "coordinates": [
                    2.2611121,
                    48.9079705
                ]
            },
            "properties": {
                "name": "Nicolas"
            }
        },
        {
            "type": "Feature",
            "geometry": {
                "type": "Point",
                "coordinates": [
                    -1.4841335,
                    47.2500359
                ]
            }
        },
        {
            "type": "Feature",
            "geometry": {
                "type": "Point",
                "coordinates": [
                    6.9514711,
                    43.5774742
                ]
            },
            "properties": {
                "name": "La cave du sommelier"
            }
        },
        {
            "type": "Feature",
            "geometry": {
                "type": "Point",
                "coordinates": [
                    6.8894622,
                    48.0785793
                ]
            }
        },
        {
            "type": "Feature",
            "geometry": {
                "type": "Point",
                "coordinates": [
                    2.7294375,
                    42.6960831
                ]
            },
            "properties": {
                "name": "Domaine La Beille"
            }
        },
        {
            "type": "Feature",
            "geometry": {
                "type": "Point",
                "coordinates": [
                    2.7319101,
                    42.6974076
                ]
            },
            "properties": {
                "name": "Domaine Lafforgue"
            }
        },
        {
            "type": "Feature",
            "geometry": {
                "type": "Point",
                "coordinates": [
                    2.3398769,
                    48.8663015
                ]
            },