{
    "type": "FeatureCollection",
    "features": [
        {
            "type": "Feature",
            "geometry": {
                "type": "Point",
                "coordinates": [
                    -8.4636265,
                    51.9021641
                ]
            },
            "properties": {
                "name": "O'Donovan's"
            }
        },
        {
            "type": "Feature",
            "geometry": {
                "type": "Point",
                "coordinates": [
                    -6.9816178,
                    52.9927168
                ]
            },
            "properties": {
                "name": "Carry Out"
            }
        },
        {
            "type": "Feature",
            "geometry": {
                "type": "Point",
                "coordinates": [
                    -8.4732731,
                    51.9113526
                ]
            },
            "properties": {
                "name": "O'Donovan's Off-License"
            }
        },
        {
            "type": "Feature",
            "geometry": {
                "type": "Point",
                "coordinates": [
                    -8.4729632,
                    51.916509
                ]
            },
            "properties": {
                "name": "Fine Wines"
            }
        },
        {
            "type": "Feature",
            "geometry": {
                "type": "Point",
                "coordinates": [
                    -6.5922905,
                    53.3809287
                ]
            },
            "properties": {
                "name": "Roost Off License"
            }
        },
        {
            "type": "Feature",
            "geometry": {
                "type": "Point",
                "coordinates": [
                    -6.5931134,
                    53.3813571
                ]
            },
            "properties": {
                "name": "Coffee Lounge"
            }
        },
        {
            "type": "Feature",
            "geometry": {
                "type": "Point",
                "coordinates": [
                    -8.1968335,
                    52.8721278
                ]
            }
        },
        {
            "type": "Feature",
            "geometry": {
                "type": "Point",
                "coordinates": [
                    -6.9840465,
                    52.9918825
                ]
            },
            "properties": {
                "name": "Next Door"
            }
        },
        {
            "type": "Feature",
            "geometry": {
                "type": "Point",
                "coordinates": [
                    -6.2591408,
                    53.3592388
                ]
            },
            "properties": {
                "name": "Carolan's"
            }
        },
        {
            "type": "Feature",
            "geometry": {
                "type": "Point",
                "coordinates": [
                    -6.2594155,
                    53.3536376
                ]
            },
            "properties": {
                "name": "Bevvie's"
            }
        },
        {
            "type": "Feature",
            "geometry": {
                "type": "Point",
                "coordinates": [
                    -6.2459517,
                    53.358953
                ]
            },
            "properties": {
                "name": "The Vine Tree"
            }
        },
        {
            "type": "Feature",
            "geometry": {
                "type": "Point",
                "coordinates": [
                    -6.1476371,
                    53.3867316
                ]
            },
            "properties": {
                "name": "McHughs"
            }
        },
        {
            "type": "Feature",
            "geometry": {
                "type": "Point",
                "coordinates": [
                    -8.5316797,
                    52.9112149
                ]
            },
            "properties": {
                "name": "Roger's & Son"
            }
        },
        {
            "type": "Feature",
            "geometry": {
                "type": "Point",
                "coordinates": [
                    -8.8118805,
                    52.7019717
                ]
            },
            "properties": {
                "name": "Bunratty Winery"
            }
        },
        {
            "type": "Feature",
            "geometry": {
                "type": "Point",
                "coordinates": [
                    -6.2551775,
                    53.3255057
                ]
            },
            "properties": {
                "name": "Redmonds"
            }
        },
        {
            "type": "Feature",
            "geometry": {
                "type": "Point",
                "coordinates": [
                    -6.2654202,
                    53.3162071
                ]
            },
            "properties": {
                "name": "O'Brien's"
            }
        },
        {
            "type": "Feature",
            "geometry": {
                "type": "Point",
                "coordinates": [
                    -7.1490097,
                    52.1609374
                ]
            },
            "properties": {
                "name": "Offshore Off licence"
            }
        },
        {
            "type": "Feature",
            "geometry": {
                "type": "Point",
                "coordinates": [
                    -6.2320859,
                    53.4710629
                ]
            },
            "properties": {
                "name": "Coolers Off Licence"
            }
        },
        {
            "type": "Feature",
            "geometry": {
                "type": "Point",
                "coordinates": [
                    -6.272482,
                    53.363247
                ]
            },
            "properties": {
                "name": "Fagan's"
            }
        },
        {
            "type": "Feature",
            "geometry": {
                "type": "Point",
                "coordinates": [
                    -7.3153935,
                    52.2890687
                ]
            },
            "properties": {
                "name": "Rooney's"
            }
        },
        {
            "type": "Feature",
            "geometry": {
                "type": "Point",
                "coordinates": [
                    -7.2157497,
                    52.2709774
                ]
            },
            "properties": {
                "name": "Doyle's Bar"
            }
        },
        {
            "type": "Feature",
            "geometry": {
                "type": "Point",
                "coordinates": [
                    -6.2683643,
                    53.3706114
                ]
            },
            "properties": {
                "name": "O'Brien's Off Licence"
            }
        },
        {
            "type": "Feature",
            "geometry": {
                "type": "Point",
                "coordinates": [
                    -6.23603,
                    53.3221087
                ]
            },
            "properties": {
                "name": "O'Brien's"
            }
        },
        {
            "type": "Feature",
            "geometry": {
                "type": "Point",
                "coordinates": [
                    -7.3128598,
                    52.2910255
                ]
            },
            "properties": {
                "name": "Next Door"
            }
        },
        {
            "type": "Feature",
            "geometry": {
                "type": "Point",
                "coordinates": [
                    -6.1544144,
                    53.2935975
                ]
            }
        },
        {
            "type": "Feature",
            "geometry": {
                "type": "Point",
                "coordinates": [
                    -6.27947,
                    53.331557
                ]
            },
            "properties": {
                "name": "Next Door Off Licence"
            }
        },
        {
            "type": "Feature",
            "geometry": {
                "type": "Point",
                "coordinates": [
                    -6.7426514,
                    53.1310249
                ]
            },
            "properties": {
                "name": "Nugent's Carry Out"
            }
        },
        {
            "type": "Feature",
            "geometry": {
                "type": "Point",
                "coordinates": [
                    -6.37873,
                    53.3019071
                ]
            }
        },
        {
            "type": "Feature",
            "geometry": {
                "type": "Point",
                "coordinates": [
                    -6.2822294,
                    53.3145123
                ]
            },
            "properties": {
                "name": "Green Man Wines"
            }
        },
        {
            "type": "Feature",
            "geometry": {
                "type": "Point",
                "coordinates": [
                    -6.272855,
                    53.3626481
                ]
            },
            "properties": {
                "name": "Drinks Direct (moved)"
            }
        },
        {
            "type": "Feature",
            "geometry": {
                "type": "Point",
                "coordinates": [
                    -6.2602334,
                    53.2965036
                ]
            },
            "properties": {
                "name": "Cellar"
            }
        },
        {
            "type": "Feature",
            "geometry": {
                "type": "Point",
                "coordinates": [
                    -6.2803771,
                    53.3460304
                ]
            },
            "properties": {
                "name": "Off Licence"
            }
        },
        {
            "type": "Feature",
            "geometry": {
                "type": "Point",
                "coordinates": [
                    -6.8000106,
                    53.1781525
                ]
            },
            "properties": {
                "name": "O'Briens Wines"
            }
        },
        {
            "type": "Feature",
            "geometry": {
                "type": "Point",
                "coordinates": [
                    -6.2001396,
                    53.2899782
                ]
            },
            "properties": {
                "name": "Tesco"
            }
        },
        {
            "type": "Feature",
            "geometry": {
                "type": "Point",
                "coordinates": [
                    -6.7979501,
                    53.181596
                ]
            },
            "properties": {
                "name": "Next Door"
            }
        },
        {
            "type": "Feature",
            "geometry": {
                "type": "Point",
                "coordinates": [
                    -8.6540427,
                    52.6365594
                ]
            },
            "properties": {
                "name": "Fine Wines"
            }
        },
        {
            "type": "Feature",
            "geometry": {
                "type": "Point",
                "coordinates": [
                    -6.7965704,
                    53.1812679
                ]
            },
            "properties": {
                "name": "O'Rourke's"
            }
        },
        {
            "type": "Feature",
            "geometry": {
                "type": "Point",
                "coordinates": [
                    -8.1993182,
                    52.8616141
                ]
            },
            "properties": {
                "name": "The Wine Buff"
            }
        },
        {
            "type": "Feature",
            "geometry": {
                "type": "Point",
                "coordinates": [
                    -7.7983372,
                    52.9530448
                ]
            },
            "properties": {
                "name": "Carry Out"
            }
        },
        {
            "type": "Feature",
            "geometry": {
                "type": "Point",
                "coordinates": [
                    -8.4426567,
                    51.8809481
                ]
            },
            "properties": {
                "name": "Galvins Carry Out"
            }
        },
        {
            "type": "Feature",
            "geometry": {
                "type": "Point",
                "coordinates": [
                    -7.7363481,
                    54.9467032
                ]
            },
            "properties": {
                "name": "Carry Out"
            }
        },
        {
            "type": "Feature",
            "geometry": {
                "type": "Point",
                "coordinates": [
                    -6.1824459,
                    53.2506214
                ]
            },
            "properties": {
                "name": "O'Briens"
            }
        },
        {
            "type": "Feature",
            "geometry": {
                "type": "Point",
                "coordinates": [
                    -9.3767216,
                    53.0162911
                ]
            }
        },
        {
            "type": "Feature",
            "geometry": {
                "type": "Point",
                "coordinates": [
                    -6.3899777,
                    53.3938154
                ]
            },
            "properties": {
                "name": "O'Briens"
            }
        },
        {
            "type": "Feature",
            "geometry": {
                "type": "Point",
                "coordinates": [
                    -6.4752887,
                    53.4191435
                ]
            },
            "properties": {
                "name": "Wine Well"
            }
        },
        {
            "type": "Feature",
            "geometry": {
                "type": "Point",
                "coordinates": [
                    -6.275259,
                    53.341782
                ]
            },
            "properties": {
                "name": "Molloy's Off Licence"
            }
        },
        {
            "type": "Feature",
            "geometry": {
                "type": "Point",
                "coordinates": [
                    -6.3302713,
                    53.2757706
                ]
            },
            "properties": {
                "name": "Dwans"
            }
        },
        {
            "type": "Feature",
            "geometry": {
                "type": "Point",
                "coordinates": [
                    -6.2883706,
                    53.3364806
                ]
            },
            "properties": {
                "name": "Next Door Off Licence"
            }
        },
        {
            "type": "Feature",
            "geometry": {
                "type": "Point",
                "coordinates": [
                    -9.05707,
                    53.2696401
                ]
            },
            "properties": {
                "name": "Fine Wines"
            }
        },
        {
            "type": "Feature",
            "geometry": {
                "type": "Point",
                "coordinates": [
                    -8.55596,
                    52.6679574
                ]
            },
            "properties": {
                "name": "Fine Wines"
            }
        },
        {
            "type": "Feature",
            "geometry": {
                "type": "Point",
                "coordinates": [
                    -6.3631529,
                    53.7237363
                ]
            },
            "properties": {
                "name": "Nine-one-one"
            }
        },
        {
            "type": "Feature",
            "geometry": {
                "type": "Point",
                "coordinates": [
                    -6.3463099,
                    53.7163103
                ]
            }
        },
        {
            "type": "Feature",
            "geometry": {
                "type": "Point",
                "coordinates": [
                    -6.2780884,
                    53.3405707
                ]
            },
            "properties": {
                "name": "Next Door"
            }
        },
        {
            "type": "Feature",
            "geometry": {
                "type": "Point",
                "coordinates": [
                    -8.5615739,
                    51.9334633
                ]
            },
            "properties": {
                "name": "Blarney Off Licence"
            }
        },
        {
            "type": "Feature",
            "geometry": {
                "type": "Point",
                "coordinates": [
                    -6.2330601,
                    53.3857233
                ]
            },
            "properties": {
                "name": "Beaumont Off Licence"
            }
        },
        {
            "type": "Feature",
            "geometry": {
                "type": "Point",
                "coordinates": [
                    -8.6366549,
                    52.6487337
                ]
            },
            "properties": {
                "name": "Number 21"
            }
        },
        {
            "type": "Feature",
            "geometry": {
                "type": "Point",
                "coordinates": [
                    -6.3177489,
                    53.3162404
                ]
            },
            "properties": {
                "name": "Cono Sur"
            }
        },
        {
            "type": "Feature",
            "geometry": {
                "type": "Point",
                "coordinates": [
                    -6.2417351,
                    53.3625861
                ]
            },
            "properties": {
                "name": "The Strand"
            }
        },
        {
            "type": "Feature",
            "geometry": {
                "type": "Point",
                "coordinates": [
                    -6.4879031,
                    53.371456
                ]
            },
            "properties": {
                "name": "The Cellar off License"
            }
        },
        {
            "type": "Feature",
            "geometry": {
                "type": "Point",
                "coordinates": [
                    -7.6143116,
                    53.3438329
                ]
            },
            "properties": {
                "name": "Thomas Dolan"
            }
        },
        {
            "type": "Feature",
            "geometry": {
                "type": "Point",
                "coordinates": [
                    -6.2400266,
                    53.3665746
                ]
            },
            "properties": {
                "name": "Lilac Wines"
            }
        },
        {
            "type": "Feature",
            "geometry": {
                "type": "Point",
                "coordinates": [
                    -6.2992872,
                    53.3612024
                ]
            },
            "properties": {
                "name": "O'Briens"
            }
        },
        {
            "type": "Feature",
            "geometry": {
                "type": "Point",
                "coordinates": [
                    -6.6860308,
                    53.6530694
                ]
            },
            "properties": {
                "name": "O'Briens"
            }
        },
        {
            "type": "Feature",
            "geometry": {
                "type": "Point",
                "coordinates": [
                    -6.2596317,
                    53.3500175
                ]
            },
            "properties": {
                "name": "Dunnes Stores"
            }
        },
        {
            "type": "Feature",
            "geometry": {
                "type": "Point",
                "coordinates": [
                    -8.6267853,
                    52.6617102
                ]
            },
            "properties": {
                "name": "FIne Wines"
            }
        },
        {
            "type": "Feature",
            "geometry": {
                "type": "Point",
                "coordinates": [
                    -8.5778786,
                    52.6636929
                ]
            },
            "properties": {
                "name": "Fine Wines"
            }
        },
        {
            "type": "Feature",
            "geometry": {
                "type": "Point",
                "coordinates": [
                    -8.4841552,
                    51.8920125
                ]
            },
            "properties": {
                "name": "Galvins Carry Out"
            }
        },
        {
            "type": "Feature",
            "geometry": {
                "type": "Point",
                "coordinates": [
                    -7.9625182,
                    53.4244273
                ]
            },
            "properties": {
                "name": "Grove CarryOut"
            }
        },
        {
            "type": "Feature",
            "geometry": {
                "type": "Point",
                "coordinates": [
                    -8.3918718,
                    51.8185604
                ]
            },
            "properties": {
                "name": "O'Donovan's Off License"
            }
        },
        {
            "type": "Feature",
            "geometry": {
                "type": "Point",
                "coordinates": [
                    -8.3920419,
                    51.8137021
                ]
            },
            "properties": {
                "name": "Carry Out"
            }
        },
        {
            "type": "Feature",
            "geometry": {
                "type": "Point",
                "coordinates": [
                    -6.4526852,
                    53.348545
                ]
            },
            "properties": {
                "name": "O'Brians Spirit"
            }
        },
        {
            "type": "Feature",
            "geometry": {
                "type": "Point",
                "coordinates": [
                    -8.4827435,
                    51.883346
                ]
            },
            "properties": {
                "name": "O'Sullivans (Closed)"
            }
        },
        {
            "type": "Feature",
            "geometry": {
                "type": "Point",
                "coordinates": [
                    -6.3213781,
                    53.3256915
                ]
            },
            "properties": {
                "name": "Better Value"
            }
        },
        {
            "type": "Feature",
            "geometry": {
                "type": "Point",
                "coordinates": [
                    -6.1069634,
                    53.2046901
                ]
            }
        },
        {
            "type": "Feature",
            "geometry": {
                "type": "Point",
                "coordinates": [
                    -8.2942911,
                    51.8024632
                ]
            }
        },
        {
            "type": "Feature",
            "geometry": {
                "type": "Point",
                "coordinates": [
                    -8.1029676,
                    53.942318
                ]
            },
            "properties": {
                "name": "The Cellar"
            }
        },
        {
            "type": "Feature",
            "geometry": {
                "type": "Point",
                "coordinates": [
                    -6.383462,
                    53.2807866
                ]
            },
            "properties": {
                "name": "Mace Off-Licence"
            }
        },
        {
            "type": "Feature",
            "geometry": {
                "type": "Point",
                "coordinates": [
                    -9.0166008,
                    53.2906435
                ]
            },
            "properties": {
                "name": "McCambridges Wine Store"
            }
        },
        {
            "type": "Feature",
            "geometry": {
                "type": "Point",
                "coordinates": [
                    -6.1372896,
                    53.4208752
                ]
            },
            "properties": {
                "name": "Jus de Vine Off licence"
            }
        },
        {
            "type": "Feature",
            "geometry": {
                "type": "Point",
                "coordinates": [
                    -8.6190829,
                    52.6479596
                ]
            },
            "properties": {
                "name": "Fine Wines"
            }
        },
        {
            "type": "Feature",
            "geometry": {
                "type": "Point",
                "coordinates": [
                    -6.193594,
                    53.2567657
                ]
            },
            "properties": {
                "name": "Simply Wines"
            }
        },
        {
            "type": "Feature",
            "geometry": {
                "type": "Point",
                "coordinates": [
                    -6.5465792,
                    53.3512315
                ]
            }
        },
        {
            "type": "Feature",
            "geometry": {
                "type": "Point",
                "coordinates": [
                    -6.791207,
                    53.5601832
                ]
            }
        },
        {
            "type": "Feature",
            "geometry": {
                "type": "Point",
                "coordinates": [
                    -8.4485589,
                    51.9163881
                ]
            }
        },
        {
            "type": "Feature",
            "geometry": {
                "type": "Point",
                "coordinates": [
                    -8.5079862,
                    51.8795688
                ]
            },
            "properties": {
                "name": "Tesco (Alcohol)"
            }
        },
        {
            "type": "Feature",
            "geometry": {
                "type": "Point",
                "coordinates": [
                    -9.0748607,
                    53.2754753
                ]
            },
            "properties": {
                "name": "Fine Wines"
            }
        },
        {
            "type": "Feature",
            "geometry": {
                "type": "Point",
                "coordinates": [
                    -6.2915373,
                    53.3202523
                ]
            },
            "properties": {
                "name": "Next Door Off Licence"
            }
        },
        {
            "type": "Feature",
            "geometry": {
                "type": "Point",
                "coordinates": [
                    -6.2661335,
                    53.3794246
                ]
            },
            "properties": {
                "name": "The\u00a0Grapevine"
            }
        },
        {
            "type": "Feature",
            "geometry": {
                "type": "Point",
                "coordinates": [
                    -6.257921,
                    53.3637392
                ]
            },
            "properties": {
                "name": "Quinn's\u00a0Off\u00a0Licence"
            }
        },
        {
            "type": "Feature",
            "geometry": {
                "type": "Point",
                "coordinates": [
                    -8.4746369,
                    54.271361
                ]
            },
            "properties": {
                "name": "The Wine Buff"
            }
        },
        {
            "type": "Feature",
            "geometry": {
                "type": "Point",
                "coordinates": [
                    -6.1185285,
                    53.2861624
                ]
            },
            "properties": {
                "name": "The Wine Buff"
            }
        },
        {
            "type": "Feature",
            "geometry": {
                "type": "Point",
                "coordinates": [
                    -8.439925,
                    51.912237
                ]
            },
            "properties": {
                "name": "Murray's SuperValu"
            }
        },
        {
            "type": "Feature",
            "geometry": {
                "type": "Point",
                "coordinates": [
                    -7.6917127,
                    52.3547731
                ]
            },
            "properties": {
                "name": "Fine Wines"
            }
        },
        {
            "type": "Feature",
            "geometry": {
                "type": "Point",
                "coordinates": [
                    -8.1891354,
                    54.4997155
                ]
            },
            "properties": {
                "name": "Owen Roe's Next Door Off Licence"
            }
        },
        {
            "type": "Feature",
            "geometry": {
                "type": "Point",
                "coordinates": [
                    -7.3967655,
                    52.8447622
                ]
            }
        },
        {
            "type": "Feature",
            "geometry": {
                "type": "Point",
                "coordinates": [
                    -8.1926739,
                    54.5035552
                ]
            },
            "properties": {
                "name": "Frank Dorrian's Wine and Spirit Store"
            }
        },
        {
            "type": "Feature",
            "geometry": {
                "type": "Point",
                "coordinates": [
                    -8.190128,
                    54.5029333
                ]
            },
            "properties": {
                "name": "Dicey Reilley's"
            }
        },
        {
            "type": "Feature",
            "geometry": {
                "type": "Point",
                "coordinates": [
                    -6.2154544,
                    53.2779795
                ]
            },
            "properties": {
                "name": "O'Briens"
            }
        },
        {
            "type": "Feature",
            "geometry": {
                "type": "Point",
                "coordinates": [
                    -6.1975278,
                    53.2583033
                ]
            },
            "properties": {
                "name": "Molloys"
            }
        },
        {
            "type": "Feature",
            "geometry": {
                "type": "Point",
                "coordinates": [
                    -7.2559896,
                    52.6496652
                ]
            }
        },
        {
            "type": "Feature",
            "geometry": {
                "type": "Point",
                "coordinates": [
                    -8.3503871,
                    52.4630428
                ]
            }
        },
        {
            "type": "Feature",
            "geometry": {
                "type": "Point",
                "coordinates": [
                    -6.179174,
                    53.3022949
                ]
            },
            "properties": {
                "name": "Blackrock Cellar"
            }
        },
        {
            "type": "Feature",
            "geometry": {
                "type": "Point",
                "coordinates": [
                    -8.4718343,
                    54.2705002
                ]
            },
            "properties": {
                "name": "Foleys"
            }
        },
        {
            "type": "Feature",
            "geometry": {
                "type": "Point",
                "coordinates": [
                    -8.3032846,
                    53.9717697
                ]
            },
            "properties": {
                "name": "Dalys Off Licence"
            }
        },
        {
            "type": "Feature",
            "geometry": {
                "type": "Point",
                "coordinates": [
                    -6.0651801,
                    53.3851415
                ]
            },
            "properties": {
                "name": "The Winehouse"
            }
        },
        {
            "type": "Feature",
            "geometry": {
                "type": "Point",
                "coordinates": [
                    -6.3928744,
                    53.3222427
                ]
            },
            "properties": {
                "name": "Molloys, Clondalkin"
            }
        },
        {
            "type": "Feature",
            "geometry": {
                "type": "Point",
                "coordinates": [
                    -6.3715725,
                    53.3846064
                ]
            },
            "properties": {
                "name": "Carry Out"
            }
        },
        {
            "type": "Feature",
            "geometry": {
                "type": "Point",
                "coordinates": [
                    -9.0002149,
                    53.8490328
                ]
            },
            "properties": {
                "name": "Langans Off Licence"
            }
        },
        {
            "type": "Feature",
            "geometry": {
                "type": "Point",
                "coordinates": [
                    -6.376891,
                    53.3501626
                ]
            }
        },
        {
            "type": "Feature",
            "geometry": {
                "type": "Point",
                "coordinates": [
                    -6.3567766,
                    53.3416277
                ]
            }
        },
        {
            "type": "Feature",
            "geometry": {
                "type": "Point",
                "coordinates": [
                    -8.5213751,
                    51.8790651
                ]
            },
            "properties": {
                "name": "Off licence"
            }
        },
        {
            "type": "Feature",
            "geometry": {
                "type": "Point",
                "coordinates": [
                    -6.5986714,
                    53.372765
                ]
            }
        },
        {
            "type": "Feature",
            "geometry": {
                "type": "Point",
                "coordinates": [
                    -6.1057878,
                    53.1926008
                ]
            },
            "properties": {
                "name": "O'Briens Wine"
            }
        },
        {
            "type": "Feature",
            "geometry": {
                "type": "Point",
                "coordinates": [
                    -6.6680174,
                    53.3994657
                ]
            },
            "properties": {
                "name": "O'Keeffes"
            }
        },
        {
            "type": "Feature",
            "geometry": {
                "type": "Point",
                "coordinates": [
                    -8.16776,
                    51.904994
                ]
            },
            "properties": {
                "name": "Lakeview Off Licence"
            }
        },
        {
            "type": "Feature",
            "geometry": {
                "type": "Point",
                "coordinates": [
                    -7.1889874,
                    53.1621598
                ]
            },
            "properties": {
                "name": "Weighbridge"
            }
        },
        {
            "type": "Feature",
            "geometry": {
                "type": "Point",
                "coordinates": [
                    -6.3889846,
                    53.3720251
                ]
            },
            "properties": {
                "name": "Carpenter Off-License"
            }
        },
        {
            "type": "Feature",
            "geometry": {
                "type": "Point",
                "coordinates": [
                    -6.2978858,
                    53.3899143
                ]
            },
            "properties": {
                "name": "Molloy's Liquor Store"
            }
        },
        {
            "type": "Feature",
            "geometry": {
                "type": "Point",
                "coordinates": [
                    -6.2785304,
                    53.3236828
                ]
            },
            "properties": {
                "name": "D Six"
            }
        },
        {
            "type": "Feature",
            "geometry": {
                "type": "Point",
                "coordinates": [
                    -9.808327,
                    53.7632382
                ]
            },
            "properties": {
                "name": "Bottle-O"
            }
        },
        {
            "type": "Feature",
            "geometry": {
                "type": "Point",
                "coordinates": [
                    -7.2357054,
                    52.6679341
                ]
            }
        },
        {
            "type": "Feature",
            "geometry": {
                "type": "Point",
                "coordinates": [
                    -6.2742726,
                    53.3121836
                ]
            },
            "properties": {
                "name": "O'Briens"
            }
        },
        {
            "type": "Feature",
            "geometry": {
                "type": "Point",
                "coordinates": [
                    -6.2740917,
                    53.312375
                ]
            },
            "properties": {
                "name": "The Vintry"
            }
        },
        {
            "type": "Feature",
            "geometry": {
                "type": "Point",
                "coordinates": [
                    -7.9309413,
                    53.4213727
                ]
            },
            "properties": {
                "name": "O'Brien's"
            }
        },
        {
            "type": "Feature",
            "geometry": {
                "type": "Point",
                "coordinates": [
                    -7.6207095,
                    52.0899652
                ]
            },
            "properties": {
                "name": "The Wine Buff"
            }
        },
        {
            "type": "Feature",
            "geometry": {
                "type": "Point",
                "coordinates": [
                    -6.273089,
                    53.3616394
                ]
            },
            "properties": {
                "name": "Tesco Off-license"
            }
        },
        {
            "type": "Feature",
            "geometry": {
                "type": "Point",
                "coordinates": [
                    -6.2879028,
                    53.3907135
                ]
            },
            "properties": {
                "name": "Cheers Take Home"
            }
        },
        {
            "type": "Feature",
            "geometry": {
                "type": "Point",
                "coordinates": [
                    -6.26834,
                    53.3725756
                ]
            },
            "properties": {
                "name": "Bracken's Off-Licence"
            }
        },
        {
            "type": "Feature",
            "geometry": {
                "type": "Point",
                "coordinates": [
                    -7.715421,
                    54.95704
                ]
            }
        },
        {
            "type": "Feature",
            "geometry": {
                "type": "Point",
                "coordinates": [
                    -7.363124,
                    53.9895948
                ]
            },
            "properties": {
                "name": "Next Door"
            }
        },
        {
            "type": "Feature",
            "geometry": {
                "type": "Point",
                "coordinates": [
                    -6.321599,
                    53.3260227
                ]
            },
            "properties": {
                "name": "Acheson's Off Licence"
            }
        },
        {
            "type": "Feature",
            "geometry": {
                "type": "Point",
                "coordinates": [
                    -6.2893925,
                    53.3432506
                ]
            },
            "properties": {
                "name": "Next Door"
            }
        },
        {
            "type": "Feature",
            "geometry": {
                "type": "Point",
                "coordinates": [
                    -6.2832654,
                    53.3107205
                ]
            },
            "properties": {
                "name": "Cork's Off-licence"
            }
        },
        {
            "type": "Feature",
            "geometry": {
                "type": "Point",
                "coordinates": [
                    -6.2906642,
                    53.3434827
                ]
            },
            "properties": {
                "name": "The Tram"
            }
        },
        {
            "type": "Feature",
            "geometry": {
                "type": "Point",
                "coordinates": [
                    -6.3029584,
                    53.4031453
                ]
            },
            "properties": {
                "name": "The Ice Box"
            }
        },
        {
            "type": "Feature",
            "geometry": {
                "type": "Point",
                "coordinates": [
                    -6.2766633,
                    53.3999674
                ]
            },
            "properties": {
                "name": "Quinn's Next Door Off-licence"
            }
        },
        {
            "type": "Feature",
            "geometry": {
                "type": "Point",
                "coordinates": [
                    -6.3934035,
                    53.405502
                ]
            },
            "properties": {
                "name": "Carry Out"
            }
        },
        {
            "type": "Feature",
            "geometry": {
                "type": "Point",
                "coordinates": [
                    -6.4225736,
                    53.2829849
                ]
            }
        },
        {
            "type": "Feature",
            "geometry": {
                "type": "Point",
                "coordinates": [
                    -6.2067962,
                    53.3706859
                ]
            },
            "properties": {
                "name": "SuperValu OffLicence"
            }
        },
        {
            "type": "Feature",
            "geometry": {
                "type": "Point",
                "coordinates": [
                    -10.2678298,
                    52.1414768
                ]
            },
            "properties": {
                "name": "Dingle Pub Off Licence"
            }
        },
        {
            "type": "Feature",
            "geometry": {
                "type": "Point",
                "coordinates": [
                    -9.0252915,
                    53.2889413
                ]
            },
            "properties": {
                "name": "Cases Wine Warehouse"
            }
        },
        {
            "type": "Feature",
            "geometry": {
                "type": "Point",
                "coordinates": [
                    -6.2460292,
                    53.3885797
                ]
            },
            "properties": {
                "name": "Carry Out"
            }
        },
        {
            "type": "Feature",
            "geometry": {
                "type": "Point",
                "coordinates": [
                    -6.2964359,
                    52.6763016
                ]
            },
            "properties": {
                "name": "Beer Necessities"
            }
        },
        {
            "type": "Feature",
            "geometry": {
                "type": "Point",
                "coordinates": [
                    -6.2213646,
                    53.373468
                ]
            },
            "properties": {
                "name": "Casino Off-licence"
            }
        },
        {
            "type": "Feature",
            "geometry": {
                "type": "Point",
                "coordinates": [
                    -8.6834973,
                    52.3529044
                ]
            },
            "properties": {
                "name": "Mulchays Off Licence"
            }
        },
        {
            "type": "Feature",
            "geometry": {
                "type": "Point",
                "coordinates": [
                    -6.2529101,
                    53.3511632
                ]
            },
            "properties": {
                "name": "The Cellar"
            }
        },
        {
            "type": "Feature",
            "geometry": {
                "type": "Point",
                "coordinates": [
                    -6.2938664,
                    52.6761389
                ]
            },
            "properties": {
                "name": "Next Door"
            }
        },
        {
            "type": "Feature",
            "geometry": {
                "type": "Point",
                "coordinates": [
                    -8.5830022,
                    52.6479547
                ]
            },
            "properties": {
                "name": "Fine Wines"
            }
        },
        {
            "type": "Feature",
            "geometry": {
                "type": "Point",
                "coordinates": [
                    -6.3011863,
                    53.3295674
                ]
            },
            "properties": {
                "name": "Molloy's Liquor Stores"
            }
        },
        {
            "type": "Feature",
            "geometry": {
                "type": "Point",
                "coordinates": [
                    -6.3566687,
                    53.3422192
                ]
            },
            "properties": {
                "name": "Molloy's Liquor Store"
            }
        },
        {
            "type": "Feature",
            "geometry": {
                "type": "Point",
                "coordinates": [
                    -6.2928889,
                    53.3669713
                ]
            },
            "properties": {
                "name": "Buddies Off-Licence"
            }
        },
        {
            "type": "Feature",
            "geometry": {
                "type": "Point",
                "coordinates": [
                    -6.2833031,
                    53.3515135
                ]
            },
            "properties": {
                "name": "Drinkstore"
            }
        },
        {
            "type": "Feature",
            "geometry": {
                "type": "Point",
                "coordinates": [
                    -10.0210293,
                    53.4890757
                ]
            },
            "properties": {
                "name": "Ferguson's Fine Wines"
            }
        },
        {
            "type": "Feature",
            "geometry": {
                "type": "Point",
                "coordinates": [
                    -6.1341583,
                    53.2561984
                ]
            },
            "properties": {
                "name": "O'Briens Wine"
            }
        },
        {
            "type": "Feature",
            "geometry": {
                "type": "Point",
                "coordinates": [
                    -6.1760245,
                    53.2880271
                ]
            },
            "properties": {
                "name": "O'Brien's"
            }
        },
        {
            "type": "Feature",
            "geometry": {
                "type": "Point",
                "coordinates": [
                    -8.2797815,
                    52.1360659
                ]
            },
            "properties": {
                "name": "Off Licence"
            }
        },
        {
            "type": "Feature",
            "geometry": {
                "type": "Point",
                "coordinates": [
                    -8.6181937,
                    52.6636196
                ]
            },
            "properties": {
                "name": "Coaster's"
            }
        },
        {
            "type": "Feature",
            "geometry": {
                "type": "Point",
                "coordinates": [
                    -8.5820316,
                    52.6653917
                ]
            },
            "properties": {
                "name": "Fine Wines"
            }
        },
        {
            "type": "Feature",
            "geometry": {
                "type": "Point",
                "coordinates": [
                    -8.1751734,
                    51.9176716
                ]
            },
            "properties": {
                "name": "O'Donovans Off-licence"
            }
        },
        {
            "type": "Feature",
            "geometry": {
                "type": "Point",
                "coordinates": [
                    -6.2876652,
                    52.6793225
                ]
            },
            "properties": {
                "name": "Carry Out"
            }
        },
        {
            "type": "Feature",
            "geometry": {
                "type": "Point",
                "coordinates": [
                    -8.4465856,
                    51.9168397
                ]
            },
            "properties": {
                "name": "McGoverns Carryout"
            }
        },
        {
            "type": "Feature",
            "geometry": {
                "type": "Point",
                "coordinates": [
                    -6.5396726,
                    53.5114176
                ]
            },
            "properties": {
                "name": "Next Door Off Licence"
            }
        },
        {
            "type": "Feature",
            "geometry": {
                "type": "Point",
                "coordinates": [
                    -6.1227206,
                    53.1893897
                ]
            },
            "properties": {
                "name": "Centra Off Licence"
            }
        },
        {
            "type": "Feature",
            "geometry": {
                "type": "Point",
                "coordinates": [
                    -9.5073711,
                    52.0557048
                ]
            },
            "properties": {
                "name": "Carry Out"
            }
        },
        {
            "type": "Feature",
            "geometry": {
                "type": "Point",
                "coordinates": [
                    -9.5154501,
                    52.0681903
                ]
            },
            "properties": {
                "name": "Carry Out"
            }
        },
        {
            "type": "Feature",
            "geometry": {
                "type": "Point",
                "coordinates": [
                    -9.5101929,
                    52.060425
                ]
            },
            "properties": {
                "name": "J C O'Shea"
            }
        },
        {
            "type": "Feature",
            "geometry": {
                "type": "Point",
                "coordinates": [
                    -6.1524524,
                    53.2940181
                ]
            },
            "properties": {
                "name": "Searsons Wine Merchants"
            }
        },
        {
            "type": "Feature",
            "geometry": {
                "type": "Point",
                "coordinates": [
                    -6.1989654,
                    53.288533
                ]
            },
            "properties": {
                "name": "O\u2019Brien\u2019s Fine Wines"
            }
        },
        {
            "type": "Feature",
            "geometry": {
                "type": "Point",
                "coordinates": [
                    -8.4285388,
                    51.9149037
                ]
            }
        },
        {
            "type": "Feature",
            "geometry": {
                "type": "Point",
                "coordinates": [
                    -6.2229721,
                    53.4548426
                ]
            },
            "properties": {
                "name": "The Lord Mayors off licence"
            }
        },
        {
            "type": "Feature",
            "geometry": {
                "type": "Point",
                "coordinates": [
                    -8.4495923,
                    51.8676158
                ]
            },
            "properties": {
                "name": "Matson's Wine Store"
            }
        },
        {
            "type": "Feature",
            "geometry": {
                "type": "Point",
                "coordinates": [
                    -6.3293783,
                    53.32414
                ]
            }
        },
        {
            "type": "Feature",
            "geometry": {
                "type": "Point",
                "coordinates": [
                    -6.7217546,
                    52.391044
                ]
            },
            "properties": {
                "name": "Brad \u00d3gs Off Licence"
            }
        },
        {
            "type": "Feature",
            "geometry": {
                "type": "Point",
                "coordinates": [
                    -9.4838343,
                    52.638113
                ]
            }
        },
        {
            "type": "Feature",
            "geometry": {
                "type": "Point",
                "coordinates": [
                    -6.236615,
                    53.3052285
                ]
            },
            "properties": {
                "name": "Higgins"
            }
        },
        {
            "type": "Feature",
            "geometry": {
                "type": "Point",
                "coordinates": [
                    -6.4873584,
                    53.9715341
                ]
            },
            "properties": {
                "name": "MacNamee Off Licence"
            }
        },
        {
            "type": "Feature",
            "geometry": {
                "type": "Point",
                "coordinates": [
                    -6.2048319,
                    53.2884676
                ]
            },
            "properties": {
                "name": "O'Briens"
            }
        },
        {
            "type": "Feature",
            "geometry": {
                "type": "Point",
                "coordinates": [
                    -6.0449607,
                    52.9807359
                ]
            },
            "properties": {
                "name": "Next Door"
            }
        },
        {
            "type": "Feature",
            "geometry": {
                "type": "Point",
                "coordinates": [
                    -6.0634447,
                    53.1450686
                ]
            },
            "properties": {
                "name": "O'Briens"
            }
        },
        {
            "type": "Feature",
            "geometry": {
                "type": "Point",
                "coordinates": [
                    -6.1542821,
                    53.4505292
                ]
            },
            "properties": {
                "name": "O'Briens"
            }
        },
        {
            "type": "Feature",
            "geometry": {
                "type": "Point",
                "coordinates": [
                    -6.2773541,
                    53.3340684
                ]
            },
            "properties": {
                "name": "Happy's News and Booze"
            }
        },
        {
            "type": "Feature",
            "geometry": {
                "type": "Point",
                "coordinates": [
                    -6.263369,
                    53.3576226
                ]
            },
            "properties": {
                "name": "W.J. Kavanagh's Off-Licence"
            }
        },
        {
            "type": "Feature",
            "geometry": {
                "type": "Point",
                "coordinates": [
                    -6.1958198,
                    53.3642829
                ]
            },
            "properties": {
                "name": "Kelly's Off Licence"
            }
        },
        {
            "type": "Feature",
            "geometry": {
                "type": "Point",
                "coordinates": [
                    -7.0833685,
                    52.247157
                ]
            },
            "properties": {
                "name": "O\u2019Briens Wine Beer & Spirits"
            }
        },
        {
            "type": "Feature",
            "geometry": {
                "type": "Point",
                "coordinates": [
                    -6.2524594,
                    53.3511956
                ]
            },
            "properties": {
                "name": "Maher's"
            }
        },
        {
            "type": "Feature",
            "geometry": {
                "type": "Point",
                "coordinates": [
                    -6.9305633,
                    52.3989334
                ]
            },
            "properties": {
                "name": "Corcoran's"
            }
        },
        {
            "type": "Feature",
            "geometry": {
                "type": "Point",
                "coordinates": [
                    -6.4593173,
                    52.3358977
                ]
            }
        },
        {
            "type": "Feature",
            "geometry": {
                "type": "Point",
                "coordinates": [
                    -6.4061981,
                    53.3906011
                ]
            },
            "properties": {
                "name": "Salmons Offlicence"
            }
        },
        {
            "type": "Feature",
            "geometry": {
                "type": "Point",
                "coordinates": [
                    -6.2719301,
                    53.366819
                ]
            },
            "properties": {
                "name": "Sweeney's Off Licence"
            }
        },
        {
            "type": "Feature",
            "geometry": {
                "type": "Point",
                "coordinates": [
                    -6.1503214,
                    53.2939628
                ]
            },
            "properties": {
                "name": "Eno Wine"
            }
        },
        {
            "type": "Feature",
            "geometry": {
                "type": "Point",
                "coordinates": [
                    -7.0849726,
                    52.247798
                ]
            },
            "properties": {
                "name": "World Wide Wines"
            }
        },
        {
            "type": "Feature",
            "geometry": {
                "type": "Point",
                "coordinates": [
                    -6.9326168,
                    52.8366314
                ]
            },
            "properties": {
                "name": "Castle Off License"
            }
        },
        {
            "type": "Feature",
            "geometry": {
                "type": "Point",
                "coordinates": [
                    -6.2434813,
                    53.2889986
                ]
            },
            "properties": {
                "name": "Deveney's"
            }
        },
        {
            "type": "Feature",
            "geometry": {
                "type": "Point",
                "coordinates": [
                    -6.2748412,
                    53.312043
                ]
            },
            "properties": {
                "name": "The Wine Corner"
            }
        },
        {
            "type": "Feature",
            "geometry": {
                "type": "Point",
                "coordinates": [
                    -6.1461498,
                    53.2684675
                ]
            },
            "properties": {
                "name": "The Vintage"
            }
        },
        {
            "type": "Feature",
            "geometry": {
                "type": "Point",
                "coordinates": [
                    -6.1695997,
                    53.1921332
                ]
            },
            "properties": {
                "name": "The Parting Glass"
            }
        },
        {
            "type": "Feature",
            "geometry": {
                "type": "Point",
                "coordinates": [
                    -6.1050514,
                    53.2778068
                ]
            },
            "properties": {
                "name": "O'Brien's"
            }
        },
        {
            "type": "Feature",
            "geometry": {
                "type": "Point",
                "coordinates": [
                    -7.8661276,
                    53.9214846
                ]
            },
            "properties": {
                "name": "Gordon's Cosy Corner"
            }
        },
        {
            "type": "Feature",
            "geometry": {
                "type": "Point",
                "coordinates": [
                    -6.2588175,
                    53.3399395
                ]
            },
            "properties": {
                "name": "Wines on the Green"
            }
        },
        {
            "type": "Feature",
            "geometry": {
                "type": "Point",
                "coordinates": [
                    -6.2588411,
                    53.3398884
                ]
            },
            "properties": {
                "name": "Celtic Whiskey Shop"
            }
        },
        {
            "type": "Feature",
            "geometry": {
                "type": "Point",
                "coordinates": [
                    -6.2483279,
                    53.3414485
                ]
            },
            "properties": {
                "name": "Probus"
            }
        },
        {
            "type": "Feature",
            "geometry": {
                "type": "Point",
                "coordinates": [
                    -6.2636963,
                    53.3006099
                ]
            },
            "properties": {
                "name": "Oddbins"
            }
        },
        {
            "type": "Feature",
            "geometry": {
                "type": "Point",
                "coordinates": [
                    -7.1841506,
                    52.5914703
                ]
            },
            "properties": {
                "name": "The Nore Tavern"
            }
        },
        {
            "type": "Feature",
            "geometry": {
                "type": "Point",
                "coordinates": [
                    -8.6255073,
                    52.6592421
                ]
            },
            "properties": {
                "name": "Fine Wines"
            }
        },
        {
            "type": "Feature",
            "geometry": {
                "type": "Point",
                "coordinates": [
                    -6.1230343,
                    53.2872634
                ]
            },
            "properties": {
                "name": "Sixtyfour Wine"
            }
        },
        {
            "type": "Feature",
            "geometry": {
                "type": "Point",
                "coordinates": [
                    -6.3031743,
                    53.2982885
                ]
            },
            "properties": {
                "name": "O'Briens Wine Off Licence"
            }
        }
    ],
    "crs": {
        "type": "name",
        "properties": {
            "name": "urn:ogc:def:crs:OGC:1.3:CRS84"
        }
    }
}