{
    "type": "FeatureCollection",
    "features": [
        {
            "type": "Feature",
            "geometry": {
                "type": "Point",
                "coordinates": [
                    7.599492,
                    47.5423932
                ]
            },
            "properties": {
                "name": "Paul Ullrich AG"
            }
        },
        {
            "type": "Feature",
            "geometry": {
                "type": "Point",
                "coordinates": [
                    8.6090862,
                    46.9998326
                ]
            },
            "properties": {
                "name": "Spiicher"
            }
        },
        {
            "type": "Feature",
            "geometry": {
                "type": "Point",
                "coordinates": [
                    8.5508277,
                    47.3683493
                ]
            },
            "properties": {
                "name": "Hofer Weine"
            }
        },
        {
            "type": "Feature",
            "geometry": {
                "type": "Point",
                "coordinates": [
                    7.4543559,
                    46.9598153
                ]
            },
            "properties": {
                "name": "Cantina del Mulino"
            }
        },
        {
            "type": "Feature",
            "geometry": {
                "type": "Point",
                "coordinates": [
                    6.9290406,
                    46.9926885
                ]
            },
            "properties": {
                "name": "Vin libre"
            }
        },
        {
            "type": "Feature",
            "geometry": {
                "type": "Point",
                "coordinates": [
                    6.6306898,
                    46.5198546
                ]
            }
        },
        {
            "type": "Feature",
            "geometry": {
                "type": "Point",
                "coordinates": [
                    6.940348,
                    46.9962339
                ]
            },
            "properties": {
                "name": "Au petit Vigneron"
            }
        },
        {
            "type": "Feature",
            "geometry": {
                "type": "Point",
                "coordinates": [
                    7.4323715,
                    46.938216
                ]
            },
            "properties": {
                "name": "Bodega Peninsula"
            }
        },
        {
            "type": "Feature",
            "geometry": {
                "type": "Point",
                "coordinates": [
                    7.4308329,
                    46.937423
                ]
            },
            "properties": {
                "name": "Castillo del Vino"
            }
        },
        {
            "type": "Feature",
            "geometry": {
                "type": "Point",
                "coordinates": [
                    6.9280444,
                    46.9924712
                ]
            },
            "properties": {
                "name": "Bauermeister"
            }
        },
        {
            "type": "Feature",
            "geometry": {
                "type": "Point",
                "coordinates": [
                    6.9282885,
                    46.992077
                ]
            },
            "properties": {
                "name": "Au grain d'orge"
            }
        },
        {
            "type": "Feature",
            "geometry": {
                "type": "Point",
                "coordinates": [
                    8.7281692,
                    47.5000078
                ]
            },
            "properties": {
                "name": "Trait\u00e9 Weine Spirituosen"
            }
        },
        {
            "type": "Feature",
            "geometry": {
                "type": "Point",
                "coordinates": [
                    7.6120832,
                    47.0641497
                ]
            },
            "properties": {
                "name": "Gedex Burgdorf"
            }
        },
        {
            "type": "Feature",
            "geometry": {
                "type": "Point",
                "coordinates": [
                    8.5269703,
                    47.3737076
                ]
            },
            "properties": {
                "name": "Inter Comestibles, der Laden"
            }
        },
        {
            "type": "Feature",
            "geometry": {
                "type": "Point",
                "coordinates": [
                    8.6423169,
                    47.3512297
                ]
            },
            "properties": {
                "name": "Coop Gallerie du Vin"
            }
        },
        {
            "type": "Feature",
            "geometry": {
                "type": "Point",
                "coordinates": [
                    8.5465455,
                    47.3732171
                ]
            },
            "properties": {
                "name": "Whisky Shop"
            }
        },
        {
            "type": "Feature",
            "geometry": {
                "type": "Point",
                "coordinates": [
                    8.5441928,
                    47.3715471
                ]
            },
            "properties": {
                "name": "fine&more switzerland"
            }
        },
        {
            "type": "Feature",
            "geometry": {
                "type": "Point",
                "coordinates": [
                    8.593305,
                    46.6341193
                ]
            },
            "properties": {
                "name": "Kristall Laden"
            }
        },
        {
            "type": "Feature",
            "geometry": {
                "type": "Point",
                "coordinates": [
                    8.5290785,
                    47.3765121
                ]
            },
            "properties": {
                "name": "buonvini"
            }
        },
        {
            "type": "Feature",
            "geometry": {
                "type": "Point",
                "coordinates": [
                    8.545673,
                    47.3684666
                ]
            },
            "properties": {
                "name": "Glen Fahrn"
            }
        },
        {
            "type": "Feature",
            "geometry": {
                "type": "Point",
                "coordinates": [
                    6.8319089,
                    47.1048349
                ]
            },
            "properties": {
                "name": "Aux deux go\u00fbts"
            }
        },
        {
            "type": "Feature",
            "geometry": {
                "type": "Point",
                "coordinates": [
                    7.0272587,
                    46.2443253
                ]
            },
            "properties": {
                "name": "Rapaz Fr\u00e8res Vignerons-Encaveurs"
            }
        },
        {
            "type": "Feature",
            "geometry": {
                "type": "Point",
                "coordinates": [
                    6.1431794,
                    46.1927721
                ]
            },
            "properties": {
                "name": "Bibarium"
            }
        },
        {
            "type": "Feature",
            "geometry": {
                "type": "Point",
                "coordinates": [
                    7.5193104,
                    46.2866505
                ]
            },
            "properties": {
                "name": "Vinoth\u00e8que Imesch Vins"
            }
        },
        {
            "type": "Feature",
            "geometry": {
                "type": "Point",
                "coordinates": [
                    7.5208894,
                    46.2872784
                ]
            },
            "properties": {
                "name": "Espace Provins"
            }
        },
        {
            "type": "Feature",
            "geometry": {
                "type": "Point",
                "coordinates": [
                    8.3262631,
                    47.312677
                ]
            },
            "properties": {
                "name": "Brau- und Rauchshop GmbH"
            }
        },
        {
            "type": "Feature",
            "geometry": {
                "type": "Point",
                "coordinates": [
                    6.4969852,
                    46.5078187
                ]
            },
            "properties": {
                "name": "Granch\u00e2teau"
            }
        },
        {
            "type": "Feature",
            "geometry": {
                "type": "Point",
                "coordinates": [
                    8.5318876,
                    47.3811645
                ]
            },
            "properties": {
                "name": "Amboss Rampe"
            }
        },
        {
            "type": "Feature",
            "geometry": {
                "type": "Point",
                "coordinates": [
                    7.0638467,
                    46.0903291
                ]
            },
            "properties": {
                "name": "Caveau des Ursulines"
            }
        },
        {
            "type": "Feature",
            "geometry": {
                "type": "Point",
                "coordinates": [
                    7.0663444,
                    46.091611
                ]
            },
            "properties": {
                "name": "Vins de Molignon"
            }
        },
        {
            "type": "Feature",
            "geometry": {
                "type": "Point",
                "coordinates": [
                    9.0540566,
                    47.4686834
                ]
            },
            "properties": {
                "name": "Gocce AG"
            }
        },
        {
            "type": "Feature",
            "geometry": {
                "type": "Point",
                "coordinates": [
                    7.9523771,
                    47.3640314
                ]
            },
            "properties": {
                "name": "Sommer Weine"
            }
        },
        {
            "type": "Feature",
            "geometry": {
                "type": "Point",
                "coordinates": [
                    7.3603839,
                    46.2350584
                ]
            },
            "properties": {
                "name": "Verre \u00e0 Pied"
            }
        },
        {
            "type": "Feature",
            "geometry": {
                "type": "Point",
                "coordinates": [
                    7.4534075,
                    47.0205724
                ]
            }
        },
        {
            "type": "Feature",
            "geometry": {
                "type": "Point",
                "coordinates": [
                    8.3240975,
                    47.0391303
                ]
            },
            "properties": {
                "name": "Carl Studer Vinothek"
            }
        },
        {
            "type": "Feature",
            "geometry": {
                "type": "Point",
                "coordinates": [
                    6.7478304,
                    47.0574444
                ]
            }
        },
        {
            "type": "Feature",
            "geometry": {
                "type": "Point",
                "coordinates": [
                    6.7461782,
                    47.0565527
                ]
            }
        },
        {
            "type": "Feature",
            "geometry": {
                "type": "Point",
                "coordinates": [
                    6.9289736,
                    46.9919333
                ]
            },
            "properties": {
                "name": "Vins"
            }
        },
        {
            "type": "Feature",
            "geometry": {
                "type": "Point",
                "coordinates": [
                    9.4692979,
                    47.1648631
                ]
            },
            "properties": {
                "name": "Sch\u00fctzengarten Getr\u00e4nke-Service"
            }
        },
        {
            "type": "Feature",
            "geometry": {
                "type": "Point",
                "coordinates": [
                    7.6308107,
                    46.757172
                ]
            },
            "properties": {
                "name": "van der Heijden"
            }
        },
        {
            "type": "Feature",
            "geometry": {
                "type": "Point",
                "coordinates": [
                    7.0752932,
                    46.1112155
                ]
            },
            "properties": {
                "name": "Grecor"
            }
        },
        {
            "type": "Feature",
            "geometry": {
                "type": "Point",
                "coordinates": [
                    7.1907088,
                    46.1752311
                ]
            },
            "properties": {
                "name": "Cave Pierre & Dominique Luisier"
            }
        },
        {
            "type": "Feature",
            "geometry": {
                "type": "Point",
                "coordinates": [
                    8.5148844,
                    47.3753885
                ]
            },
            "properties": {
                "name": "Vini Vergani"
            }
        },
        {
            "type": "Feature",
            "geometry": {
                "type": "Point",
                "coordinates": [
                    8.6905318,
                    47.2526603
                ]
            },
            "properties": {
                "name": "Weine Baur au Lac"
            }
        },
        {
            "type": "Feature",
            "geometry": {
                "type": "Point",
                "coordinates": [
                    6.1151863,
                    46.1675945
                ]
            },
            "properties": {
                "name": "blaviniac"
            }
        },
        {
            "type": "Feature",
            "geometry": {
                "type": "Point",
                "coordinates": [
                    6.8914323,
                    46.9879004
                ]
            }
        },
        {
            "type": "Feature",
            "geometry": {
                "type": "Point",
                "coordinates": [
                    8.0448231,
                    47.3932982
                ]
            },
            "properties": {
                "name": "La Passion du Vin"
            }
        },
        {
            "type": "Feature",
            "geometry": {
                "type": "Point",
                "coordinates": [
                    8.7666241,
                    47.2518902
                ]
            },
            "properties": {
                "name": "Getr\u00e4nke Florhof"
            }
        },
        {
            "type": "Feature",
            "geometry": {
                "type": "Point",
                "coordinates": [
                    7.5372058,
                    47.2044085
                ]
            }
        },
        {
            "type": "Feature",
            "geometry": {
                "type": "Point",
                "coordinates": [
                    8.6503766,
                    47.6994116
                ]
            },
            "properties": {
                "name": "GVS Schachenmann / Getr\u00e4nkehandel"
            }
        },
        {
            "type": "Feature",
            "geometry": {
                "type": "Point",
                "coordinates": [
                    6.7284701,
                    46.4880806
                ]
            },
            "properties": {
                "name": "Les Fr\u00e8res Dubois"
            }
        },
        {
            "type": "Feature",
            "geometry": {
                "type": "Point",
                "coordinates": [
                    9.3666964,
                    47.4195243
                ]
            },
            "properties": {
                "name": "Delinat"
            }
        },
        {
            "type": "Feature",
            "geometry": {
                "type": "Point",
                "coordinates": [
                    8.5673499,
                    47.3436079
                ]
            },
            "properties": {
                "name": "Movenpick Weinkeller"
            }
        },
        {
            "type": "Feature",
            "geometry": {
                "type": "Point",
                "coordinates": [
                    7.0806219,
                    46.5864768
                ]
            },
            "properties": {
                "name": "Robert Pittet & Fils, Commerce de vins et spiritueux"
            }
        },
        {
            "type": "Feature",
            "geometry": {
                "type": "Point",
                "coordinates": [
                    8.8218957,
                    47.2282258
                ]
            },
            "properties": {
                "name": "Vinothek Rauch"
            }
        },
        {
            "type": "Feature",
            "geometry": {
                "type": "Point",
                "coordinates": [
                    8.5210627,
                    47.3611
                ]
            },
            "properties": {
                "name": "Selection Schwander"
            }
        },
        {
            "type": "Feature",
            "geometry": {
                "type": "Point",
                "coordinates": [
                    7.4978938,
                    47.0188028
                ]
            }
        },
        {
            "type": "Feature",
            "geometry": {
                "type": "Point",
                "coordinates": [
                    7.5405897,
                    47.0421646
                ]
            }
        },
        {
            "type": "Feature",
            "geometry": {
                "type": "Point",
                "coordinates": [
                    8.9570732,
                    46.0612388
                ]
            },
            "properties": {
                "name": "Cantine Ronco"
            }
        },
        {
            "type": "Feature",
            "geometry": {
                "type": "Point",
                "coordinates": [
                    6.3402141,
                    46.4713292
                ]
            },
            "properties": {
                "name": "Clos sus L'Abbaye"
            }
        },
        {
            "type": "Feature",
            "geometry": {
                "type": "Point",
                "coordinates": [
                    7.401821,
                    46.2702492
                ]
            },
            "properties": {
                "name": "Cave"
            }
        },
        {
            "type": "Feature",
            "geometry": {
                "type": "Point",
                "coordinates": [
                    8.478313,
                    47.192212
                ]
            },
            "properties": {
                "name": "Fasszination"
            }
        },
        {
            "type": "Feature",
            "geometry": {
                "type": "Point",
                "coordinates": [
                    7.5709698,
                    47.5382352
                ]
            }
        },
        {
            "type": "Feature",
            "geometry": {
                "type": "Point",
                "coordinates": [
                    7.5737852,
                    47.5410022
                ]
            }
        },
        {
            "type": "Feature",
            "geometry": {
                "type": "Point",
                "coordinates": [
                    8.5566813,
                    47.310576
                ]
            },
            "properties": {
                "name": "S\u00fcdhang"
            }
        },
        {
            "type": "Feature",
            "geometry": {
                "type": "Point",
                "coordinates": [
                    8.0986918,
                    47.1706339
                ]
            },
            "properties": {
                "name": "Fischer Weine"
            }
        },
        {
            "type": "Feature",
            "geometry": {
                "type": "Point",
                "coordinates": [
                    7.856923,
                    47.4645267
                ]
            },
            "properties": {
                "name": "Vinothek Raffaello"
            }
        },
        {
            "type": "Feature",
            "geometry": {
                "type": "Point",
                "coordinates": [
                    7.1043029,
                    46.134755
                ]
            },
            "properties": {
                "name": "Andr\u00e9 Roduit & Fils - Vins"
            }
        },
        {
            "type": "Feature",
            "geometry": {
                "type": "Point",
                "coordinates": [
                    8.5410265,
                    47.5177997
                ]
            },
            "properties": {
                "name": "Michi's WhiskeyWelt"
            }
        },
        {
            "type": "Feature",
            "geometry": {
                "type": "Point",
                "coordinates": [
                    9.0744577,
                    47.3608317
                ]
            },
            "properties": {
                "name": "Roli's Wythek"
            }
        },
        {
            "type": "Feature",
            "geometry": {
                "type": "Point",
                "coordinates": [
                    7.242932,
                    47.1341321
                ]
            },
            "properties": {
                "name": "Bier Bienne"
            }
        },
        {
            "type": "Feature",
            "geometry": {
                "type": "Point",
                "coordinates": [
                    8.6428447,
                    47.269884
                ]
            }
        },
        {
            "type": "Feature",
            "geometry": {
                "type": "Point",
                "coordinates": [
                    8.719119,
                    47.3456894
                ]
            },
            "properties": {
                "name": "Zweifel Weinlaube"
            }
        },
        {
            "type": "Feature",
            "geometry": {
                "type": "Point",
                "coordinates": [
                    7.4072439,
                    47.1260055
                ]
            },
            "properties": {
                "name": "Brennerei Schwab"
            }
        },
        {
            "type": "Feature",
            "geometry": {
                "type": "Point",
                "coordinates": [
                    7.4692957,
                    46.9449788
                ]
            },
            "properties": {
                "name": "Casa de Vinos Argentinos"
            }
        },
        {
            "type": "Feature",
            "geometry": {
                "type": "Point",
                "coordinates": [
                    7.210619,
                    46.185407
                ]
            },
            "properties": {
                "name": "Espace Provins"
            }
        },
        {
            "type": "Feature",
            "geometry": {
                "type": "Point",
                "coordinates": [
                    7.240026,
                    46.188742
                ]
            },
            "properties": {
                "name": "Flaction"
            }
        },
        {
            "type": "Feature",
            "geometry": {
                "type": "Point",
                "coordinates": [
                    8.6452496,
                    47.4105074
                ]
            },
            "properties": {
                "name": "Meiga-Br\u00e4u Brauerei"
            }
        },
        {
            "type": "Feature",
            "geometry": {
                "type": "Point",
                "coordinates": [
                    8.6510727,
                    47.7131001
                ]
            },
            "properties": {
                "name": "Falken Getr\u00e4nkehandel"
            }
        },
        {
            "type": "Feature",
            "geometry": {
                "type": "Point",
                "coordinates": [
                    8.5936458,
                    47.505054
                ]
            },
            "properties": {
                "name": "Rio Getr\u00e4nkemarkt"
            }
        },
        {
            "type": "Feature",
            "geometry": {
                "type": "Point",
                "coordinates": [
                    8.8225794,
                    47.5869361
                ]
            }
        },
        {
            "type": "Feature",
            "geometry": {
                "type": "Point",
                "coordinates": [
                    7.4361281,
                    46.9530151
                ]
            },
            "properties": {
                "name": "Vero Vino"
            }
        },
        {
            "type": "Feature",
            "geometry": {
                "type": "Point",
                "coordinates": [
                    6.6288535,
                    46.5237168
                ]
            },
            "properties": {
                "name": "La Mise en Bi\u00e8re"
            }
        },
        {
            "type": "Feature",
            "geometry": {
                "type": "Point",
                "coordinates": [
                    6.9592112,
                    46.3307896
                ]
            },
            "properties": {
                "name": "Domaine de l'Ovaille"
            }
        },
        {
            "type": "Feature",
            "geometry": {
                "type": "Point",
                "coordinates": [
                    9.5655327,
                    47.4677516
                ]
            },
            "properties": {
                "name": "Rutishauser"
            }
        },
        {
            "type": "Feature",
            "geometry": {
                "type": "Point",
                "coordinates": [
                    8.7490087,
                    47.2393583
                ]
            },
            "properties": {
                "name": "Weingut R\u00fctihof"
            }
        },
        {
            "type": "Feature",
            "geometry": {
                "type": "Point",
                "coordinates": [
                    7.4516456,
                    46.9414109
                ]
            },
            "properties": {
                "name": "mille vins"
            }
        },
        {
            "type": "Feature",
            "geometry": {
                "type": "Point",
                "coordinates": [
                    8.756682,
                    47.2415816
                ]
            },
            "properties": {
                "name": "Wetli Weinbau"
            }
        },
        {
            "type": "Feature",
            "geometry": {
                "type": "Point",
                "coordinates": [
                    6.5726294,
                    46.5537995
                ]
            },
            "properties": {
                "name": "Au Grain d\u2019Orge"
            }
        },
        {
            "type": "Feature",
            "geometry": {
                "type": "Point",
                "coordinates": [
                    6.1373444,
                    46.191217
                ]
            }
        },
        {
            "type": "Feature",
            "geometry": {
                "type": "Point",
                "coordinates": [
                    8.3068211,
                    47.0521908
                ]
            },
            "properties": {
                "name": "Friends of Isles & Islay"
            }
        },
        {
            "type": "Feature",
            "geometry": {
                "type": "Point",
                "coordinates": [
                    8.7344006,
                    47.2348656
                ]
            },
            "properties": {
                "name": "M\u00fchle St\u00e4fa"
            }
        },
        {
            "type": "Feature",
            "geometry": {
                "type": "Point",
                "coordinates": [
                    8.7345926,
                    47.2418869
                ]
            },
            "properties": {
                "name": "P\u00fcnter Weinbau"
            }
        },
        {
            "type": "Feature",
            "geometry": {
                "type": "Point",
                "coordinates": [
                    6.6182185,
                    46.5270614
                ]
            },
            "properties": {
                "name": "Boiron"
            }
        },
        {
            "type": "Feature",
            "geometry": {
                "type": "Point",
                "coordinates": [
                    8.7188029,
                    47.2519503
                ]
            },
            "properties": {
                "name": "Bachmann Weinbau"
            }
        },
        {
            "type": "Feature",
            "geometry": {
                "type": "Point",
                "coordinates": [
                    8.7157326,
                    47.2516829
                ]
            },
            "properties": {
                "name": "Weingut Rebhalde"
            }
        },
        {
            "type": "Feature",
            "geometry": {
                "type": "Point",
                "coordinates": [
                    8.4965046,
                    47.3842335
                ]
            },
            "properties": {
                "name": "Turbinenbr\u00e4u Rampenverkauf"
            }
        },
        {
            "type": "Feature",
            "geometry": {
                "type": "Point",
                "coordinates": [
                    7.2338899,
                    46.1449107
                ]
            }
        },
        {
            "type": "Feature",
            "geometry": {
                "type": "Point",
                "coordinates": [
                    6.143329,
                    46.2107129
                ]
            },
            "properties": {
                "name": "Drinks of the World"
            }
        },
        {
            "type": "Feature",
            "geometry": {
                "type": "Point",
                "coordinates": [
                    6.497639,
                    46.5076027
                ]
            },
            "properties": {
                "name": "Oenoth\u00e8que La Licorne"
            }
        },
        {
            "type": "Feature",
            "geometry": {
                "type": "Point",
                "coordinates": [
                    7.4534268,
                    46.9483836
                ]
            },
            "properties": {
                "name": "Vini Cappelletti"
            }
        },
        {
            "type": "Feature",
            "geometry": {
                "type": "Point",
                "coordinates": [
                    7.4699356,
                    46.9553249
                ]
            },
            "properties": {
                "name": "Vini Cappelletti"
            }
        },
        {
            "type": "Feature",
            "geometry": {
                "type": "Point",
                "coordinates": [
                    7.4550171,
                    46.9482416
                ]
            },
            "properties": {
                "name": "Cave Alpin"
            }
        },
        {
            "type": "Feature",
            "geometry": {
                "type": "Point",
                "coordinates": [
                    8.7134899,
                    47.247723
                ]
            },
            "properties": {
                "name": "Menzi-Weine"
            }
        },
        {
            "type": "Feature",
            "geometry": {
                "type": "Point",
                "coordinates": [
                    8.7124218,
                    47.2480834
                ]
            },
            "properties": {
                "name": "Weingut am Lattenberg"
            }
        },
        {
            "type": "Feature",
            "geometry": {
                "type": "Point",
                "coordinates": [
                    7.4325686,
                    46.9535454
                ]
            },
            "properties": {
                "name": "La Cantina"
            }
        },
        {
            "type": "Feature",
            "geometry": {
                "type": "Point",
                "coordinates": [
                    7.565355,
                    47.5469038
                ]
            },
            "properties": {
                "name": "Tabakl\u00e4deli Neubad"
            }
        },
        {
            "type": "Feature",
            "geometry": {
                "type": "Point",
                "coordinates": [
                    8.811719,
                    47.6647381
                ]
            },
            "properties": {
                "name": "Brennerei Tuechschmid"
            }
        },
        {
            "type": "Feature",
            "geometry": {
                "type": "Point",
                "coordinates": [
                    7.2774253,
                    47.0459004
                ]
            },
            "properties": {
                "name": "Lugginb\u00fchl"
            }
        },
        {
            "type": "Feature",
            "geometry": {
                "type": "Point",
                "coordinates": [
                    7.4501066,
                    46.9477156
                ]
            },
            "properties": {
                "name": "M\u00fcnsterkellerei"
            }
        },
        {
            "type": "Feature",
            "geometry": {
                "type": "Point",
                "coordinates": [
                    9.3730434,
                    47.4246177
                ]
            },
            "properties": {
                "name": "Martel AG St. Gallen"
            }
        },
        {
            "type": "Feature",
            "geometry": {
                "type": "Point",
                "coordinates": [
                    7.4422884,
                    46.9472339
                ]
            },
            "properties": {
                "name": "Passion du vin"
            }
        },
        {
            "type": "Feature",
            "geometry": {
                "type": "Point",
                "coordinates": [
                    9.3747037,
                    47.42654
                ]
            },
            "properties": {
                "name": "La Vigna"
            }
        },
        {
            "type": "Feature",
            "geometry": {
                "type": "Point",
                "coordinates": [
                    9.3885176,
                    47.3904929
                ]
            },
            "properties": {
                "name": "Yvonne's Weinkabinett"
            }
        },
        {
            "type": "Feature",
            "geometry": {
                "type": "Point",
                "coordinates": [
                    8.9234459,
                    45.8420843
                ]
            },
            "properties": {
                "name": "Birrificio San Martino"
            }
        },
        {
            "type": "Feature",
            "geometry": {
                "type": "Point",
                "coordinates": [
                    8.5944545,
                    47.4112924
                ]
            },
            "properties": {
                "name": "Weinkeller Rieger"
            }
        },
        {
            "type": "Feature",
            "geometry": {
                "type": "Point",
                "coordinates": [
                    7.4177577,
                    46.9347215
                ]
            },
            "properties": {
                "name": "Delinat"
            }
        },
        {
            "type": "Feature",
            "geometry": {
                "type": "Point",
                "coordinates": [
                    8.3956215,
                    47.4021466
                ]
            },
            "properties": {
                "name": "Weinecke Zimmermann"
            }
        },
        {
            "type": "Feature",
            "geometry": {
                "type": "Point",
                "coordinates": [
                    7.4403805,
                    46.9723125
                ]
            },
            "properties": {
                "name": "Felsenau Rampenverkauf"
            }
        },
        {
            "type": "Feature",
            "geometry": {
                "type": "Point",
                "coordinates": [
                    9.0078042,
                    45.8443345
                ]
            },
            "properties": {
                "name": "Birrificio Sottobisio"
            }
        },
        {
            "type": "Feature",
            "geometry": {
                "type": "Point",
                "coordinates": [
                    8.9396017,
                    45.9842322
                ]
            },
            "properties": {
                "name": "Il fiore di luppolo"
            }
        },
        {
            "type": "Feature",
            "geometry": {
                "type": "Point",
                "coordinates": [
                    6.5320509,
                    46.7222263
                ]
            },
            "properties": {
                "name": "Au Tr\u00e9sor du vin"
            }
        },
        {
            "type": "Feature",
            "geometry": {
                "type": "Point",
                "coordinates": [
                    8.5274413,
                    47.3626612
                ]
            },
            "properties": {
                "name": "Landolt Weine"
            }
        },
        {
            "type": "Feature",
            "geometry": {
                "type": "Point",
                "coordinates": [
                    8.3115731,
                    47.4827246
                ]
            },
            "properties": {
                "name": "Weingut Goldwand"
            }
        },
        {
            "type": "Feature",
            "geometry": {
                "type": "Point",
                "coordinates": [
                    6.2358201,
                    46.3834362
                ]
            },
            "properties": {
                "name": "Place des Gourmets"
            }
        },
        {
            "type": "Feature",
            "geometry": {
                "type": "Point",
                "coordinates": [
                    6.2219389,
                    46.3814825
                ]
            },
            "properties": {
                "name": "Cave de Nyon"
            }
        },
        {
            "type": "Feature",
            "geometry": {
                "type": "Point",
                "coordinates": [
                    8.3055515,
                    47.045527
                ]
            },
            "properties": {
                "name": "Haus \u00d6sterreich"
            }
        },
        {
            "type": "Feature",
            "geometry": {
                "type": "Point",
                "coordinates": [
                    8.3152994,
                    47.0550832
                ]
            },
            "properties": {
                "name": "M\u00f6venpick"
            }
        },
        {
            "type": "Feature",
            "geometry": {
                "type": "Point",
                "coordinates": [
                    6.1261944,
                    46.2246366
                ]
            }
        },
        {
            "type": "Feature",
            "geometry": {
                "type": "Point",
                "coordinates": [
                    7.4507768,
                    46.9484253
                ]
            },
            "properties": {
                "name": "Tredicipercento"
            }
        },
        {
            "type": "Feature",
            "geometry": {
                "type": "Point",
                "coordinates": [
                    6.1201349,
                    46.2287953
                ]
            }
        },
        {
            "type": "Feature",
            "geometry": {
                "type": "Point",
                "coordinates": [
                    6.3780172,
                    46.4790028
                ]
            },
            "properties": {
                "name": "Kursner"
            }
        },
        {
            "type": "Feature",
            "geometry": {
                "type": "Point",
                "coordinates": [
                    7.5974073,
                    47.5668254
                ]
            },
            "properties": {
                "name": "M\u00f6venpick Weinkeller Basel"
            }
        },
        {
            "type": "Feature",
            "geometry": {
                "type": "Point",
                "coordinates": [
                    8.5837815,
                    47.1374434
                ]
            },
            "properties": {
                "name": "Clanach Dubh N\u00b0 13"
            }
        },
        {
            "type": "Feature",
            "geometry": {
                "type": "Point",
                "coordinates": [
                    8.9674383,
                    47.4114323
                ]
            },
            "properties": {
                "name": "Pilgrim"
            }
        },
        {
            "type": "Feature",
            "geometry": {
                "type": "Point",
                "coordinates": [
                    8.748552,
                    47.1274476
                ]
            },
            "properties": {
                "name": "Anne McKenzies Whisky Boutique"
            }
        },
        {
            "type": "Feature",
            "geometry": {
                "type": "Point",
                "coordinates": [
                    8.3024874,
                    47.0506092
                ]
            },
            "properties": {
                "name": "Smuggler"
            }
        },
        {
            "type": "Feature",
            "geometry": {
                "type": "Point",
                "coordinates": [
                    6.1380172,
                    46.2012976
                ]
            },
            "properties": {
                "name": "Cafe de la Presse"
            }
        },
        {
            "type": "Feature",
            "geometry": {
                "type": "Point",
                "coordinates": [
                    9.3777077,
                    47.4246682
                ]
            },
            "properties": {
                "name": "Glen Fahrn"
            }
        },
        {
            "type": "Feature",
            "geometry": {
                "type": "Point",
                "coordinates": [
                    9.2857294,
                    47.4690701
                ]
            }
        },
        {
            "type": "Feature",
            "geometry": {
                "type": "Point",
                "coordinates": [
                    7.5628875,
                    46.8741168
                ]
            },
            "properties": {
                "name": "z'Bierhuus"
            }
        },
        {
            "type": "Feature",
            "geometry": {
                "type": "Point",
                "coordinates": [
                    8.3028406,
                    47.0500483
                ]
            },
            "properties": {
                "name": "vom FASS"
            }
        },
        {
            "type": "Feature",
            "geometry": {
                "type": "Point",
                "coordinates": [
                    8.6330747,
                    47.0148311
                ]
            },
            "properties": {
                "name": "K\u00fcttel Getr\u00e4nke AG"
            }
        },
        {
            "type": "Feature",
            "geometry": {
                "type": "Point",
                "coordinates": [
                    8.1026161,
                    47.1777265
                ]
            },
            "properties": {
                "name": "Soorser Bier"
            }
        },
        {
            "type": "Feature",
            "geometry": {
                "type": "Point",
                "coordinates": [
                    8.946598,
                    45.9916179
                ]
            },
            "properties": {
                "name": "Paradiso Beer Shop"
            }
        },
        {
            "type": "Feature",
            "geometry": {
                "type": "Point",
                "coordinates": [
                    7.1178939,
                    46.9305997
                ]
            }
        },
        {
            "type": "Feature",
            "geometry": {
                "type": "Point",
                "coordinates": [
                    8.3259397,
                    47.0211718
                ]
            },
            "properties": {
                "name": "Vinum Felmis GmbH"
            }
        },
        {
            "type": "Feature",
            "geometry": {
                "type": "Point",
                "coordinates": [
                    6.1265683,
                    46.1820903
                ]
            },
            "properties": {
                "name": "Silvermat"
            }
        },
        {
            "type": "Feature",
            "geometry": {
                "type": "Point",
                "coordinates": [
                    6.6345132,
                    46.9224004
                ]
            }
        },
        {
            "type": "Feature",
            "geometry": {
                "type": "Point",
                "coordinates": [
                    8.5378193,
                    47.3777639
                ]
            },
            "properties": {
                "name": "Drinks of the World"
            }
        },
        {
            "type": "Feature",
            "geometry": {
                "type": "Point",
                "coordinates": [
                    9.0130771,
                    47.550872
                ]
            },
            "properties": {
                "name": "Macardo"
            }
        },
        {
            "type": "Feature",
            "geometry": {
                "type": "Point",
                "coordinates": [
                    8.5435152,
                    47.4114726
                ]
            },
            "properties": {
                "name": "Drinks of the World"
            }
        },
        {
            "type": "Feature",
            "geometry": {
                "type": "Point",
                "coordinates": [
                    6.13964,
                    46.1800315
                ]
            }
        },
        {
            "type": "Feature",
            "geometry": {
                "type": "Point",
                "coordinates": [
                    8.3075176,
                    47.4727163
                ]
            },
            "properties": {
                "name": "Cadenhead's"
            }
        },
        {
            "type": "Feature",
            "geometry": {
                "type": "Point",
                "coordinates": [
                    8.6428028,
                    46.8802661
                ]
            }
        },
        {
            "type": "Feature",
            "geometry": {
                "type": "Point",
                "coordinates": [
                    6.237662,
                    46.3840265
                ]
            },
            "properties": {
                "name": "Antidote"
            }
        },
        {
            "type": "Feature",
            "geometry": {
                "type": "Point",
                "coordinates": [
                    6.2376379,
                    46.3823646
                ]
            },
            "properties": {
                "name": "La Cave \u00e0 Jules"
            }
        },
        {
            "type": "Feature",
            "geometry": {
                "type": "Point",
                "coordinates": [
                    8.5831324,
                    47.4501868
                ]
            },
            "properties": {
                "name": "The Crafts"
            }
        },
        {
            "type": "Feature",
            "geometry": {
                "type": "Point",
                "coordinates": [
                    6.2180429,
                    46.3840139
                ]
            },
            "properties": {
                "name": "Cap\u2019taine Mousse"
            }
        },
        {
            "type": "Feature",
            "geometry": {
                "type": "Point",
                "coordinates": [
                    6.3325888,
                    46.4691426
                ]
            },
            "properties": {
                "name": "Domaine de Maison Blanche"
            }
        },
        {
            "type": "Feature",
            "geometry": {
                "type": "Point",
                "coordinates": [
                    7.6273982,
                    47.0562631
                ]
            },
            "properties": {
                "name": "Wych\u00e4uer \u00c4mmitau"
            }
        },
        {
            "type": "Feature",
            "geometry": {
                "type": "Point",
                "coordinates": [
                    6.6383536,
                    46.5204578
                ]
            },
            "properties": {
                "name": "La Couleur du Vin"
            }
        },
        {
            "type": "Feature",
            "geometry": {
                "type": "Point",
                "coordinates": [
                    8.5366511,
                    47.3710562
                ]
            },
            "properties": {
                "name": "Paul Ullrich AG"
            }
        },
        {
            "type": "Feature",
            "geometry": {
                "type": "Point",
                "coordinates": [
                    6.0614312,
                    46.2270307
                ]
            },
            "properties": {
                "name": "Bodega du territoire galicien"
            }
        },
        {
            "type": "Feature",
            "geometry": {
                "type": "Point",
                "coordinates": [
                    8.7219255,
                    47.3529155
                ]
            },
            "properties": {
                "name": "Casa LaCorona"
            }
        },
        {
            "type": "Feature",
            "geometry": {
                "type": "Point",
                "coordinates": [
                    7.4211818,
                    46.9328157
                ]
            },
            "properties": {
                "name": "Salwey's Weinkeller"
            }
        },
        {
            "type": "Feature",
            "geometry": {
                "type": "Point",
                "coordinates": [
                    6.8311158,
                    47.10414
                ]
            },
            "properties": {
                "name": "Chez Nico"
            }
        },
        {
            "type": "Feature",
            "geometry": {
                "type": "Point",
                "coordinates": [
                    8.6375007,
                    47.6958302
                ]
            },
            "properties": {
                "name": "Tabac Store"
            }
        },
        {
            "type": "Feature",
            "geometry": {
                "type": "Point",
                "coordinates": [
                    6.0716582,
                    46.2229185
                ]
            },
            "properties": {
                "name": "Stardrinks"
            }
        },
        {
            "type": "Feature",
            "geometry": {
                "type": "Point",
                "coordinates": [
                    7.4453748,
                    46.948135
                ]
            },
            "properties": {
                "name": "Craft Gallery"
            }
        },
        {
            "type": "Feature",
            "geometry": {
                "type": "Point",
                "coordinates": [
                    8.3553695,
                    47.1716842
                ]
            },
            "properties": {
                "name": "Brennerei R\u00fcttimann"
            }
        },
        {
            "type": "Feature",
            "geometry": {
                "type": "Point",
                "coordinates": [
                    8.9450856,
                    45.9924695
                ]
            }
        },
        {
            "type": "Feature",
            "geometry": {
                "type": "Point",
                "coordinates": [
                    8.3077797,
                    47.0463038
                ]
            },
            "properties": {
                "name": "Vinothek Hauser"
            }
        },
        {
            "type": "Feature",
            "geometry": {
                "type": "Point",
                "coordinates": [
                    7.537294,
                    47.2044159
                ]
            },
            "properties": {
                "name": "Craft Beer Center"
            }
        },
        {
            "type": "Feature",
            "geometry": {
                "type": "Point",
                "coordinates": [
                    7.8510419,
                    46.6796989
                ]
            },
            "properties": {
                "name": "Waldeggkeller"
            }
        },
        {
            "type": "Feature",
            "geometry": {
                "type": "Point",
                "coordinates": [
                    7.4999148,
                    47.421539
                ]
            },
            "properties": {
                "name": "Premium Wein"
            }
        },
        {
            "type": "Feature",
            "geometry": {
                "type": "Point",
                "coordinates": [
                    7.8559439,
                    46.6847771
                ]
            },
            "properties": {
                "name": "Flaschengeist Shop"
            }
        },
        {
            "type": "Feature",
            "geometry": {
                "type": "Point",
                "coordinates": [
                    6.9129739,
                    46.4301131
                ]
            },
            "properties": {
                "name": "Mosca Vins"
            }
        },
        {
            "type": "Feature",
            "geometry": {
                "type": "Point",
                "coordinates": [
                    8.5153025,
                    47.3731992
                ]
            },
            "properties": {
                "name": "Bier Paul"
            }
        },
        {
            "type": "Feature",
            "geometry": {
                "type": "Point",
                "coordinates": [
                    6.7461334,
                    46.4918201
                ]
            },
            "properties": {
                "name": "Les II Terres"
            }
        },
        {
            "type": "Feature",
            "geometry": {
                "type": "Point",
                "coordinates": [
                    8.8989261,
                    47.5553018
                ]
            },
            "properties": {
                "name": "Renold"
            }
        },
        {
            "type": "Feature",
            "geometry": {
                "type": "Point",
                "coordinates": [
                    6.6332149,
                    46.9254043
                ]
            }
        },
        {
            "type": "Feature",
            "geometry": {
                "type": "Point",
                "coordinates": [
                    6.8303774,
                    47.1034518
                ]
            },
            "properties": {
                "name": "Vinot\u00e8que de la Charri\u00e8re"
            }
        },
        {
            "type": "Feature",
            "geometry": {
                "type": "Point",
                "coordinates": [
                    8.508045,
                    47.6040627
                ]
            },
            "properties": {
                "name": "Erlebnis Hofgut Wein"
            }
        },
        {
            "type": "Feature",
            "geometry": {
                "type": "Point",
                "coordinates": [
                    8.5044649,
                    47.2214494
                ]
            },
            "properties": {
                "name": "Wolfacker Edelbr\u00e4nde"
            }
        },
        {
            "type": "Feature",
            "geometry": {
                "type": "Point",
                "coordinates": [
                    8.4280229,
                    47.6796194
                ]
            },
            "properties": {
                "name": "Wilchinger Bergwy"
            }
        },
        {
            "type": "Feature",
            "geometry": {
                "type": "Point",
                "coordinates": [
                    7.1334368,
                    46.1494836
                ]
            },
            "properties": {
                "name": "Cave Michel Dorsaz & Fils SA"
            }
        },
        {
            "type": "Feature",
            "geometry": {
                "type": "Point",
                "coordinates": [
                    7.8147487,
                    47.4627648
                ]
            },
            "properties": {
                "name": "Buess Weinbau und Weinhandels AG"
            }
        },
        {
            "type": "Feature",
            "geometry": {
                "type": "Point",
                "coordinates": [
                    7.4620603,
                    47.0220039
                ]
            },
            "properties": {
                "name": "Hofwyler Weinkeller 'Degustationen'"
            }
        },
        {
            "type": "Feature",
            "geometry": {
                "type": "Point",
                "coordinates": [
                    8.5189522,
                    47.3951018
                ]
            },
            "properties": {
                "name": "Bindella"
            }
        },
        {
            "type": "Feature",
            "geometry": {
                "type": "Point",
                "coordinates": [
                    8.2153639,
                    47.525435
                ]
            },
            "properties": {
                "name": "Besserstein Wein"
            }
        },
        {
            "type": "Feature",
            "geometry": {
                "type": "Point",
                "coordinates": [
                    6.0349934,
                    46.2203004
                ]
            },
            "properties": {
                "name": "Domaine de Champvigny"
            }
        },
        {
            "type": "Feature",
            "geometry": {
                "type": "Point",
                "coordinates": [
                    8.5261437,
                    47.3151204
                ]
            },
            "properties": {
                "name": "Rio-Getr\u00e4nkemarkt\u200e"
            }
        },
        {
            "type": "Feature",
            "geometry": {
                "type": "Point",
                "coordinates": [
                    8.2176535,
                    47.4064376
                ]
            }
        },
        {
            "type": "Feature",
            "geometry": {
                "type": "Point",
                "coordinates": [
                    8.7275528,
                    47.3409429
                ]
            },
            "properties": {
                "name": "Heusser Weinhandel"
            }
        },
        {
            "type": "Feature",
            "geometry": {
                "type": "Point",
                "coordinates": [
                    6.1417604,
                    46.18521
                ]
            },
            "properties": {
                "name": "20G"
            }
        },
        {
            "type": "Feature",
            "geometry": {
                "type": "Point",
                "coordinates": [
                    8.1799904,
                    47.3856917
                ]
            },
            "properties": {
                "name": "Mike's Weinloft"
            }
        },
        {
            "type": "Feature",
            "geometry": {
                "type": "Point",
                "coordinates": [
                    6.5754201,
                    46.5498553
                ]
            },
            "properties": {
                "name": "Mosca"
            }
        },
        {
            "type": "Feature",
            "geometry": {
                "type": "Point",
                "coordinates": [
                    8.4621415,
                    47.2238214
                ]
            },
            "properties": {
                "name": "uva-eva Schiess"
            }
        },
        {
            "type": "Feature",
            "geometry": {
                "type": "Point",
                "coordinates": [
                    7.8592702,
                    47.4627827
                ]
            },
            "properties": {
                "name": "Vinothek Raffaello"
            }
        },
        {
            "type": "Feature",
            "geometry": {
                "type": "Point",
                "coordinates": [
                    7.1438417,
                    46.0782466
                ]
            },
            "properties": {
                "name": "Le Cellier Valaisan"
            }
        },
        {
            "type": "Feature",
            "geometry": {
                "type": "Point",
                "coordinates": [
                    7.4437714,
                    46.4576242
                ]
            },
            "properties": {
                "name": "vino take"
            }
        },
        {
            "type": "Feature",
            "geometry": {
                "type": "Point",
                "coordinates": [
                    7.1415716,
                    46.1511173
                ]
            },
            "properties": {
                "name": "Forum des vignes"
            }
        },
        {
            "type": "Feature",
            "geometry": {
                "type": "Point",
                "coordinates": [
                    8.3020631,
                    47.1687851
                ]
            },
            "properties": {
                "name": "Weinkeller Mathier & Bachmann AG"
            }
        },
        {
            "type": "Feature",
            "geometry": {
                "type": "Point",
                "coordinates": [
                    8.3196915,
                    47.4686247
                ]
            },
            "properties": {
                "name": "Voser Wines & Spirits"
            }
        },
        {
            "type": "Feature",
            "geometry": {
                "type": "Point",
                "coordinates": [
                    8.3226785,
                    47.1289928
                ]
            },
            "properties": {
                "name": "Selection Widmer"
            }
        },
        {
            "type": "Feature",
            "geometry": {
                "type": "Point",
                "coordinates": [
                    7.3415477,
                    46.8174787
                ]
            },
            "properties": {
                "name": "Bierladen"
            }
        },
        {
            "type": "Feature",
            "geometry": {
                "type": "Point",
                "coordinates": [
                    8.7926978,
                    47.3194912
                ]
            },
            "properties": {
                "name": "D\u00e9ja bu"
            }
        },
        {
            "type": "Feature",
            "geometry": {
                "type": "Point",
                "coordinates": [
                    8.4135409,
                    46.8168095
                ]
            },
            "properties": {
                "name": "Getr\u00e4nke Banz AG"
            }
        },
        {
            "type": "Feature",
            "geometry": {
                "type": "Point",
                "coordinates": [
                    9.4346878,
                    47.4622863
                ]
            },
            "properties": {
                "name": "Glen Fahrn"
            }
        },
        {
            "type": "Feature",
            "geometry": {
                "type": "Point",
                "coordinates": [
                    8.3097927,
                    47.0504512
                ]
            },
            "properties": {
                "name": "Drinks of the World"
            }
        },
        {
            "type": "Feature",
            "geometry": {
                "type": "Point",
                "coordinates": [
                    7.440087,
                    46.9491558
                ]
            },
            "properties": {
                "name": "Drinks of the World"
            }
        },
        {
            "type": "Feature",
            "geometry": {
                "type": "Point",
                "coordinates": [
                    8.7242311,
                    47.5006925
                ]
            },
            "properties": {
                "name": "Drinks of the World"
            }
        },
        {
            "type": "Feature",
            "geometry": {
                "type": "Point",
                "coordinates": [
                    7.5263007,
                    46.2750533
                ]
            },
            "properties": {
                "name": "500 e le sue bont\u00e0"
            }
        },
        {
            "type": "Feature",
            "geometry": {
                "type": "Point",
                "coordinates": [
                    7.513109,
                    47.0750622
                ]
            },
            "properties": {
                "name": "Getr\u00e4nke Bongni"
            }
        }
    ],
    "crs": {
        "type": "name",
        "properties": {
            "name": "urn:ogc:def:crs:OGC:1.3:CRS84"
        }
    }
}