{
    "type": "FeatureCollection",
    "features": [
        {
            "type": "Feature",
            "geometry": {
                "type": "Point",
                "coordinates": [
                    22.2582765,
                    60.4514376
                ]
            },
            "properties": {
                "name": "Alvar"
            }
        },
        {
            "type": "Feature",
            "geometry": {
                "type": "Point",
                "coordinates": [
                    22.2715602,
                    60.4470508
                ]
            },
            "properties": {
                "name": "Bar Toimisto"
            }
        },
        {
            "type": "Feature",
            "geometry": {
                "type": "Point",
                "coordinates": [
                    22.2784844,
                    60.45047
                ]
            },
            "properties": {
                "name": "Bristol"
            }
        },
        {
            "type": "Feature",
            "geometry": {
                "type": "Point",
                "coordinates": [
                    24.9204769,
                    60.1719895
                ]
            },
            "properties": {
                "name": "Bar Favela"
            }
        },
        {
            "type": "Feature",
            "geometry": {
                "type": "Point",
                "coordinates": [
                    24.9517632,
                    60.1848357
                ]
            },
            "properties": {
                "name": "Helsing Bar"
            }
        },
        {
            "type": "Feature",
            "geometry": {
                "type": "Point",
                "coordinates": [
                    24.9271007,
                    60.169785
                ]
            },
            "properties": {
                "name": "Helkan Baari"
            }
        },
        {
            "type": "Feature",
            "geometry": {
                "type": "Point",
                "coordinates": [
                    24.9316791,
                    60.1650117
                ]
            },
            "properties": {
                "name": "Milli Miglia"
            }
        },
        {
            "type": "Feature",
            "geometry": {
                "type": "Point",
                "coordinates": [
                    24.4647073,
                    60.9952741
                ]
            },
            "properties": {
                "name": "Voudin Kellari"
            }
        },
        {
            "type": "Feature",
            "geometry": {
                "type": "Point",
                "coordinates": [
                    24.4630489,
                    60.9968093
                ]
            },
            "properties": {
                "name": "Bar Taso"
            }
        },
        {
            "type": "Feature",
            "geometry": {
                "type": "Point",
                "coordinates": [
                    24.8754045,
                    60.2393319
                ]
            },
            "properties": {
                "name": "Kannel-Krouvi"
            }
        },
        {
            "type": "Feature",
            "geometry": {
                "type": "Point",
                "coordinates": [
                    24.8857982,
                    60.2422192
                ]
            },
            "properties": {
                "name": "Ravintola Unelma"
            }
        },
        {
            "type": "Feature",
            "geometry": {
                "type": "Point",
                "coordinates": [
                    22.2813683,
                    60.4483143
                ]
            },
            "properties": {
                "name": "Graceland"
            }
        },
        {
            "type": "Feature",
            "geometry": {
                "type": "Point",
                "coordinates": [
                    23.7563659,
                    61.4972096
                ]
            },
            "properties": {
                "name": "Lounge 23"
            }
        },
        {
            "type": "Feature",
            "geometry": {
                "type": "Point",
                "coordinates": [
                    24.9393383,
                    60.1699967
                ]
            },
            "properties": {
                "name": "Milliklubi Bar & Disco"
            }
        },
        {
            "type": "Feature",
            "geometry": {
                "type": "Point",
                "coordinates": [
                    22.2824254,
                    60.4521343
                ]
            },
            "properties": {
                "name": "Portti"
            }
        },
        {
            "type": "Feature",
            "geometry": {
                "type": "Point",
                "coordinates": [
                    24.4693282,
                    60.9965928
                ]
            },
            "properties": {
                "name": "Pool Cafe"
            }
        },
        {
            "type": "Feature",
            "geometry": {
                "type": "Point",
                "coordinates": [
                    25.019358,
                    60.3977082
                ]
            },
            "properties": {
                "name": "Mad Dog"
            }
        },
        {
            "type": "Feature",
            "geometry": {
                "type": "Point",
                "coordinates": [
                    24.6642482,
                    60.1995346
                ]
            },
            "properties": {
                "name": "Suvelan Seurahuone"
            }
        },
        {
            "type": "Feature",
            "geometry": {
                "type": "Point",
                "coordinates": [
                    24.9539999,
                    60.1816369
                ]
            },
            "properties": {
                "name": "Mascot Bar & Live Stage"
            }
        },
        {
            "type": "Feature",
            "geometry": {
                "type": "Point",
                "coordinates": [
                    28.1037565,
                    61.0572589
                ]
            }
        },
        {
            "type": "Feature",
            "geometry": {
                "type": "Point",
                "coordinates": [
                    24.924872,
                    60.1805235
                ]
            },
            "properties": {
                "name": "Bar Teos"
            }
        },
        {
            "type": "Feature",
            "geometry": {
                "type": "Point",
                "coordinates": [
                    24.9422724,
                    60.1677746
                ]
            },
            "properties": {
                "name": "AKA GastroBar Oriental"
            }
        },
        {
            "type": "Feature",
            "geometry": {
                "type": "Point",
                "coordinates": [
                    24.8762577,
                    60.1583595
                ]
            },
            "properties": {
                "name": "Bar Iso Majakka"
            }
        },
        {
            "type": "Feature",
            "geometry": {
                "type": "Point",
                "coordinates": [
                    24.9533293,
                    60.188093
                ]
            },
            "properties": {
                "name": "Harju Baari"
            }
        },
        {
            "type": "Feature",
            "geometry": {
                "type": "Point",
                "coordinates": [
                    24.8058881,
                    67.8050293
                ]
            },
            "properties": {
                "name": "Oliver's Corner"
            }
        },
        {
            "type": "Feature",
            "geometry": {
                "type": "Point",
                "coordinates": [
                    24.9416568,
                    60.1910369
                ]
            },
            "properties": {
                "name": "Mo'De"
            }
        },
        {
            "type": "Feature",
            "geometry": {
                "type": "Point",
                "coordinates": [
                    24.9458154,
                    60.1909739
                ]
            },
            "properties": {
                "name": "Alppilan Huone"
            }
        },
        {
            "type": "Feature",
            "geometry": {
                "type": "Point",
                "coordinates": [
                    27.5657018,
                    60.9224579
                ]
            },
            "properties": {
                "name": "Amadeus"
            }
        },
        {
            "type": "Feature",
            "geometry": {
                "type": "Point",
                "coordinates": [
                    25.7459159,
                    66.5017148
                ]
            },
            "properties": {
                "name": "Valdemari"
            }
        },
        {
            "type": "Feature",
            "geometry": {
                "type": "Point",
                "coordinates": [
                    23.6904381,
                    63.5478429
                ]
            },
            "properties": {
                "name": "Antero"
            }
        },
        {
            "type": "Feature",
            "geometry": {
                "type": "Point",
                "coordinates": [
                    24.8600282,
                    60.6312101
                ]
            },
            "properties": {
                "name": "Bloc"
            }
        },
        {
            "type": "Feature",
            "geometry": {
                "type": "Point",
                "coordinates": [
                    29.1852136,
                    65.9632888
                ]
            },
            "properties": {
                "name": "Q Night Club"
            }
        },
        {
            "type": "Feature",
            "geometry": {
                "type": "Point",
                "coordinates": [
                    24.6471272,
                    60.1516345
                ]
            },
            "properties": {
                "name": "Bar Casanova"
            }
        },
        {
            "type": "Feature",
            "geometry": {
                "type": "Point",
                "coordinates": [
                    24.928944,
                    60.1836711
                ]
            },
            "properties": {
                "name": "Freedom Bar"
            }
        },
        {
            "type": "Feature",
            "geometry": {
                "type": "Point",
                "coordinates": [
                    24.9402611,
                    60.1641308
                ]
            },
            "properties": {
                "name": "Kokomo tikibar & room"
            }
        },
        {
            "type": "Feature",
            "geometry": {
                "type": "Point",
                "coordinates": [
                    24.8578018,
                    60.629196
                ]
            },
            "properties": {
                "name": "Amarillo Nightclub"
            }
        },
        {
            "type": "Feature",
            "geometry": {
                "type": "Point",
                "coordinates": [
                    24.8583072,
                    60.6296414
                ]
            },
            "properties": {
                "name": "Zoom"
            }
        },
        {
            "type": "Feature",
            "geometry": {
                "type": "Point",
                "coordinates": [
                    23.5098291,
                    61.4771786
                ]
            },
            "properties": {
                "name": "Pinta Bar"
            }
        },
        {
            "type": "Feature",
            "geometry": {
                "type": "Point",
                "coordinates": [
                    24.954828,
                    60.1892197
                ]
            },
            "properties": {
                "name": "Populus"
            }
        },
        {
            "type": "Feature",
            "geometry": {
                "type": "Point",
                "coordinates": [
                    25.0337971,
                    60.2742738
                ]
            },
            "properties": {
                "name": "Ravintola Domino"
            }
        },
        {
            "type": "Feature",
            "geometry": {
                "type": "Point",
                "coordinates": [
                    25.0315395,
                    60.2931038
                ]
            },
            "properties": {
                "name": "Calypso"
            }
        },
        {
            "type": "Feature",
            "geometry": {
                "type": "Point",
                "coordinates": [
                    25.6506796,
                    60.9844108
                ]
            },
            "properties": {
                "name": "Ravintola Asema"
            }
        },
        {
            "type": "Feature",
            "geometry": {
                "type": "Point",
                "coordinates": [
                    25.6602069,
                    60.9835773
                ]
            },
            "properties": {
                "name": "Armas"
            }
        },
        {
            "type": "Feature",
            "geometry": {
                "type": "Point",
                "coordinates": [
                    25.6611478,
                    60.9832066
                ]
            },
            "properties": {
                "name": "Jackalope"
            }
        },
        {
            "type": "Feature",
            "geometry": {
                "type": "Point",
                "coordinates": [
                    21.7941285,
                    61.4853515
                ]
            },
            "properties": {
                "name": "Kino"
            }
        },
        {
            "type": "Feature",
            "geometry": {
                "type": "Point",
                "coordinates": [
                    24.1496847,
                    65.8466934
                ]
            },
            "properties": {
                "name": "Jetset"
            }
        },
        {
            "type": "Feature",
            "geometry": {
                "type": "Point",
                "coordinates": [
                    24.1522816,
                    65.8471005
                ]
            },
            "properties": {
                "name": "Umpitunneli"
            }
        },
        {
            "type": "Feature",
            "geometry": {
                "type": "Point",
                "coordinates": [
                    24.3200509,
                    60.3349132
                ]
            },
            "properties": {
                "name": "Air Club"
            }
        },
        {
            "type": "Feature",
            "geometry": {
                "type": "Point",
                "coordinates": [
                    23.1338507,
                    63.8355819
                ]
            },
            "properties": {
                "name": "SC Sportsbar & Bowling"
            }
        },
        {
            "type": "Feature",
            "geometry": {
                "type": "Point",
                "coordinates": [
                    29.1374054,
                    63.5430246
                ]
            }
        },
        {
            "type": "Feature",
            "geometry": {
                "type": "Point",
                "coordinates": [
                    29.134573,
                    63.5439997
                ]
            },
            "properties": {
                "name": "Oluttupa Obotta"
            }
        },
        {
            "type": "Feature",
            "geometry": {
                "type": "Point",
                "coordinates": [
                    29.1050278,
                    63.5567308
                ]
            },
            "properties": {
                "name": "Saha"
            }
        },
        {
            "type": "Feature",
            "geometry": {
                "type": "Point",
                "coordinates": [
                    29.1407415,
                    63.5426879
                ]
            },
            "properties": {
                "name": "Penan Pub"
            }
        },
        {
            "type": "Feature",
            "geometry": {
                "type": "Point",
                "coordinates": [
                    29.137525,
                    63.5436571
                ]
            }
        },
        {
            "type": "Feature",
            "geometry": {
                "type": "Point",
                "coordinates": [
                    22.2604654,
                    60.447236
                ]
            },
            "properties": {
                "name": "Sointu Bar"
            }
        },
        {
            "type": "Feature",
            "geometry": {
                "type": "Point",
                "coordinates": [
                    24.1438649,
                    65.8443099
                ]
            },
            "properties": {
                "name": "Blues Station"
            }
        },
        {
            "type": "Feature",
            "geometry": {
                "type": "Point",
                "coordinates": [
                    22.9073579,
                    62.8275764
                ]
            },
            "properties": {
                "name": "Nurmon Baari"
            }
        },
        {
            "type": "Feature",
            "geometry": {
                "type": "Point",
                "coordinates": [
                    24.9412669,
                    60.1632942
                ]
            },
            "properties": {
                "name": "Bar Bronco"
            }
        },
        {
            "type": "Feature",
            "geometry": {
                "type": "Point",
                "coordinates": [
                    24.9450388,
                    60.1668978
                ]
            },
            "properties": {
                "name": "S\u00e4m"
            }
        },
        {
            "type": "Feature",
            "geometry": {
                "type": "Point",
                "coordinates": [
                    24.9255271,
                    60.1826215
                ]
            },
            "properties": {
                "name": "Bar Fellows"
            }
        },
        {
            "type": "Feature",
            "geometry": {
                "type": "Point",
                "coordinates": [
                    24.9465883,
                    60.1697204
                ]
            },
            "properties": {
                "name": "Helsinki Shot Bar"
            }
        },
        {
            "type": "Feature",
            "geometry": {
                "type": "Point",
                "coordinates": [
                    22.7049658,
                    63.6756113
                ]
            },
            "properties": {
                "name": "O'Learys"
            }
        },
        {
            "type": "Feature",
            "geometry": {
                "type": "Point",
                "coordinates": [
                    24.9389422,
                    60.1688469
                ]
            },
            "properties": {
                "name": "Apollo Street Bar"
            }
        },
        {
            "type": "Feature",
            "geometry": {
                "type": "Point",
                "coordinates": [
                    22.7058315,
                    63.6754028
                ]
            },
            "properties": {
                "name": "Lobbybar"
            }
        },
        {
            "type": "Feature",
            "geometry": {
                "type": "Point",
                "coordinates": [
                    27.6131648,
                    62.8837199
                ]
            },
            "properties": {
                "name": "Hunter"
            }
        },
        {
            "type": "Feature",
            "geometry": {
                "type": "Point",
                "coordinates": [
                    24.8110493,
                    60.2188053
                ]
            },
            "properties": {
                "name": "O'Learys"
            }
        },
        {
            "type": "Feature",
            "geometry": {
                "type": "Point",
                "coordinates": [
                    26.6988393,
                    60.8675486
                ]
            },
            "properties": {
                "name": "Ravintola Py\u00f6re\u00e4 Torppa"
            }
        },
        {
            "type": "Feature",
            "geometry": {
                "type": "Point",
                "coordinates": [
                    26.895418,
                    60.4943841
                ]
            },
            "properties": {
                "name": "Korealan baari"
            }
        },
        {
            "type": "Feature",
            "geometry": {
                "type": "Point",
                "coordinates": [
                    21.1927509,
                    62.968209
                ]
            },
            "properties": {
                "name": "Lenie's Cafe & Bar"
            }
        },
        {
            "type": "Feature",
            "geometry": {
                "type": "Point",
                "coordinates": [
                    23.1410587,
                    63.8383084
                ]
            },
            "properties": {
                "name": "Megabreak"
            }
        },
        {
            "type": "Feature",
            "geometry": {
                "type": "Point",
                "coordinates": [
                    21.7958573,
                    61.4840397
                ]
            },
            "properties": {
                "name": "Bar&Coffee Havana"
            }
        },
        {
            "type": "Feature",
            "geometry": {
                "type": "Point",
                "coordinates": [
                    25.6662564,
                    60.9824405
                ]
            },
            "properties": {
                "name": "Apollo"
            }
        },
        {
            "type": "Feature",
            "geometry": {
                "type": "Point",
                "coordinates": [
                    24.9536176,
                    60.1884876
                ]
            },
            "properties": {
                "name": "Bar Molotow"
            }
        },
        {
            "type": "Feature",
            "geometry": {
                "type": "Point",
                "coordinates": [
                    24.6425896,
                    60.1539661
                ]
            },
            "properties": {
                "name": "Stone Bay Inn"
            }
        },
        {
            "type": "Feature",
            "geometry": {
                "type": "Point",
                "coordinates": [
                    25.7255503,
                    66.5014429
                ]
            },
            "properties": {
                "name": "Kansan pubi"
            }
        },
        {
            "type": "Feature",
            "geometry": {
                "type": "Point",
                "coordinates": [
                    25.7353269,
                    66.5020916
                ]
            },
            "properties": {
                "name": "Doris"
            }
        },
        {
            "type": "Feature",
            "geometry": {
                "type": "Point",
                "coordinates": [
                    24.919796,
                    60.1842069
                ]
            },
            "properties": {
                "name": "Korjaamo"
            }
        },
        {
            "type": "Feature",
            "geometry": {
                "type": "Point",
                "coordinates": [
                    24.9239242,
                    60.1795877
                ]
            },
            "properties": {
                "name": "Izakaya"
            }
        },
        {
            "type": "Feature",
            "geometry": {
                "type": "Point",
                "coordinates": [
                    22.3666853,
                    60.4051618
                ]
            },
            "properties": {
                "name": "Old Texas"
            }
        },
        {
            "type": "Feature",
            "geometry": {
                "type": "Point",
                "coordinates": [
                    24.5656451,
                    65.7374584
                ]
            },
            "properties": {
                "name": "Kukko"
            }
        },
        {
            "type": "Feature",
            "geometry": {
                "type": "Point",
                "coordinates": [
                    23.6272208,
                    60.8162508
                ]
            },
            "properties": {
                "name": "Bar 54"
            }
        },
        {
            "type": "Feature",
            "geometry": {
                "type": "Point",
                "coordinates": [
                    23.6271296,
                    60.8155236
                ]
            },
            "properties": {
                "name": "Kultajyv\u00e4"
            }
        },
        {
            "type": "Feature",
            "geometry": {
                "type": "Point",
                "coordinates": [
                    29.5561678,
                    65.4424412
                ]
            }
        },
        {
            "type": "Feature",
            "geometry": {
                "type": "Point",
                "coordinates": [
                    28.185734,
                    61.057125
                ]
            },
            "properties": {
                "name": "Kippari-krouvi"
            }
        },
        {
            "type": "Feature",
            "geometry": {
                "type": "Point",
                "coordinates": [
                    28.1848422,
                    61.0600506
                ]
            },
            "properties": {
                "name": "Birra"
            }
        },
        {
            "type": "Feature",
            "geometry": {
                "type": "Point",
                "coordinates": [
                    24.9500744,
                    60.1808064
                ]
            },
            "properties": {
                "name": "Rytmi"
            }
        },
        {
            "type": "Feature",
            "geometry": {
                "type": "Point",
                "coordinates": [
                    24.3284894,
                    63.9138509
                ]
            }
        },
        {
            "type": "Feature",
            "geometry": {
                "type": "Point",
                "coordinates": [
                    24.9218738,
                    60.1746504
                ]
            },
            "properties": {
                "name": "Bhangra"
            }
        },
        {
            "type": "Feature",
            "geometry": {
                "type": "Point",
                "coordinates": [
                    26.7053768,
                    60.870549
                ]
            },
            "properties": {
                "name": "Q bar"
            }
        },
        {
            "type": "Feature",
            "geometry": {
                "type": "Point",
                "coordinates": [
                    26.7047141,
                    60.8673806
                ]
            },
            "properties": {
                "name": "House Of Rock Bar"
            }
        },
        {
            "type": "Feature",
            "geometry": {
                "type": "Point",
                "coordinates": [
                    26.7735872,
                    60.3458709
                ]
            }
        },
        {
            "type": "Feature",
            "geometry": {
                "type": "Point",
                "coordinates": [
                    23.6181452,
                    62.5862583
                ]
            },
            "properties": {
                "name": "Pub Ittellismies"
            }
        },
        {
            "type": "Feature",
            "geometry": {
                "type": "Point",
                "coordinates": [
                    22.3480728,
                    60.4333197
                ]
            },
            "properties": {
                "name": "Kirjuri"
            }
        },
        {
            "type": "Feature",
            "geometry": {
                "type": "Point",
                "coordinates": [
                    24.938752,
                    60.1676996
                ]
            },
            "properties": {
                "name": "American Bar"
            }
        },
        {
            "type": "Feature",
            "geometry": {
                "type": "Point",
                "coordinates": [
                    24.9387348,
                    60.1678106
                ]
            },
            "properties": {
                "name": "Ateljee Bar Hotel Torni"
            }
        },
        {
            "type": "Feature",
            "geometry": {
                "type": "Point",
                "coordinates": [
                    24.9823173,
                    60.1460167
                ]
            },
            "properties": {
                "name": "Caf\u00e9 Bar Valimo"
            }
        },
        {
            "type": "Feature",
            "geometry": {
                "type": "Point",
                "coordinates": [
                    24.9341474,
                    60.1669691
                ]
            },
            "properties": {
                "name": "Corona"
            }
        },
        {
            "type": "Feature",
            "geometry": {
                "type": "Point",
                "coordinates": [
                    24.9372694,
                    60.1692792
                ]
            },
            "properties": {
                "name": "Vatican"
            }
        },
        {
            "type": "Feature",
            "geometry": {
                "type": "Point",
                "coordinates": [
                    24.8541528,
                    60.2611718
                ]
            },
            "properties": {
                "name": "Klubi Femma"
            }
        },
        {
            "type": "Feature",
            "geometry": {
                "type": "Point",
                "coordinates": [
                    24.8517473,
                    60.2609263
                ]
            },
            "properties": {
                "name": "Cafe Mango"
            }
        },
        {
            "type": "Feature",
            "geometry": {
                "type": "Point",
                "coordinates": [
                    23.7634483,
                    61.4954303
                ]
            },
            "properties": {
                "name": "Ravintola 931"
            }
        },
        {
            "type": "Feature",
            "geometry": {
                "type": "Point",
                "coordinates": [
                    25.1498464,
                    60.2011727
                ]
            },
            "properties": {
                "name": "Olutravintola Solmu"
            }
        },
        {
            "type": "Feature",
            "geometry": {
                "type": "Point",
                "coordinates": [
                    24.7400145,
                    60.2270254
                ]
            },
            "properties": {
                "name": "VIP Club - Viherpool"
            }
        },
        {
            "type": "Feature",
            "geometry": {
                "type": "Point",
                "coordinates": [
                    26.7051798,
                    60.8678173
                ]
            },
            "properties": {
                "name": "Ravintola Mulligan's"
            }
        },
        {
            "type": "Feature",
            "geometry": {
                "type": "Point",
                "coordinates": [
                    22.2610377,
                    60.4891313
                ]
            },
            "properties": {
                "name": "Runostuoppi"
            }
        },
        {
            "type": "Feature",
            "geometry": {
                "type": "Point",
                "coordinates": [
                    22.2668603,
                    60.4896623
                ]
            },
            "properties": {
                "name": "Ravintola Satama"
            }
        },
        {
            "type": "Feature",
            "geometry": {
                "type": "Point",
                "coordinates": [
                    22.2633273,
                    60.4179923
                ]
            }
        },
        {
            "type": "Feature",
            "geometry": {
                "type": "Point",
                "coordinates": [
                    28.7721507,
                    61.1714089
                ]
            },
            "properties": {
                "name": "Bar Q"
            }
        },
        {
            "type": "Feature",
            "geometry": {
                "type": "Point",
                "coordinates": [
                    24.9557331,
                    60.1874071
                ]
            },
            "properties": {
                "name": "Relaxin"
            }
        },
        {
            "type": "Feature",
            "geometry": {
                "type": "Point",
                "coordinates": [
                    25.7090816,
                    62.248319
                ]
            },
            "properties": {
                "name": "Rentukka"
            }
        },
        {
            "type": "Feature",
            "geometry": {
                "type": "Point",
                "coordinates": [
                    24.852165,
                    60.2650702
                ]
            },
            "properties": {
                "name": "Cafe Bar Luna"
            }
        },
        {
            "type": "Feature",
            "geometry": {
                "type": "Point",
                "coordinates": [
                    25.7399183,
                    62.238703
                ]
            },
            "properties": {
                "name": "Vakiopaine"
            }
        },
        {
            "type": "Feature",
            "geometry": {
                "type": "Point",
                "coordinates": [
                    21.7990524,
                    61.4890105
                ]
            },
            "properties": {
                "name": "Baarikaappi"
            }
        },
        {
            "type": "Feature",
            "geometry": {
                "type": "Point",
                "coordinates": [
                    24.9208947,
                    60.1598703
                ]
            },
            "properties": {
                "name": "Huutokonttori Kanttiini"
            }
        },
        {
            "type": "Feature",
            "geometry": {
                "type": "Point",
                "coordinates": [
                    25.3766304,
                    65.3233847
                ]
            }
        },
        {
            "type": "Feature",
            "geometry": {
                "type": "Point",
                "coordinates": [
                    25.7218072,
                    62.6015297
                ]
            },
            "properties": {
                "name": "Ravintola Talli"
            }
        },
        {
            "type": "Feature",
            "geometry": {
                "type": "Point",
                "coordinates": [
                    24.7751465,
                    60.7392128
                ]
            },
            "properties": {
                "name": "Nightclub Starlight"
            }
        },
        {
            "type": "Feature",
            "geometry": {
                "type": "Point",
                "coordinates": [
                    24.7749319,
                    60.7397608
                ]
            },
            "properties": {
                "name": "Iskelm\u00e4 baari"
            }
        },
        {
            "type": "Feature",
            "geometry": {
                "type": "Point",
                "coordinates": [
                    26.6942519,
                    60.8687515
                ]
            },
            "properties": {
                "name": "Ravintola Aula"
            }
        },
        {
            "type": "Feature",
            "geometry": {
                "type": "Point",
                "coordinates": [
                    23.6136442,
                    61.4200419
                ]
            }
        },
        {
            "type": "Feature",
            "geometry": {
                "type": "Point",
                "coordinates": [
                    23.6183488,
                    61.4205345
                ]
            }
        },
        {
            "type": "Feature",
            "geometry": {
                "type": "Point",
                "coordinates": [
                    23.0126754,
                    62.0084964
                ]
            },
            "properties": {
                "name": "Kanuuna"
            }
        },
        {
            "type": "Feature",
            "geometry": {
                "type": "Point",
                "coordinates": [
                    23.0250609,
                    62.0112347
                ]
            },
            "properties": {
                "name": "Blue Moon"
            }
        },
        {
            "type": "Feature",
            "geometry": {
                "type": "Point",
                "coordinates": [
                    26.9391361,
                    60.4625702
                ]
            },
            "properties": {
                "name": "Yellari"
            }
        },
        {
            "type": "Feature",
            "geometry": {
                "type": "Point",
                "coordinates": [
                    20.9943413,
                    60.3160502
                ]
            },
            "properties": {
                "name": "Kajsa of Lappo"
            }
        },
        {
            "type": "Feature",
            "geometry": {
                "type": "Point",
                "coordinates": [
                    24.9301091,
                    60.1694916
                ]
            },
            "properties": {
                "name": "Shaker Helsinki"
            }
        },
        {
            "type": "Feature",
            "geometry": {
                "type": "Point",
                "coordinates": [
                    23.7627489,
                    61.4952235
                ]
            },
            "properties": {
                "name": "Suvi-laiva"
            }
        },
        {
            "type": "Feature",
            "geometry": {
                "type": "Point",
                "coordinates": [
                    21.9443622,
                    60.3760239
                ]
            },
            "properties": {
                "name": "Ravintola Otava"
            }
        },
        {
            "type": "Feature",
            "geometry": {
                "type": "Point",
                "coordinates": [
                    26.6251761,
                    60.9057201
                ]
            },
            "properties": {
                "name": "Baana"
            }
        },
        {
            "type": "Feature",
            "geometry": {
                "type": "Point",
                "coordinates": [
                    25.1023565,
                    60.4021808
                ]
            },
            "properties": {
                "name": "Sport Bar"
            }
        },
        {
            "type": "Feature",
            "geometry": {
                "type": "Point",
                "coordinates": [
                    25.0305205,
                    60.7896386
                ]
            },
            "properties": {
                "name": "Villi-Minttu"
            }
        },
        {
            "type": "Feature",
            "geometry": {
                "type": "Point",
                "coordinates": [
                    24.957484,
                    60.187529
                ]
            },
            "properties": {
                "name": "Fairytale"
            }
        },
        {
            "type": "Feature",
            "geometry": {
                "type": "Point",
                "coordinates": [
                    24.9547788,
                    60.1873141
                ]
            },
            "properties": {
                "name": "Tenho"
            }
        },
        {
            "type": "Feature",
            "geometry": {
                "type": "Point",
                "coordinates": [
                    25.3165882,
                    63.751713
                ]
            },
            "properties": {
                "name": "Club Scooter"
            }
        },
        {
            "type": "Feature",
            "geometry": {
                "type": "Point",
                "coordinates": [
                    24.9543515,
                    60.1830264
                ]
            },
            "properties": {
                "name": "5th Street Bar & Cafe"
            }
        },
        {
            "type": "Feature",
            "geometry": {
                "type": "Point",
                "coordinates": [
                    27.2744466,
                    61.6883562
                ]
            },
            "properties": {
                "name": "Helle"
            }
        },
        {
            "type": "Feature",
            "geometry": {
                "type": "Point",
                "coordinates": [
                    24.1820133,
                    62.5350393
                ]
            },
            "properties": {
                "name": "Mesik\u00e4mmen"
            }
        },
        {
            "type": "Feature",
            "geometry": {
                "type": "Point",
                "coordinates": [
                    23.9501383,
                    64.2591114
                ]
            },
            "properties": {
                "name": "Ravintola Kultakala"
            }
        },
        {
            "type": "Feature",
            "geometry": {
                "type": "Point",
                "coordinates": [
                    25.4691118,
                    65.0131669
                ]
            },
            "properties": {
                "name": "Viinibaari Vox"
            }
        },
        {
            "type": "Feature",
            "geometry": {
                "type": "Point",
                "coordinates": [
                    19.9278555,
                    60.0949537
                ]
            },
            "properties": {
                "name": "Adlon Pizzeria & Sportsbar"
            }
        },
        {
            "type": "Feature",
            "geometry": {
                "type": "Point",
                "coordinates": [
                    23.9151949,
                    63.9009306
                ]
            },
            "properties": {
                "name": "MenoMono"
            }
        },
        {
            "type": "Feature",
            "geometry": {
                "type": "Point",
                "coordinates": [
                    23.9254801,
                    63.8972151
                ]
            },
            "properties": {
                "name": "Kahvi baari"
            }
        },
        {
            "type": "Feature",
            "geometry": {
                "type": "Point",
                "coordinates": [
                    24.9435694,
                    60.1721268
                ]
            },
            "properties": {
                "name": "Lavaklubi"
            }
        },
        {
            "type": "Feature",
            "geometry": {
                "type": "Point",
                "coordinates": [
                    24.945371,
                    60.1719525
                ]
            },
            "properties": {
                "name": "Bar All In"
            }
        },
        {
            "type": "Feature",
            "geometry": {
                "type": "Point",
                "coordinates": [
                    25.8552265,
                    60.6702231
                ]
            },
            "properties": {
                "name": "Myrskyt\u00e4hti"
            }
        },
        {
            "type": "Feature",
            "geometry": {
                "type": "Point",
                "coordinates": [
                    25.1386276,
                    60.2211748
                ]
            },
            "properties": {
                "name": "Ravintola Hangout"
            }
        },
        {
            "type": "Feature",
            "geometry": {
                "type": "Point",
                "coordinates": [
                    25.138877,
                    60.2214732
                ]
            },
            "properties": {
                "name": "Bar Cheers"
            }
        },
        {
            "type": "Feature",
            "geometry": {
                "type": "Point",
                "coordinates": [
                    25.7500804,
                    62.2437869
                ]
            },
            "properties": {
                "name": "Club Escape"
            }
        },
        {
            "type": "Feature",
            "geometry": {
                "type": "Point",
                "coordinates": [
                    25.7469546,
                    62.2436703
                ]
            }
        },
        {
            "type": "Feature",
            "geometry": {
                "type": "Point",
                "coordinates": [
                    25.7488025,
                    62.244239
                ]
            },
            "properties": {
                "name": "Katse"
            }
        },
        {
            "type": "Feature",
            "geometry": {
                "type": "Point",
                "coordinates": [
                    28.7732825,
                    61.1720687
                ]
            },
            "properties": {
                "name": "Street Cafe"
            }
        },
        {
            "type": "Feature",
            "geometry": {
                "type": "Point",
                "coordinates": [
                    26.7502468,
                    60.486944
                ]
            },
            "properties": {
                "name": "Club Bakkanaali"
            }
        },
        {
            "type": "Feature",
            "geometry": {
                "type": "Point",
                "coordinates": [
                    19.9435038,
                    60.0999336
                ]
            },
            "properties": {
                "name": "Dino's bar & grill"
            }
        },
        {
            "type": "Feature",
            "geometry": {
                "type": "Point",
                "coordinates": [
                    25.7213,
                    62.6042411
                ]
            },
            "properties": {
                "name": "Ravintola Kallio"
            }
        },
        {
            "type": "Feature",
            "geometry": {
                "type": "Point",
                "coordinates": [
                    23.75691,
                    61.4552986
                ]
            },
            "properties": {
                "name": "Peltsun Saluuna"
            }
        },
        {
            "type": "Feature",
            "geometry": {
                "type": "Point",
                "coordinates": [
                    28.8144355,
                    63.6785027
                ]
            },
            "properties": {
                "name": "Irmuska"
            }
        },
        {
            "type": "Feature",
            "geometry": {
                "type": "Point",
                "coordinates": [
                    24.9480068,
                    60.1830964
                ]
            },
            "properties": {
                "name": "Sandro"
            }
        },
        {
            "type": "Feature",
            "geometry": {
                "type": "Point",
                "coordinates": [
                    24.3256917,
                    60.3336184
                ]
            },
            "properties": {
                "name": "Bar Wilbur"
            }
        },
        {
            "type": "Feature",
            "geometry": {
                "type": "Point",
                "coordinates": [
                    24.9515553,
                    60.1664528
                ]
            },
            "properties": {
                "name": "Bar Haven"
            }
        },
        {
            "type": "Feature",
            "geometry": {
                "type": "Point",
                "coordinates": [
                    24.9399383,
                    60.1700788
                ]
            },
            "properties": {
                "name": "Bar Socis"
            }
        },
        {
            "type": "Feature",
            "geometry": {
                "type": "Point",
                "coordinates": [
                    28.1924526,
                    61.0593346
                ]
            },
            "properties": {
                "name": "Old Cock"
            }
        },
        {
            "type": "Feature",
            "geometry": {
                "type": "Point",
                "coordinates": [
                    24.9391101,
                    60.1675724
                ]
            },
            "properties": {
                "name": "Vine Bar Vin Vin"
            }
        },
        {
            "type": "Feature",
            "geometry": {
                "type": "Point",
                "coordinates": [
                    24.9591686,
                    60.1687251
                ]
            },
            "properties": {
                "name": "EGG"
            }
        },
        {
            "type": "Feature",
            "geometry": {
                "type": "Point",
                "coordinates": [
                    24.9350579,
                    60.1691969
                ]
            },
            "properties": {
                "name": "Simonkentt\u00e4"
            }
        },
        {
            "type": "Feature",
            "geometry": {
                "type": "Point",
                "coordinates": [
                    24.8255872,
                    60.2567354
                ]
            },
            "properties": {
                "name": "Bar Jemma"
            }
        },
        {
            "type": "Feature",
            "geometry": {
                "type": "Point",
                "coordinates": [
                    22.2874488,
                    60.4544889
                ]
            },
            "properties": {
                "name": "Proffan kellari"
            }
        },
        {
            "type": "Feature",
            "geometry": {
                "type": "Point",
                "coordinates": [
                    23.9165934,
                    63.8999433
                ]
            },
            "properties": {
                "name": "Kannus Pub"
            }
        },
        {
            "type": "Feature",
            "geometry": {
                "type": "Point",
                "coordinates": [
                    24.9346203,
                    60.157655
                ]
            },
            "properties": {
                "name": "Petisco"
            }
        },
        {
            "type": "Feature",
            "geometry": {
                "type": "Point",
                "coordinates": [
                    23.7729643,
                    62.2384955
                ]
            },
            "properties": {
                "name": "Martinkarhu"
            }
        },
        {
            "type": "Feature",
            "geometry": {
                "type": "Point",
                "coordinates": [
                    24.7746807,
                    60.7389124
                ]
            },
            "properties": {
                "name": "Riihim\u00e4en Pool Bar"
            }
        },
        {
            "type": "Feature",
            "geometry": {
                "type": "Point",
                "coordinates": [
                    27.731853,
                    64.2261697
                ]
            },
            "properties": {
                "name": "Backstage bar"
            }
        },
        {
            "type": "Feature",
            "geometry": {
                "type": "Point",
                "coordinates": [
                    25.0883662,
                    60.4728558
                ]
            },
            "properties": {
                "name": "Nightclub Frida"
            }
        },
        {
            "type": "Feature",
            "geometry": {
                "type": "Point",
                "coordinates": [
                    24.9027333,
                    60.2280453
                ]
            },
            "properties": {
                "name": "King Bar"
            }
        },
        {
            "type": "Feature",
            "geometry": {
                "type": "Point",
                "coordinates": [
                    22.3022292,
                    60.3003928
                ]
            },
            "properties": {
                "name": "Club Frendi"
            }
        },
        {
            "type": "Feature",
            "geometry": {
                "type": "Point",
                "coordinates": [
                    27.1154688,
                    62.6258307
                ]
            },
            "properties": {
                "name": "Kasibar"
            }
        },
        {
            "type": "Feature",
            "geometry": {
                "type": "Point",
                "coordinates": [
                    27.2715083,
                    61.6888691
                ]
            },
            "properties": {
                "name": "Helle"
            }
        },
        {
            "type": "Feature",
            "geometry": {
                "type": "Point",
                "coordinates": [
                    24.939832,
                    60.1649656
                ]
            },
            "properties": {
                "name": "Los Cojones"
            }
        },
        {
            "type": "Feature",
            "geometry": {
                "type": "Point",
                "coordinates": [
                    25.5014515,
                    64.9960738
                ]
            },
            "properties": {
                "name": "Ohari"
            }
        },
        {
            "type": "Feature",
            "geometry": {
                "type": "Point",
                "coordinates": [
                    24.2596117,
                    67.5518361
                ]
            },
            "properties": {
                "name": "Off-Piste"
            }
        },
        {
            "type": "Feature",
            "geometry": {
                "type": "Point",
                "coordinates": [
                    24.768821,
                    64.8138311
                ]
            },
            "properties": {
                "name": "Saloon Huitsin Nevada"
            }
        },
        {
            "type": "Feature",
            "geometry": {
                "type": "Point",
                "coordinates": [
                    26.9538463,
                    60.501406
                ]
            },
            "properties": {
                "name": "Ravintola Alvari"
            }
        },
        {
            "type": "Feature",
            "geometry": {
                "type": "Point",
                "coordinates": [
                    25.4802604,
                    60.4011778
                ]
            },
            "properties": {
                "name": "Pub L\u00e4tt\u00e4hattu"
            }
        },
        {
            "type": "Feature",
            "geometry": {
                "type": "Point",
                "coordinates": [
                    28.2421292,
                    64.1504299
                ]
            },
            "properties": {
                "name": "BowlCircus Vuokatti"
            }
        },
        {
            "type": "Feature",
            "geometry": {
                "type": "Point",
                "coordinates": [
                    24.9385218,
                    60.1688503
                ]
            },
            "properties": {
                "name": "O'Learys Forum"
            }
        },
        {
            "type": "Feature",
            "geometry": {
                "type": "Point",
                "coordinates": [
                    28.8889954,
                    61.8674053
                ]
            },
            "properties": {
                "name": "The Castle Inn"
            }
        },
        {
            "type": "Feature",
            "geometry": {
                "type": "Point",
                "coordinates": [
                    28.8973608,
                    61.8670719
                ]
            },
            "properties": {
                "name": "The Rocks"
            }
        },
        {
            "type": "Feature",
            "geometry": {
                "type": "Point",
                "coordinates": [
                    22.695366,
                    60.3423355
                ]
            },
            "properties": {
                "name": "Tapper's Inn"
            }
        },
        {
            "type": "Feature",
            "geometry": {
                "type": "Point",
                "coordinates": [
                    23.766538,
                    61.4983242
                ]
            },
            "properties": {
                "name": "Aussie Bar"
            }
        },
        {
            "type": "Feature",
            "geometry": {
                "type": "Point",
                "coordinates": [
                    24.739468,
                    60.1574492
                ]
            },
            "properties": {
                "name": "Wanha Ostari"
            }
        },
        {
            "type": "Feature",
            "geometry": {
                "type": "Point",
                "coordinates": [
                    24.6571579,
                    60.204086
                ]
            },
            "properties": {
                "name": "Ravintola Britannia"
            }
        },
        {
            "type": "Feature",
            "geometry": {
                "type": "Point",
                "coordinates": [
                    25.7473585,
                    62.2445776
                ]
            },
            "properties": {
                "name": "Pub & Club Onni"
            }
        },
        {
            "type": "Feature",
            "geometry": {
                "type": "Point",
                "coordinates": [
                    24.9559532,
                    60.1537925
                ]
            },
            "properties": {
                "name": "Kaivopuiston Mattolaituri"
            }
        },
        {
            "type": "Feature",
            "geometry": {
                "type": "Point",
                "coordinates": [
                    22.3292938,
                    60.4620741
                ]
            },
            "properties": {
                "name": "Bar Sylvester"
            }
        },
        {
            "type": "Feature",
            "geometry": {
                "type": "Point",
                "coordinates": [
                    27.156945,
                    62.3000635
                ]
            },
            "properties": {
                "name": "Cafe Pub Rika Linna"
            }
        },
        {
            "type": "Feature",
            "geometry": {
                "type": "Point",
                "coordinates": [
                    27.158292,
                    62.3000997
                ]
            },
            "properties": {
                "name": "Music Bar Cafe Corona"
            }
        },
        {
            "type": "Feature",
            "geometry": {
                "type": "Point",
                "coordinates": [
                    21.9943363,
                    60.6758678
                ]
            },
            "properties": {
                "name": "Caspers Cafe"
            }
        },
        {
            "type": "Feature",
            "geometry": {
                "type": "Point",
                "coordinates": [
                    24.467762,
                    60.9967892
                ]
            },
            "properties": {
                "name": "Bar Skogster"
            }
        },
        {
            "type": "Feature",
            "geometry": {
                "type": "Point",
                "coordinates": [
                    24.7694288,
                    60.7358756
                ]
            },
            "properties": {
                "name": "Red Hot"
            }
        },
        {
            "type": "Feature",
            "geometry": {
                "type": "Point",
                "coordinates": [
                    22.2582842,
                    60.4479659
                ]
            },
            "properties": {
                "name": "Erik29"
            }
        },
        {
            "type": "Feature",
            "geometry": {
                "type": "Point",
                "coordinates": [
                    25.4676093,
                    65.0121534
                ]
            },
            "properties": {
                "name": "Ihku"
            }
        },
        {
            "type": "Feature",
            "geometry": {
                "type": "Point",
                "coordinates": [
                    22.2551888,
                    60.4507734
                ]
            }
        },
        {
            "type": "Feature",
            "geometry": {
                "type": "Point",
                "coordinates": [
                    22.2692285,
                    60.4530403
                ]
            }
        },
        {
            "type": "Feature",
            "geometry": {
                "type": "Point",
                "coordinates": [
                    22.2644271,
                    60.4520273
                ]
            },
            "properties": {
                "name": "Sk\u00e4rg\u00e5rdsbaren"
            }
        },
        {
            "type": "Feature",
            "geometry": {
                "type": "Point",
                "coordinates": [
                    22.2645679,
                    60.4519366
                ]
            },
            "properties": {
                "name": "Y\u00f6kerho"
            }
        },
        {
            "type": "Feature",
            "geometry": {
                "type": "Point",
                "coordinates": [
                    22.2612532,
                    60.4489493
                ]
            },
            "properties": {
                "name": "Tapas bar"
            }
        },
        {
            "type": "Feature",
            "geometry": {
                "type": "Point",
                "coordinates": [
                    24.3192507,
                    60.3342235
                ]
            },
            "properties": {
                "name": "Ned Kelly's"
            }
        },
        {
            "type": "Feature",
            "geometry": {
                "type": "Point",
                "coordinates": [
                    24.4682693,
                    60.9968814
                ]
            },
            "properties": {
                "name": "Nooran Viinibaari"
            }
        },
        {
            "type": "Feature",
            "geometry": {
                "type": "Point",
                "coordinates": [
                    21.4802175,
                    61.5910025
                ]
            },
            "properties": {
                "name": "Kahvila-Ravintola Aallonmurtaja"
            }
        },
        {
            "type": "Feature",
            "geometry": {
                "type": "Point",
                "coordinates": [
                    23.7669421,
                    61.4966169
                ]
            },
            "properties": {
                "name": "Ukko Nooa"
            }
        },
        {
            "type": "Feature",
            "geometry": {
                "type": "Point",
                "coordinates": [
                    23.7753556,
                    61.4969867
                ]
            },
            "properties": {
                "name": "Paja Bar"
            }
        },
        {
            "type": "Feature",
            "geometry": {
                "type": "Point",
                "coordinates": [
                    23.7759653,
                    61.4969047
                ]
            },
            "properties": {
                "name": "Moro Sky Bar"
            }
        },
        {
            "type": "Feature",
            "geometry": {
                "type": "Point",
                "coordinates": [
                    22.8250765,
                    62.787933
                ]
            },
            "properties": {
                "name": "Barpuuri"
            }
        },
        {
            "type": "Feature",
            "geometry": {
                "type": "Point",
                "coordinates": [
                    25.7254515,
                    66.5027365
                ]
            },
            "properties": {
                "name": "Nightclub Half Moon"
            }
        },
        {
            "type": "Feature",
            "geometry": {
                "type": "Point",
                "coordinates": [
                    23.7518375,
                    61.4959244
                ]
            },
            "properties": {
                "name": "Teatterikulma"
            }
        },
        {
            "type": "Feature",
            "geometry": {
                "type": "Point",
                "coordinates": [
                    28.7938717,
                    61.2040171
                ]
            },
            "properties": {
                "name": "Mocambo"
            }
        },
        {
            "type": "Feature",
            "geometry": {
                "type": "Point",
                "coordinates": [
                    24.944314,
                    60.1694624
                ]
            },
            "properties": {
                "name": "Time Bar"
            }
        },
        {
            "type": "Feature",
            "geometry": {
                "type": "Point",
                "coordinates": [
                    24.9422988,
                    60.1607227
                ]
            },
            "properties": {
                "name": "Brewdog"
            }
        },
        {
            "type": "Feature",
            "geometry": {
                "type": "Point",
                "coordinates": [
                    24.9680088,
                    60.3194365
                ]
            },
            "properties": {
                "name": "Wine & View (T2)"
            }
        },
        {
            "type": "Feature",
            "geometry": {
                "type": "Point",
                "coordinates": [
                    24.9645611,
                    60.3178483
                ]
            },
            "properties": {
                "name": "Artic Bar"
            }
        },
        {
            "type": "Feature",
            "geometry": {
                "type": "Point",
                "coordinates": [
                    26.5155113,
                    61.1467218
                ]
            },
            "properties": {
                "name": "Hartolan Baari"
            }
        },
        {
            "type": "Feature",
            "geometry": {
                "type": "Point",
                "coordinates": [
                    25.036969,
                    60.2931467
                ]
            },
            "properties": {
                "name": "Pingviini Street Bar"
            }
        },
        {
            "type": "Feature",
            "geometry": {
                "type": "Point",
                "coordinates": [
                    25.6546821,
                    60.9830354
                ]
            },
            "properties": {
                "name": "Brygga citybar"
            }
        },
        {
            "type": "Feature",
            "geometry": {
                "type": "Point",
                "coordinates": [
                    25.653805,
                    60.9831161
                ]
            },
            "properties": {
                "name": "Bar Nova"
            }
        },
        {
            "type": "Feature",
            "geometry": {
                "type": "Point",
                "coordinates": [
                    25.6547089,
                    60.9829769
                ]
            },
            "properties": {
                "name": "Oldi"
            }
        },
        {
            "type": "Feature",
            "geometry": {
                "type": "Point",
                "coordinates": [
                    23.6613586,
                    60.0685293
                ]
            }
        },
        {
            "type": "Feature",
            "geometry": {
                "type": "Point",
                "coordinates": [
                    26.0907662,
                    60.7443208
                ]
            }
        },
        {
            "type": "Feature",
            "geometry": {
                "type": "Point",
                "coordinates": [
                    24.9335378,
                    60.1670049
                ]
            },
            "properties": {
                "name": "Club Capital"
            }
        },
        {
            "type": "Feature",
            "geometry": {
                "type": "Point",
                "coordinates": [
                    29.7628872,
                    62.5983582
                ]
            },
            "properties": {
                "name": "Surakan baari"
            }
        },
        {
            "type": "Feature",
            "geometry": {
                "type": "Point",
                "coordinates": [
                    28.7812691,
                    61.1857084
                ]
            },
            "properties": {
                "name": "Keilahalli"
            }
        },
        {
            "type": "Feature",
            "geometry": {
                "type": "Point",
                "coordinates": [
                    28.7558013,
                    61.1997752
                ]
            },
            "properties": {
                "name": "Sieppari-Pub"
            }
        },
        {
            "type": "Feature",
            "geometry": {
                "type": "Point",
                "coordinates": [
                    24.9815476,
                    60.1827588
                ]
            },
            "properties": {
                "name": "Seaside Bar Vaahto"
            }
        },
        {
            "type": "Feature",
            "geometry": {
                "type": "Point",
                "coordinates": [
                    24.3195362,
                    60.4171294
                ]
            },
            "properties": {
                "name": "Satulasepp\u00e4"
            }
        },
        {
            "type": "Feature",
            "geometry": {
                "type": "Point",
                "coordinates": [
                    24.8552556,
                    60.2616201
                ]
            },
            "properties": {
                "name": "Molly Malones Toppari"
            }
        },
        {
            "type": "Feature",
            "geometry": {
                "type": "Point",
                "coordinates": [
                    26.5937032,
                    67.4172039
                ]
            }
        },
        {
            "type": "Feature",
            "geometry": {
                "type": "Point",
                "coordinates": [
                    24.853788,
                    60.2626021
                ]
            },
            "properties": {
                "name": "The Lane"
            }
        },
        {
            "type": "Feature",
            "geometry": {
                "type": "Point",
                "coordinates": [
                    24.8051938,
                    60.4655818
                ]
            },
            "properties": {
                "name": "Bowling house"
            }
        },
        {
            "type": "Feature",
            "geometry": {
                "type": "Point",
                "coordinates": [
                    27.6092042,
                    65.6244366
                ]
            }
        },
        {
            "type": "Feature",
            "geometry": {
                "type": "Point",
                "coordinates": [
                    24.9308975,
                    60.1665532
                ]
            },
            "properties": {
                "name": "100 Dogs"
            }
        },
        {
            "type": "Feature",
            "geometry": {
                "type": "Point",
                "coordinates": [
                    24.930772,
                    60.1597112
                ]
            },
            "properties": {
                "name": "Elmun Baari"
            }
        },
        {
            "type": "Feature",
            "geometry": {
                "type": "Point",
                "coordinates": [
                    29.7616857,
                    62.5994488
                ]
            },
            "properties": {
                "name": "La Barre "
            }
        },
        {
            "type": "Feature",
            "geometry": {
                "type": "Point",
                "coordinates": [
                    29.7605431,
                    62.6025516
                ]
            },
            "properties": {
                "name": "Sointula "
            }
        },
        {
            "type": "Feature",
            "geometry": {
                "type": "Point",
                "coordinates": [
                    29.7598853,
                    62.6007364
                ]
            },
            "properties": {
                "name": "Takatasku"
            }
        },
        {
            "type": "Feature",
            "geometry": {
                "type": "Point",
                "coordinates": [
                    29.7639444,
                    62.5975825
                ]
            },
            "properties": {
                "name": "Romeo "
            }
        },
        {
            "type": "Feature",
            "geometry": {
                "type": "Point",
                "coordinates": [
                    29.7609225,
                    62.5998266
                ]
            },
            "properties": {
                "name": "Las Palmas "
            }
        },
        {
            "type": "Feature",
            "geometry": {
                "type": "Point",
                "coordinates": [
                    24.2574563,
                    67.5509483
                ]
            },
            "properties": {
                "name": "Skibar P\u00f6ll\u00f6"
            }
        },
        {
            "type": "Feature",
            "geometry": {
                "type": "Point",
                "coordinates": [
                    25.4710602,
                    65.0120795
                ]
            },
            "properties": {
                "name": "Cocktail Company"
            }
        },
        {
            "type": "Feature",
            "geometry": {
                "type": "Point",
                "coordinates": [
                    22.1648087,
                    60.4851441
                ]
            },
            "properties": {
                "name": "Mallaskulma"
            }
        },
        {
            "type": "Feature",
            "geometry": {
                "type": "Point",
                "coordinates": [
                    29.7610936,
                    62.6012008
                ]
            },
            "properties": {
                "name": "Bar play"
            }
        },
        {
            "type": "Feature",
            "geometry": {
                "type": "Point",
                "coordinates": [
                    29.7621538,
                    62.6018603
                ]
            },
            "properties": {
                "name": "Marks Rock Club"
            }
        },
        {
            "type": "Feature",
            "geometry": {
                "type": "Point",
                "coordinates": [
                    29.7580581,
                    62.5991947
                ]
            },
            "properties": {
                "name": "Mikko"
            }
        },
        {
            "type": "Feature",
            "geometry": {
                "type": "Point",
                "coordinates": [
                    23.7682341,
                    61.4987534
                ]
            },
            "properties": {
                "name": "Roska"
            }
        },
        {
            "type": "Feature",
            "geometry": {
                "type": "Point",
                "coordinates": [
                    25.0312858,
                    60.3097308
                ]
            },
            "properties": {
                "name": "Pub Leinikki"
            }
        },
        {
            "type": "Feature",
            "geometry": {
                "type": "Point",
                "coordinates": [
                    24.9424265,
                    60.1634571
                ]
            },
            "properties": {
                "name": "Paloma"
            }
        },
        {
            "type": "Feature",
            "geometry": {
                "type": "Point",
                "coordinates": [
                    29.7580447,
                    62.5991638
                ]
            },
            "properties": {
                "name": "Mikko "
            }
        },
        {
            "type": "Feature",
            "geometry": {
                "type": "Point",
                "coordinates": [
                    28.9625129,
                    61.8617027
                ]
            }
        },
        {
            "type": "Feature",
            "geometry": {
                "type": "Point",
                "coordinates": [
                    24.9622849,
                    60.2964653
                ]
            },
            "properties": {
                "name": "Hemingways"
            }
        },
        {
            "type": "Feature",
            "geometry": {
                "type": "Point",
                "coordinates": [
                    28.1855309,
                    61.0581157
                ]
            },
            "properties": {
                "name": "Hemingway"
            }
        },
        {
            "type": "Feature",
            "geometry": {
                "type": "Point",
                "coordinates": [
                    28.1864801,
                    61.05747
                ]
            },
            "properties": {
                "name": "hdn"
            }
        },
        {
            "type": "Feature",
            "geometry": {
                "type": "Point",
                "coordinates": [
                    26.6998778,
                    60.8683204
                ]
            },
            "properties": {
                "name": "Brooklyn"
            }
        },
        {
            "type": "Feature",
            "geometry": {
                "type": "Point",
                "coordinates": [
                    24.3156006,
                    60.4192329
                ]
            },
            "properties": {
                "name": "Myyrin baari"
            }
        },
        {
            "type": "Feature",
            "geometry": {
                "type": "Point",
                "coordinates": [
                    25.0819359,
                    60.2113464
                ]
            },
            "properties": {
                "name": "Jungle Juice"
            }
        },
        {
            "type": "Feature",
            "geometry": {
                "type": "Point",
                "coordinates": [
                    22.3739123,
                    61.8043456
                ]
            },
            "properties": {
                "name": "Pub Ilona"
            }
        },
        {
            "type": "Feature",
            "geometry": {
                "type": "Point",
                "coordinates": [
                    26.005075,
                    61.1075625
                ]
            },
            "properties": {
                "name": "Sports bar"
            }
        },
        {
            "type": "Feature",
            "geometry": {
                "type": "Point",
                "coordinates": [
                    26.7250167,
                    69.2926058
                ]
            }
        },
        {
            "type": "Feature",
            "geometry": {
                "type": "Point",
                "coordinates": [
                    24.9342848,
                    60.1670041
                ]
            },
            "properties": {
                "name": "Dubrovnik lounge & lobby"
            }
        },
        {
            "type": "Feature",
            "geometry": {
                "type": "Point",
                "coordinates": [
                    24.3915896,
                    66.0196064
                ]
            }
        },
        {
            "type": "Feature",
            "geometry": {
                "type": "Point",
                "coordinates": [
                    21.4109001,
                    60.7995277
                ]
            },
            "properties": {
                "name": "Bar m'UKI"
            }
        },
        {
            "type": "Feature",
            "geometry": {
                "type": "Point",
                "coordinates": [
                    24.9597651,
                    60.1690085
                ]
            },
            "properties": {
                "name": "Le Petit Chaperon Rouge"
            }
        },
        {
            "type": "Feature",
            "geometry": {
                "type": "Point",
                "coordinates": [
                    24.9895066,
                    60.2749605
                ]
            },
            "properties": {
                "name": "Silta Pub"
            }
        },
        {
            "type": "Feature",
            "geometry": {
                "type": "Point",
                "coordinates": [
                    25.6581772,
                    60.3937001
                ]
            }
        },
        {
            "type": "Feature",
            "geometry": {
                "type": "Point",
                "coordinates": [
                    24.8858363,
                    60.2421168
                ]
            },
            "properties": {
                "name": "Kantsun Kulma Bar"
            }
        },
        {
            "type": "Feature",
            "geometry": {
                "type": "Point",
                "coordinates": [
                    25.2817941,
                    60.5588804
                ]
            },
            "properties": {
                "name": "Kohina-baari"
            }
        },
        {
            "type": "Feature",
            "geometry": {
                "type": "Point",
                "coordinates": [
                    23.8077702,
                    61.4962849
                ]
            },
            "properties": {
                "name": "Lapin akka"
            }
        },
        {
            "type": "Feature",
            "geometry": {
                "type": "Point",
                "coordinates": [
                    25.8599483,
                    63.0756171
                ]
            },
            "properties": {
                "name": "Viitasaaren Viihdekeskus"
            }
        },
        {
            "type": "Feature",
            "geometry": {
                "type": "Point",
                "coordinates": [
                    24.9419006,
                    60.1631514
                ]
            },
            "properties": {
                "name": "Classic Bar"
            }
        },
        {
            "type": "Feature",
            "geometry": {
                "type": "Point",
                "coordinates": [
                    24.9357253,
                    60.1674806
                ]
            },
            "properties": {
                "name": "Why join the navy when you can be a pirate"
            }
        },
        {
            "type": "Feature",
            "geometry": {
                "type": "Point",
                "coordinates": [
                    24.9337583,
                    60.157811
                ]
            },
            "properties": {
                "name": "Basbas & Staff"
            }
        },
        {
            "type": "Feature",
            "geometry": {
                "type": "Point",
                "coordinates": [
                    24.9442687,
                    60.1646619
                ]
            },
            "properties": {
                "name": "Liberty Or Death"
            }
        },
        {
            "type": "Feature",
            "geometry": {
                "type": "Point",
                "coordinates": [
                    24.9361882,
                    60.163901
                ]
            }
        },
        {
            "type": "Feature",
            "geometry": {
                "type": "Point",
                "coordinates": [
                    24.9404197,
                    60.162999
                ]
            },
            "properties": {
                "name": "Jackie"
            }
        },
        {
            "type": "Feature",
            "geometry": {
                "type": "Point",
                "coordinates": [
                    22.1458065,
                    61.3146291
                ]
            },
            "properties": {
                "name": "Holvi"
            }
        },
        {
            "type": "Feature",
            "geometry": {
                "type": "Point",
                "coordinates": [
                    22.2210089,
                    60.5409834
                ]
            },
            "properties": {
                "name": "Centro"
            }
        },
        {
            "type": "Feature",
            "geometry": {
                "type": "Point",
                "coordinates": [
                    24.9373019,
                    60.1667551
                ]
            },
            "properties": {
                "name": "A21 Decades"
            }
        },
        {
            "type": "Feature",
            "geometry": {
                "type": "Point",
                "coordinates": [
                    23.8494376,
                    61.4510267
                ]
            },
            "properties": {
                "name": "Bar Amazonas"
            }
        },
        {
            "type": "Feature",
            "geometry": {
                "type": "Point",
                "coordinates": [
                    23.7723796,
                    61.4974674
                ]
            },
            "properties": {
                "name": "Galaxie Center"
            }
        },
        {
            "type": "Feature",
            "geometry": {
                "type": "Point",
                "coordinates": [
                    23.7663042,
                    61.4974827
                ]
            },
            "properties": {
                "name": "Champagne bar Sant\u00e9"
            }
        },
        {
            "type": "Feature",
            "geometry": {
                "type": "Point",
                "coordinates": [
                    23.7691436,
                    61.49754
                ]
            },
            "properties": {
                "name": "Majava-baari"
            }
        },
        {
            "type": "Feature",
            "geometry": {
                "type": "Point",
                "coordinates": [
                    24.9717267,
                    60.3156668
                ]
            }
        },
        {
            "type": "Feature",
            "geometry": {
                "type": "Point",
                "coordinates": [
                    24.9710844,
                    60.3164817
                ]
            }
        },
        {
            "type": "Feature",
            "geometry": {
                "type": "Point",
                "coordinates": [
                    24.9452945,
                    60.1686765
                ]
            },
            "properties": {
                "name": "Viinibaari Venn"
            }
        },
        {
            "type": "Feature",
            "geometry": {
                "type": "Point",
                "coordinates": [
                    24.9389772,
                    60.1605158
                ]
            },
            "properties": {
                "name": "Sidreria"
            }
        },
        {
            "type": "Feature",
            "geometry": {
                "type": "Point",
                "coordinates": [
                    24.9391905,
                    60.1671087
                ]
            },
            "properties": {
                "name": "Singer's Karaoke"
            }
        },
        {
            "type": "Feature",
            "geometry": {
                "type": "Point",
                "coordinates": [
                    23.1367068,
                    63.8386353
                ]
            },
            "properties": {
                "name": "Kilta"
            }
        },
        {
            "type": "Feature",
            "geometry": {
                "type": "Point",
                "coordinates": [
                    24.9607171,
                    60.168999
                ]
            },
            "properties": {
                "name": "Sk\u00f6ne"
            }
        },
        {
            "type": "Feature",
            "geometry": {
                "type": "Point",
                "coordinates": [
                    24.9149038,
                    60.149365
                ]
            }
        },
        {
            "type": "Feature",
            "geometry": {
                "type": "Point",
                "coordinates": [
                    23.7560723,
                    61.4975329
                ]
            }
        },
        {
            "type": "Feature",
            "geometry": {
                "type": "Point",
                "coordinates": [
                    24.9232875,
                    60.1766067
                ]
            },
            "properties": {
                "name": "Ritz Biljardi"
            }
        },
        {
            "type": "Feature",
            "geometry": {
                "type": "Point",
                "coordinates": [
                    23.8235607,
                    60.3181352
                ]
            },
            "properties": {
                "name": "Tuuheikko"
            }
        },
        {
            "type": "Feature",
            "geometry": {
                "type": "Point",
                "coordinates": [
                    22.3692393,
                    59.9525558
                ]
            },
            "properties": {
                "name": "Rumpan bar"
            }
        },
        {
            "type": "Feature",
            "geometry": {
                "type": "Point",
                "coordinates": [
                    28.895378,
                    61.8639903
                ]
            },
            "properties": {
                "name": "Mustan virran panimon panimobaari"
            }
        },
        {
            "type": "Feature",
            "geometry": {
                "type": "Point",
                "coordinates": [
                    24.9636829,
                    60.1824146
                ]
            },
            "properties": {
                "name": "Merikerho"
            }
        },
        {
            "type": "Feature",
            "geometry": {
                "type": "Point",
                "coordinates": [
                    22.5885022,
                    61.5967543
                ]
            }
        },
        {
            "type": "Feature",
            "geometry": {
                "type": "Point",
                "coordinates": [
                    22.2331649,
                    60.9901371
                ]
            },
            "properties": {
                "name": "Sierravuori Baari"
            }
        },
        {
            "type": "Feature",
            "geometry": {
                "type": "Point",
                "coordinates": [
                    24.9288606,
                    60.1688541
                ]
            },
            "properties": {
                "name": "Factory Bar"
            }
        },
        {
            "type": "Feature",
            "geometry": {
                "type": "Point",
                "coordinates": [
                    22.0365611,
                    60.4783415
                ]
            }
        },
        {
            "type": "Feature",
            "geometry": {
                "type": "Point",
                "coordinates": [
                    25.0093994,
                    60.1375412
                ]
            },
            "properties": {
                "name": "Myrskybaari"
            }
        },
        {
            "type": "Feature",
            "geometry": {
                "type": "Point",
                "coordinates": [
                    22.5648717,
                    62.1405255
                ]
            },
            "properties": {
                "name": "Kyl\u00e4krouvi Karvia"
            }
        },
        {
            "type": "Feature",
            "geometry": {
                "type": "Point",
                "coordinates": [
                    24.7470917,
                    60.1865093
                ]
            },
            "properties": {
                "name": "Vaappuva Ankka"
            }
        },
        {
            "type": "Feature",
            "geometry": {
                "type": "Point",
                "coordinates": [
                    25.671042,
                    62.1363473
                ]
            },
            "properties": {
                "name": "Silver Sports Bar & Bowling"
            }
        },
        {
            "type": "Feature",
            "geometry": {
                "type": "Point",
                "coordinates": [
                    23.1322262,
                    63.8369752
                ]
            },
            "properties": {
                "name": "Rock'n Roll Bar"
            }
        },
        {
            "type": "Feature",
            "geometry": {
                "type": "Point",
                "coordinates": [
                    22.2591575,
                    60.4499162
                ]
            },
            "properties": {
                "name": "Pocket Bar & billiard"
            }
        },
        {
            "type": "Feature",
            "geometry": {
                "type": "Point",
                "coordinates": [
                    26.9448013,
                    60.4677748
                ]
            },
            "properties": {
                "name": "Kotkan Pikku PRKL"
            }
        },
        {
            "type": "Feature",
            "geometry": {
                "type": "Point",
                "coordinates": [
                    24.4773548,
                    60.9978969
                ]
            },
            "properties": {
                "name": "Suistoklubi"
            }
        },
        {
            "type": "Feature",
            "geometry": {
                "type": "Point",
                "coordinates": [
                    23.435924,
                    59.9750736
                ]
            },
            "properties": {
                "name": "Mango Bar & Caf\u00e8"
            }
        },
        {
            "type": "Feature",
            "geometry": {
                "type": "Point",
                "coordinates": [
                    24.960215,
                    60.1689208
                ]
            },
            "properties": {
                "name": "Holiday bar"
            }
        },
        {
            "type": "Feature",
            "geometry": {
                "type": "Point",
                "coordinates": [
                    25.7498941,
                    62.2440412
                ]
            },
            "properties": {
                "name": "Feel Vegas"
            }
        },
        {
            "type": "Feature",
            "geometry": {
                "type": "Point",
                "coordinates": [
                    27.7316716,
                    64.2261521
                ]
            },
            "properties": {
                "name": "Gr\u00f6n"
            }
        },
        {
            "type": "Feature",
            "geometry": {
                "type": "Point",
                "coordinates": [
                    27.7320814,
                    64.2262458
                ]
            },
            "properties": {
                "name": "Rock House Kulma"
            }
        },