{
    "type": "FeatureCollection",
    "features": [
        {
            "type": "Feature",
            "geometry": {
                "type": "Point",
                "coordinates": [
                    14.886588,
                    44.570943
                ]
            },
            "properties": {
                "name": "beach bar"
            }
        },
        {
            "type": "Feature",
            "geometry": {
                "type": "Point",
                "coordinates": [
                    13.5164983,
                    45.4479851
                ]
            },
            "properties": {
                "name": "Leggiero"
            }
        },
        {
            "type": "Feature",
            "geometry": {
                "type": "Point",
                "coordinates": [
                    18.8531979,
                    45.8509937
                ]
            },
            "properties": {
                "name": "i-pub"
            }
        },
        {
            "type": "Feature",
            "geometry": {
                "type": "Point",
                "coordinates": [
                    14.3505059,
                    44.8190413
                ]
            },
            "properties": {
                "name": "Neptun"
            }
        },
        {
            "type": "Feature",
            "geometry": {
                "type": "Point",
                "coordinates": [
                    14.9140563,
                    44.5389627
                ]
            },
            "properties": {
                "name": "Papaya"
            }
        },
        {
            "type": "Feature",
            "geometry": {
                "type": "Point",
                "coordinates": [
                    15.947947,
                    45.7835968
                ]
            },
            "properties": {
                "name": "Roko"
            }
        },
        {
            "type": "Feature",
            "geometry": {
                "type": "Point",
                "coordinates": [
                    15.945155,
                    45.7828317
                ]
            },
            "properties": {
                "name": "The Best"
            }
        },
        {
            "type": "Feature",
            "geometry": {
                "type": "Point",
                "coordinates": [
                    15.9365627,
                    45.7806573
                ]
            },
            "properties": {
                "name": "Aruba"
            }
        },
        {
            "type": "Feature",
            "geometry": {
                "type": "Point",
                "coordinates": [
                    16.0740769,
                    45.7150234
                ]
            },
            "properties": {
                "name": "Irish"
            }
        },
        {
            "type": "Feature",
            "geometry": {
                "type": "Point",
                "coordinates": [
                    16.5445821,
                    46.0244278
                ]
            },
            "properties": {
                "name": "Art Rock Caffe"
            }
        },
        {
            "type": "Feature",
            "geometry": {
                "type": "Point",
                "coordinates": [
                    16.5472913,
                    46.0223345
                ]
            },
            "properties": {
                "name": "Gentlemen's"
            }
        },
        {
            "type": "Feature",
            "geometry": {
                "type": "Point",
                "coordinates": [
                    13.5120022,
                    45.4651165
                ]
            }
        },
        {
            "type": "Feature",
            "geometry": {
                "type": "Point",
                "coordinates": [
                    13.9063431,
                    44.7773899
                ]
            },
            "properties": {
                "name": "Njive"
            }
        },
        {
            "type": "Feature",
            "geometry": {
                "type": "Point",
                "coordinates": [
                    13.9170995,
                    44.784786
                ]
            },
            "properties": {
                "name": "Skoljik"
            }
        },
        {
            "type": "Feature",
            "geometry": {
                "type": "Point",
                "coordinates": [
                    18.4024387,
                    45.684065
                ]
            },
            "properties": {
                "name": "Kolonija"
            }
        },
        {
            "type": "Feature",
            "geometry": {
                "type": "Point",
                "coordinates": [
                    18.413553,
                    45.6742436
                ]
            },
            "properties": {
                "name": "Kaktus"
            }
        },
        {
            "type": "Feature",
            "geometry": {
                "type": "Point",
                "coordinates": [
                    18.4048076,
                    45.6812767
                ]
            },
            "properties": {
                "name": "Mondeo"
            }
        },
        {
            "type": "Feature",
            "geometry": {
                "type": "Point",
                "coordinates": [
                    18.6939518,
                    45.5600092
                ]
            },
            "properties": {
                "name": "Fortaleza"
            }
        },
        {
            "type": "Feature",
            "geometry": {
                "type": "Point",
                "coordinates": [
                    16.5370044,
                    46.0170784
                ]
            },
            "properties": {
                "name": "Agroclub"
            }
        },
        {
            "type": "Feature",
            "geometry": {
                "type": "Point",
                "coordinates": [
                    15.9284066,
                    45.790026
                ]
            },
            "properties": {
                "name": "Egoist"
            }
        },
        {
            "type": "Feature",
            "geometry": {
                "type": "Point",
                "coordinates": [
                    18.8035952,
                    45.2983755
                ]
            },
            "properties": {
                "name": "Colosseum"
            }
        },
        {
            "type": "Feature",
            "geometry": {
                "type": "Point",
                "coordinates": [
                    15.9233106,
                    45.793879
                ]
            }
        },
        {
            "type": "Feature",
            "geometry": {
                "type": "Point",
                "coordinates": [
                    15.9277868,
                    45.7854855
                ]
            },
            "properties": {
                "name": "Slasti\u010darnica Kre\u0161imir"
            }
        },
        {
            "type": "Feature",
            "geometry": {
                "type": "Point",
                "coordinates": [
                    15.8987725,
                    45.7323146
                ]
            },
            "properties": {
                "name": "Feniks"
            }
        },
        {
            "type": "Feature",
            "geometry": {
                "type": "Point",
                "coordinates": [
                    16.0616369,
                    45.8405829
                ]
            },
            "properties": {
                "name": "Cafe bar \"Gurman Gotivius\""
            }
        },
        {
            "type": "Feature",
            "geometry": {
                "type": "Point",
                "coordinates": [
                    16.0741013,
                    45.7155812
                ]
            },
            "properties": {
                "name": "Hyperion"
            }
        },
        {
            "type": "Feature",
            "geometry": {
                "type": "Point",
                "coordinates": [
                    16.2069133,
                    45.7233301
                ]
            },
            "properties": {
                "name": "Sava in"
            }
        },
        {
            "type": "Feature",
            "geometry": {
                "type": "Point",
                "coordinates": [
                    16.4295783,
                    46.1213986
                ]
            }
        },
        {
            "type": "Feature",
            "geometry": {
                "type": "Point",
                "coordinates": [
                    16.1119709,
                    45.7499577
                ]
            },
            "properties": {
                "name": "Dvije Seke"
            }
        },
        {
            "type": "Feature",
            "geometry": {
                "type": "Point",
                "coordinates": [
                    16.2445598,
                    45.6864012
                ]
            },
            "properties": {
                "name": "Paloma"
            }
        },
        {
            "type": "Feature",
            "geometry": {
                "type": "Point",
                "coordinates": [
                    18.8161372,
                    45.2848944
                ]
            },
            "properties": {
                "name": "Plus"
            }
        },
        {
            "type": "Feature",
            "geometry": {
                "type": "Point",
                "coordinates": [
                    16.8416439,
                    45.8956904
                ]
            },
            "properties": {
                "name": "Caffe bar Havana"
            }
        },
        {
            "type": "Feature",
            "geometry": {
                "type": "Point",
                "coordinates": [
                    16.8420586,
                    45.895872
                ]
            },
            "properties": {
                "name": "Caffe bar IV"
            }
        },
        {
            "type": "Feature",
            "geometry": {
                "type": "Point",
                "coordinates": [
                    18.7918639,
                    45.2803776
                ]
            },
            "properties": {
                "name": "Porto Bar"
            }
        },
        {
            "type": "Feature",
            "geometry": {
                "type": "Point",
                "coordinates": [
                    18.8003144,
                    45.2824761
                ]
            },
            "properties": {
                "name": "Rock Caffe Walkow"
            }
        },
        {
            "type": "Feature",
            "geometry": {
                "type": "Point",
                "coordinates": [
                    18.6775591,
                    45.5632205
                ]
            },
            "properties": {
                "name": "\u017duta Podmornica"
            }
        },
        {
            "type": "Feature",
            "geometry": {
                "type": "Point",
                "coordinates": [
                    18.4139012,
                    45.6619247
                ]
            },
            "properties": {
                "name": "Prandau"
            }
        },
        {
            "type": "Feature",
            "geometry": {
                "type": "Point",
                "coordinates": [
                    16.7920975,
                    42.9377397
                ]
            },
            "properties": {
                "name": "Lido"
            }
        },
        {
            "type": "Feature",
            "geometry": {
                "type": "Point",
                "coordinates": [
                    16.7902686,
                    42.9377622
                ]
            }
        },
        {
            "type": "Feature",
            "geometry": {
                "type": "Point",
                "coordinates": [
                    16.7936754,
                    42.9065379
                ]
            }
        },
        {
            "type": "Feature",
            "geometry": {
                "type": "Point",
                "coordinates": [
                    16.7941582,
                    42.9063336
                ]
            }
        },
        {
            "type": "Feature",
            "geometry": {
                "type": "Point",
                "coordinates": [
                    18.4109122,
                    45.6634147
                ]
            },
            "properties": {
                "name": "Slavonac"
            }
        },
        {
            "type": "Feature",
            "geometry": {
                "type": "Point",
                "coordinates": [
                    16.7894751,
                    42.9394363
                ]
            }
        },
        {
            "type": "Feature",
            "geometry": {
                "type": "Point",
                "coordinates": [
                    16.7891555,
                    42.9392134
                ]
            }
        },
        {
            "type": "Feature",
            "geometry": {
                "type": "Point",
                "coordinates": [
                    13.5635928,
                    45.3206639
                ]
            },
            "properties": {
                "name": "Lounge bar Nautica"
            }
        },
        {
            "type": "Feature",
            "geometry": {
                "type": "Point",
                "coordinates": [
                    13.7423002,
                    44.9226675
                ]
            },
            "properties": {
                "name": "Sony and Lanka bar"
            }
        },
        {
            "type": "Feature",
            "geometry": {
                "type": "Point",
                "coordinates": [
                    16.1431982,
                    43.452294
                ]
            },
            "properties": {
                "name": "Skipper"
            }
        },
        {
            "type": "Feature",
            "geometry": {
                "type": "Point",
                "coordinates": [
                    18.412014,
                    45.3125646
                ]
            },
            "properties": {
                "name": "Passage"
            }
        },
        {
            "type": "Feature",
            "geometry": {
                "type": "Point",
                "coordinates": [
                    18.4118218,
                    45.3123822
                ]
            },
            "properties": {
                "name": "Godot"
            }
        },
        {
            "type": "Feature",
            "geometry": {
                "type": "Point",
                "coordinates": [
                    18.411736,
                    45.3122766
                ]
            },
            "properties": {
                "name": "fess caffe"
            }
        },
        {
            "type": "Feature",
            "geometry": {
                "type": "Point",
                "coordinates": [
                    18.4106244,
                    45.3089491
                ]
            },
            "properties": {
                "name": "Enigma"
            }
        },
        {
            "type": "Feature",
            "geometry": {
                "type": "Point",
                "coordinates": [
                    18.4112253,
                    45.3086527
                ]
            },
            "properties": {
                "name": "London bar"
            }
        },
        {
            "type": "Feature",
            "geometry": {
                "type": "Point",
                "coordinates": [
                    18.4111655,
                    45.3087091
                ]
            },
            "properties": {
                "name": "Stella"
            }
        },
        {
            "type": "Feature",
            "geometry": {
                "type": "Point",
                "coordinates": [
                    18.4114839,
                    45.3084169
                ]
            },
            "properties": {
                "name": "Click"
            }
        },
        {
            "type": "Feature",
            "geometry": {
                "type": "Point",
                "coordinates": [
                    18.4121693,
                    45.3127303
                ]
            },
            "properties": {
                "name": "Cape Town"
            }
        },
        {
            "type": "Feature",
            "geometry": {
                "type": "Point",
                "coordinates": [
                    15.9655804,
                    45.6115344
                ]
            },
            "properties": {
                "name": "Pod Trsom"
            }
        },
        {
            "type": "Feature",
            "geometry": {
                "type": "Point",
                "coordinates": [
                    15.9325533,
                    45.7804103
                ]
            },
            "properties": {
                "name": "Delice"
            }
        },
        {
            "type": "Feature",
            "geometry": {
                "type": "Point",
                "coordinates": [
                    14.8846097,
                    44.5545279
                ]
            },
            "properties": {
                "name": "Cocomo"
            }
        },
        {
            "type": "Feature",
            "geometry": {
                "type": "Point",
                "coordinates": [
                    15.5513886,
                    45.4942963
                ]
            },
            "properties": {
                "name": "Antonio"
            }
        },
        {
            "type": "Feature",
            "geometry": {
                "type": "Point",
                "coordinates": [
                    15.0942417,
                    44.2983733
                ]
            },
            "properties": {
                "name": "Skiper"
            }
        },
        {
            "type": "Feature",
            "geometry": {
                "type": "Point",
                "coordinates": [
                    14.2775058,
                    45.291041
                ]
            },
            "properties": {
                "name": "Ana"
            }
        },
        {
            "type": "Feature",
            "geometry": {
                "type": "Point",
                "coordinates": [
                    18.1088431,
                    42.6389904
                ]
            },
            "properties": {
                "name": "Bar Cold drinks Bu\u017ea"
            }
        },
        {
            "type": "Feature",
            "geometry": {
                "type": "Point",
                "coordinates": [
                    18.10853,
                    42.641597
                ]
            },
            "properties": {
                "name": "D'vino Wine Bar"
            }
        },
        {
            "type": "Feature",
            "geometry": {
                "type": "Point",
                "coordinates": [
                    13.9292915,
                    44.8107133
                ]
            }
        },
        {
            "type": "Feature",
            "geometry": {
                "type": "Point",
                "coordinates": [
                    13.9318227,
                    44.8139408
                ]
            }
        },
        {
            "type": "Feature",
            "geometry": {
                "type": "Point",
                "coordinates": [
                    13.9368228,
                    44.8193163
                ]
            }
        },
        {
            "type": "Feature",
            "geometry": {
                "type": "Point",
                "coordinates": [
                    13.9346231,
                    44.8174412
                ]
            }
        },
        {
            "type": "Feature",
            "geometry": {
                "type": "Point",
                "coordinates": [
                    13.9362844,
                    44.8160923
                ]
            }
        },
        {
            "type": "Feature",
            "geometry": {
                "type": "Point",
                "coordinates": [
                    13.9357657,
                    44.8163484
                ]
            }
        },
        {
            "type": "Feature",
            "geometry": {
                "type": "Point",
                "coordinates": [
                    13.9379734,
                    44.8122498
                ]
            }
        },
        {
            "type": "Feature",
            "geometry": {
                "type": "Point",
                "coordinates": [
                    13.9364775,
                    44.8159973
                ]
            }
        },
        {
            "type": "Feature",
            "geometry": {
                "type": "Point",
                "coordinates": [
                    13.9113326,
                    44.8005825
                ]
            },
            "properties": {
                "name": "Surf bar"
            }
        },
        {
            "type": "Feature",
            "geometry": {
                "type": "Point",
                "coordinates": [
                    17.1731785,
                    42.924753
                ]
            },
            "properties": {
                "name": "Prvi \u017dal"
            }
        },
        {
            "type": "Feature",
            "geometry": {
                "type": "Point",
                "coordinates": [
                    15.9852372,
                    45.8001924
                ]
            },
            "properties": {
                "name": "\u0160ika"
            }
        },
        {
            "type": "Feature",
            "geometry": {
                "type": "Point",
                "coordinates": [
                    15.9481441,
                    45.7837034
                ]
            },
            "properties": {
                "name": "Akademija"
            }
        },
        {
            "type": "Feature",
            "geometry": {
                "type": "Point",
                "coordinates": [
                    15.9535448,
                    45.7965265
                ]
            },
            "properties": {
                "name": "Barcelona"
            }
        },
        {
            "type": "Feature",
            "geometry": {
                "type": "Point",
                "coordinates": [
                    15.9693935,
                    45.8155122
                ]
            },
            "properties": {
                "name": "Hemingway"
            }
        },
        {
            "type": "Feature",
            "geometry": {
                "type": "Point",
                "coordinates": [
                    15.9778603,
                    45.8064042
                ]
            },
            "properties": {
                "name": "Bacchus jazz bar"
            }
        },
        {
            "type": "Feature",
            "geometry": {
                "type": "Point",
                "coordinates": [
                    18.0149652,
                    45.1533807
                ]
            },
            "properties": {
                "name": "No\u0107ni klub Navalis"
            }
        },
        {
            "type": "Feature",
            "geometry": {
                "type": "Point",
                "coordinates": [
                    17.7598181,
                    45.3563793
                ]
            },
            "properties": {
                "name": "Caffe bar \"\u0160korpion\""
            }
        },
        {
            "type": "Feature",
            "geometry": {
                "type": "Point",
                "coordinates": [
                    17.7624527,
                    45.3556927
                ]
            },
            "properties": {
                "name": "Caffe bar \"Ivana\""
            }
        },
        {
            "type": "Feature",
            "geometry": {
                "type": "Point",
                "coordinates": [
                    17.3867548,
                    45.831194
                ]
            },
            "properties": {
                "name": "Bolero"
            }
        },
        {
            "type": "Feature",
            "geometry": {
                "type": "Point",
                "coordinates": [
                    17.3839956,
                    45.82953
                ]
            },
            "properties": {
                "name": "Caffe bar \u0160tedna"
            }
        },
        {
            "type": "Feature",
            "geometry": {
                "type": "Point",
                "coordinates": [
                    17.383458,
                    45.8301881
                ]
            },
            "properties": {
                "name": "Macando"
            }
        },
        {
            "type": "Feature",
            "geometry": {
                "type": "Point",
                "coordinates": [
                    17.3863068,
                    45.830287
                ]
            },
            "properties": {
                "name": "Kod Bernija"
            }
        },
        {
            "type": "Feature",
            "geometry": {
                "type": "Point",
                "coordinates": [
                    17.3862934,
                    45.8306776
                ]
            },
            "properties": {
                "name": "Caffe bar Lav"
            }
        },
        {
            "type": "Feature",
            "geometry": {
                "type": "Point",
                "coordinates": [
                    16.5721821,
                    46.1480483
                ]
            },
            "properties": {
                "name": "Grbolja"
            }
        },
        {
            "type": "Feature",
            "geometry": {
                "type": "Point",
                "coordinates": [
                    16.4424179,
                    46.3902838
                ]
            },
            "properties": {
                "name": "Zvonimir"
            }
        },
        {
            "type": "Feature",
            "geometry": {
                "type": "Point",
                "coordinates": [
                    16.2349895,
                    45.8058426
                ]
            },
            "properties": {
                "name": "Bravo"
            }
        },
        {
            "type": "Feature",
            "geometry": {
                "type": "Point",
                "coordinates": [
                    16.2201137,
                    46.2594601
                ]
            },
            "properties": {
                "name": "Cafe bar Kol"
            }
        },
        {
            "type": "Feature",
            "geometry": {
                "type": "Point",
                "coordinates": [
                    13.7427233,
                    45.1759517
                ]
            },
            "properties": {
                "name": "morositas"
            }
        },
        {
            "type": "Feature",
            "geometry": {
                "type": "Point",
                "coordinates": [
                    14.4665857,
                    45.3892284
                ]
            },
            "properties": {
                "name": "Max"
            }
        },
        {
            "type": "Feature",
            "geometry": {
                "type": "Point",
                "coordinates": [
                    17.3861109,
                    45.827177
                ]
            },
            "properties": {
                "name": "Caffe Bar Alfa 9"
            }
        },
        {
            "type": "Feature",
            "geometry": {
                "type": "Point",
                "coordinates": [
                    15.6951484,
                    45.3249396
                ]
            },
            "properties": {
                "name": "Cafe bar Gold"
            }
        },
        {
            "type": "Feature",
            "geometry": {
                "type": "Point",
                "coordinates": [
                    15.6933036,
                    45.3280479
                ]
            },
            "properties": {
                "name": "Cafe bar Mamba"
            }
        },
        {
            "type": "Feature",
            "geometry": {
                "type": "Point",
                "coordinates": [
                    16.0703861,
                    45.7102129
                ]
            },
            "properties": {
                "name": "Cveja"
            }
        },
        {
            "type": "Feature",
            "geometry": {
                "type": "Point",
                "coordinates": [
                    16.06693,
                    45.7123122
                ]
            },
            "properties": {
                "name": "Barbara"
            }
        },
        {
            "type": "Feature",
            "geometry": {
                "type": "Point",
                "coordinates": [
                    16.0674196,
                    45.712133
                ]
            },
            "properties": {
                "name": "Jaguar"
            }
        },
        {
            "type": "Feature",
            "geometry": {
                "type": "Point",
                "coordinates": [
                    16.7924649,
                    42.9397305
                ]
            },
            "properties": {
                "name": "Coloseum"
            }
        },
        {
            "type": "Feature",
            "geometry": {
                "type": "Point",
                "coordinates": [
                    18.422121,
                    45.6591734
                ]
            },
            "properties": {
                "name": "Vitez"
            }
        },
        {
            "type": "Feature",
            "geometry": {
                "type": "Point",
                "coordinates": [
                    15.9351674,
                    45.7809881
                ]
            },
            "properties": {
                "name": "Pataya bar"
            }
        },
        {
            "type": "Feature",
            "geometry": {
                "type": "Point",
                "coordinates": [
                    16.6567388,
                    43.261587
                ]
            },
            "properties": {
                "name": "Belvedere"
            }
        },
        {
            "type": "Feature",
            "geometry": {
                "type": "Point",
                "coordinates": [
                    16.6556799,
                    43.2613565
                ]
            },
            "properties": {
                "name": "Taverna Riva"
            }
        },
        {
            "type": "Feature",
            "geometry": {
                "type": "Point",
                "coordinates": [
                    16.6610966,
                    43.2620588
                ]
            },
            "properties": {
                "name": "Kala"
            }
        },
        {
            "type": "Feature",
            "geometry": {
                "type": "Point",
                "coordinates": [
                    16.6407137,
                    43.2599391
                ]
            },
            "properties": {
                "name": "Poto\u010dine"
            }
        },
        {
            "type": "Feature",
            "geometry": {
                "type": "Point",
                "coordinates": [
                    16.6342576,
                    43.2574603
                ]
            },
            "properties": {
                "name": "Zlatni Rat"
            }
        },
        {
            "type": "Feature",
            "geometry": {
                "type": "Point",
                "coordinates": [
                    16.6430499,
                    43.2595113
                ]
            },
            "properties": {
                "name": "Bolero"
            }
        },
        {
            "type": "Feature",
            "geometry": {
                "type": "Point",
                "coordinates": [
                    14.2888035,
                    45.3144193
                ]
            },
            "properties": {
                "name": "Sunce"
            }
        },
        {
            "type": "Feature",
            "geometry": {
                "type": "Point",
                "coordinates": [
                    14.3021226,
                    45.3300598
                ]
            },
            "properties": {
                "name": "Victorious"
            }
        },
        {
            "type": "Feature",
            "geometry": {
                "type": "Point",
                "coordinates": [
                    14.3021991,
                    45.3302921
                ]
            },
            "properties": {
                "name": "Colosseum"
            }
        },
        {
            "type": "Feature",
            "geometry": {
                "type": "Point",
                "coordinates": [
                    14.3100175,
                    45.3346893
                ]
            },
            "properties": {
                "name": "Lido Bevanda Beach Club & Resort"
            }
        },
        {
            "type": "Feature",
            "geometry": {
                "type": "Point",
                "coordinates": [
                    16.9676786,
                    45.3459955
                ]
            },
            "properties": {
                "name": "Outpost"
            }
        },
        {
            "type": "Feature",
            "geometry": {
                "type": "Point",
                "coordinates": [
                    16.9737297,
                    45.3451454
                ]
            },
            "properties": {
                "name": "Ferrari"
            }
        },
        {
            "type": "Feature",
            "geometry": {
                "type": "Point",
                "coordinates": [
                    14.3079677,
                    45.3372562
                ]
            },
            "properties": {
                "name": "Monokini"
            }
        },
        {
            "type": "Feature",
            "geometry": {
                "type": "Point",
                "coordinates": [
                    16.0519464,
                    45.8315096
                ]
            },
            "properties": {
                "name": "Caffe bar \"Agram\""
            }
        },
        {
            "type": "Feature",
            "geometry": {
                "type": "Point",
                "coordinates": [
                    18.700444,
                    45.548367
                ]
            },
            "properties": {
                "name": "Club"
            }
        },
        {
            "type": "Feature",
            "geometry": {
                "type": "Point",
                "coordinates": [
                    18.6816406,
                    45.5548627
                ]
            },
            "properties": {
                "name": "\u017deljezni\u010dar"
            }
        },
        {
            "type": "Feature",
            "geometry": {
                "type": "Point",
                "coordinates": [
                    18.9518755,
                    45.3755501
                ]
            },
            "properties": {
                "name": "Display"
            }
        },
        {
            "type": "Feature",
            "geometry": {
                "type": "Point",
                "coordinates": [
                    18.9520097,
                    45.3758026
                ]
            },
            "properties": {
                "name": "Buldog"
            }
        },
        {
            "type": "Feature",
            "geometry": {
                "type": "Point",
                "coordinates": [
                    18.9572882,
                    45.3811043
                ]
            },
            "properties": {
                "name": "San"
            }
        },
        {
            "type": "Feature",
            "geometry": {
                "type": "Point",
                "coordinates": [
                    18.9573848,
                    45.3705419
                ]
            },
            "properties": {
                "name": "Piramida"
            }
        },
        {
            "type": "Feature",
            "geometry": {
                "type": "Point",
                "coordinates": [
                    18.9541311,
                    45.3723339
                ]
            },
            "properties": {
                "name": "Bamboo"
            }
        },
        {
            "type": "Feature",
            "geometry": {
                "type": "Point",
                "coordinates": [
                    18.9521921,
                    45.372511
                ]
            },
            "properties": {
                "name": "Living"
            }
        },
        {
            "type": "Feature",
            "geometry": {
                "type": "Point",
                "coordinates": [
                    16.0485784,
                    46.2070434
                ]
            },
            "properties": {
                "name": "Caffe bar \"Simply Red\""
            }
        },
        {
            "type": "Feature",
            "geometry": {
                "type": "Point",
                "coordinates": [
                    15.5071459,
                    43.9068597
                ]
            },
            "properties": {
                "name": "Gabre"
            }
        },
        {
            "type": "Feature",
            "geometry": {
                "type": "Point",
                "coordinates": [
                    13.577942,
                    45.2956322
                ]
            }
        },
        {
            "type": "Feature",
            "geometry": {
                "type": "Point",
                "coordinates": [
                    15.1649396,
                    44.2327215
                ]
            }
        },
        {
            "type": "Feature",
            "geometry": {
                "type": "Point",
                "coordinates": [
                    15.1653973,
                    44.2287747
                ]
            }
        },
        {
            "type": "Feature",
            "geometry": {
                "type": "Point",
                "coordinates": [
                    14.2775803,
                    45.2978572
                ]
            },
            "properties": {
                "name": "Kvarner"
            }
        },
        {
            "type": "Feature",
            "geometry": {
                "type": "Point",
                "coordinates": [
                    18.6655248,
                    45.4445662
                ]
            }
        },
        {
            "type": "Feature",
            "geometry": {
                "type": "Point",
                "coordinates": [
                    17.3842769,
                    45.8318462
                ]
            },
            "properties": {
                "name": "Caffe bar Park"
            }
        },
        {
            "type": "Feature",
            "geometry": {
                "type": "Point",
                "coordinates": [
                    17.3991793,
                    45.8255178
                ]
            },
            "properties": {
                "name": "Caffe Bar Play Back"
            }
        },
        {
            "type": "Feature",
            "geometry": {
                "type": "Point",
                "coordinates": [
                    17.3513287,
                    45.8265683
                ]
            },
            "properties": {
                "name": "Caffe Bar Best"
            }
        },
        {
            "type": "Feature",
            "geometry": {
                "type": "Point",
                "coordinates": [
                    17.3907545,
                    45.8093049
                ]
            },
            "properties": {
                "name": "Phoenix"
            }
        },
        {
            "type": "Feature",
            "geometry": {
                "type": "Point",
                "coordinates": [
                    17.4940383,
                    45.8015884
                ]
            },
            "properties": {
                "name": "Crveni Koralji"
            }
        },
        {
            "type": "Feature",
            "geometry": {
                "type": "Point",
                "coordinates": [
                    17.4965116,
                    45.8008814
                ]
            },
            "properties": {
                "name": "Dom"
            }
        },
        {
            "type": "Feature",
            "geometry": {
                "type": "Point",
                "coordinates": [
                    17.4974501,
                    45.7985067
                ]
            },
            "properties": {
                "name": "Park Caffe"
            }
        },
        {
            "type": "Feature",
            "geometry": {
                "type": "Point",
                "coordinates": [
                    17.7461609,
                    45.8014799
                ]
            },
            "properties": {
                "name": "Luka"
            }
        },
        {
            "type": "Feature",
            "geometry": {
                "type": "Point",
                "coordinates": [
                    17.9789602,
                    45.7833652
                ]
            },
            "properties": {
                "name": "Pan"
            }
        },
        {
            "type": "Feature",
            "geometry": {
                "type": "Point",
                "coordinates": [
                    17.968226,
                    45.7505039
                ]
            },
            "properties": {
                "name": "Kod Brajne"
            }
        },
        {
            "type": "Feature",
            "geometry": {
                "type": "Point",
                "coordinates": [
                    17.1777462,
                    42.9197437
                ]
            },
            "properties": {
                "name": "Vinary & Degustation Cebalo"
            }
        },
        {
            "type": "Feature",
            "geometry": {
                "type": "Point",
                "coordinates": [
                    17.1775311,
                    42.9197467
                ]
            },
            "properties": {
                "name": "Vinary & Degustation Popic"
            }
        },
        {
            "type": "Feature",
            "geometry": {
                "type": "Point",
                "coordinates": [
                    18.031895,
                    45.5883398
                ]
            },
            "properties": {
                "name": "Sokadija"
            }
        },
        {
            "type": "Feature",
            "geometry": {
                "type": "Point",
                "coordinates": [
                    18.6872646,
                    45.6349553
                ]
            },
            "properties": {
                "name": "Havana"
            }
        },
        {
            "type": "Feature",
            "geometry": {
                "type": "Point",
                "coordinates": [
                    18.6642192,
                    45.6600942
                ]
            },
            "properties": {
                "name": "Tango"
            }
        },
        {
            "type": "Feature",
            "geometry": {
                "type": "Point",
                "coordinates": [
                    18.5881706,
                    45.7014368
                ]
            },
            "properties": {
                "name": "Jagoda"
            }
        },
        {
            "type": "Feature",
            "geometry": {
                "type": "Point",
                "coordinates": [
                    18.5989692,
                    45.7002157
                ]
            },
            "properties": {
                "name": "Monaco"
            }
        },
        {
            "type": "Feature",
            "geometry": {
                "type": "Point",
                "coordinates": [
                    18.6734914,
                    45.5207598
                ]
            },
            "properties": {
                "name": "Twins"
            }
        },
        {
            "type": "Feature",
            "geometry": {
                "type": "Point",
                "coordinates": [
                    18.6875679,
                    45.6222438
                ]
            },
            "properties": {
                "name": "Papagaj"
            }
        },
        {
            "type": "Feature",
            "geometry": {
                "type": "Point",
                "coordinates": [
                    17.386306,
                    45.8301928
                ]
            },
            "properties": {
                "name": "Caffe Bar Palace"
            }
        },
        {
            "type": "Feature",
            "geometry": {
                "type": "Point",
                "coordinates": [
                    17.3862644,
                    45.8304826
                ]
            },
            "properties": {
                "name": "Caffe bar Galeb"
            }
        },
        {
            "type": "Feature",
            "geometry": {
                "type": "Point",
                "coordinates": [
                    17.3867124,
                    45.8282864
                ]
            },
            "properties": {
                "name": "Campari"
            }
        },
        {
            "type": "Feature",
            "geometry": {
                "type": "Point",
                "coordinates": [
                    17.3985544,
                    45.8264867
                ]
            },
            "properties": {
                "name": "Kaos"
            }
        },
        {
            "type": "Feature",
            "geometry": {
                "type": "Point",
                "coordinates": [
                    17.3875737,
                    45.8355235
                ]
            },
            "properties": {
                "name": "Gumenjak"
            }
        },
        {
            "type": "Feature",
            "geometry": {
                "type": "Point",
                "coordinates": [
                    17.3865916,
                    45.8347659
                ]
            },
            "properties": {
                "name": "Galerija"
            }
        },
        {
            "type": "Feature",
            "geometry": {
                "type": "Point",
                "coordinates": [
                    17.3877883,
                    45.8352226
                ]
            },
            "properties": {
                "name": "Caffe Bar MFM"
            }
        },
        {
            "type": "Feature",
            "geometry": {
                "type": "Point",
                "coordinates": [
                    17.3838478,
                    45.830533
                ]
            },
            "properties": {
                "name": "Caffe Bar Orion"
            }
        },
        {
            "type": "Feature",
            "geometry": {
                "type": "Point",
                "coordinates": [
                    17.3820695,
                    45.8347025
                ]
            },
            "properties": {
                "name": "Caffe Bar Vis"
            }
        },
        {
            "type": "Feature",
            "geometry": {
                "type": "Point",
                "coordinates": [
                    17.3822734,
                    45.8335325
                ]
            },
            "properties": {
                "name": "Paradiso"
            }
        },
        {
            "type": "Feature",
            "geometry": {
                "type": "Point",
                "coordinates": [
                    17.3858969,
                    45.8356069
                ]
            },
            "properties": {
                "name": "Caffe Bar Melon"
            }
        },
        {
            "type": "Feature",
            "geometry": {
                "type": "Point",
                "coordinates": [
                    17.3886008,
                    45.8352724
                ]
            },
            "properties": {
                "name": "Medena"
            }
        },
        {
            "type": "Feature",
            "geometry": {
                "type": "Point",
                "coordinates": [
                    16.5232897,
                    43.5012942
                ]
            },
            "properties": {
                "name": "Cafe bar Lido"
            }
        },
        {
            "type": "Feature",
            "geometry": {
                "type": "Point",
                "coordinates": [
                    16.5223832,
                    43.5008467
                ]
            },
            "properties": {
                "name": "Cafe bar Stella"
            }
        },
        {
            "type": "Feature",
            "geometry": {
                "type": "Point",
                "coordinates": [
                    16.5234748,
                    43.5014285
                ]
            },
            "properties": {
                "name": "Cafe Bar Toni"
            }
        },
        {
            "type": "Feature",
            "geometry": {
                "type": "Point",
                "coordinates": [
                    16.5223627,
                    43.5006976
                ]
            },
            "properties": {
                "name": "Cafe bar Orbis"
            }
        },
        {
            "type": "Feature",
            "geometry": {
                "type": "Point",
                "coordinates": [
                    16.5194892,
                    43.5001379
                ]
            },
            "properties": {
                "name": "Cafe Bar 11 Bili"
            }
        },
        {
            "type": "Feature",
            "geometry": {
                "type": "Point",
                "coordinates": [
                    16.5207687,
                    43.4995133
                ]
            },
            "properties": {
                "name": "Cafe Bar More"
            }
        },
        {
            "type": "Feature",
            "geometry": {
                "type": "Point",
                "coordinates": [
                    16.524116,
                    43.5018205
                ]
            },
            "properties": {
                "name": "Cafe Bar Tuning"
            }
        },
        {
            "type": "Feature",
            "geometry": {
                "type": "Point",
                "coordinates": [
                    17.3872464,
                    45.8352655
                ]
            },
            "properties": {
                "name": "Plavi Jadran"
            }
        },
        {
            "type": "Feature",
            "geometry": {
                "type": "Point",
                "coordinates": [
                    15.9235995,
                    43.5873135
                ]
            }
        },
        {
            "type": "Feature",
            "geometry": {
                "type": "Point",
                "coordinates": [
                    15.795191,
                    45.8701314
                ]
            },
            "properties": {
                "name": "Prestige"
            }
        },
        {
            "type": "Feature",
            "geometry": {
                "type": "Point",
                "coordinates": [
                    16.2242589,
                    45.5697922
                ]
            },
            "properties": {
                "name": "Domingo"
            }
        },
        {
            "type": "Feature",
            "geometry": {
                "type": "Point",
                "coordinates": [
                    16.546321,
                    46.0263232
                ]
            },
            "properties": {
                "name": "Queen's"
            }
        },
        {
            "type": "Feature",
            "geometry": {
                "type": "Point",
                "coordinates": [
                    15.1050999,
                    44.1297894
                ]
            },
            "properties": {
                "name": "Azur"
            }
        },
        {
            "type": "Feature",
            "geometry": {
                "type": "Point",
                "coordinates": [
                    15.1049529,
                    44.1299193
                ]
            },
            "properties": {
                "name": "Jazine"
            }
        },
        {
            "type": "Feature",
            "geometry": {
                "type": "Point",
                "coordinates": [
                    15.4191809,
                    43.9215562
                ]
            },
            "properties": {
                "name": "Zdravljak Tkon"
            }
        },
        {
            "type": "Feature",
            "geometry": {
                "type": "Point",
                "coordinates": [
                    15.2052769,
                    44.0643981
                ]
            },
            "properties": {
                "name": "buffet Trata"
            }
        },
        {
            "type": "Feature",
            "geometry": {
                "type": "Point",
                "coordinates": [
                    15.2461959,
                    44.0332202
                ]
            },
            "properties": {
                "name": "JVE"
            }
        },
        {
            "type": "Feature",
            "geometry": {
                "type": "Point",
                "coordinates": [
                    13.8303084,
                    44.8544441
                ]
            }
        },
        {
            "type": "Feature",
            "geometry": {
                "type": "Point",
                "coordinates": [
                    15.4890919,
                    43.9149908
                ]
            },
            "properties": {
                "name": "Mogambo"
            }
        },
        {
            "type": "Feature",
            "geometry": {
                "type": "Point",
                "coordinates": [
                    15.5009035,
                    43.9076878
                ]
            },
            "properties": {
                "name": "Bla\u017e"
            }
        },
        {
            "type": "Feature",
            "geometry": {
                "type": "Point",
                "coordinates": [
                    15.5071843,
                    43.9067856
                ]
            },
            "properties": {
                "name": "Chico"
            }
        },
        {
            "type": "Feature",
            "geometry": {
                "type": "Point",
                "coordinates": [
                    15.510807,
                    43.905932
                ]
            },
            "properties": {
                "name": "Grafulin"
            }
        },
        {
            "type": "Feature",
            "geometry": {
                "type": "Point",
                "coordinates": [
                    17.1883774,
                    43.1247299
                ]
            }
        },
        {
            "type": "Feature",
            "geometry": {
                "type": "Point",
                "coordinates": [
                    16.0689171,
                    45.7069187
                ]
            },
            "properties": {
                "name": "Crni grozd"
            }
        },
        {
            "type": "Feature",
            "geometry": {
                "type": "Point",
                "coordinates": [
                    16.6701976,
                    43.1816012
                ]
            },
            "properties": {
                "name": "Dalmatino"
            }
        },
        {
            "type": "Feature",
            "geometry": {
                "type": "Point",
                "coordinates": [
                    16.6715112,
                    43.1814023
                ]
            },
            "properties": {
                "name": "Gaetano"
            }
        },
        {
            "type": "Feature",
            "geometry": {
                "type": "Point",
                "coordinates": [
                    16.6728498,
                    43.1807992
                ]
            },
            "properties": {
                "name": "Gira"
            }
        },
        {
            "type": "Feature",
            "geometry": {
                "type": "Point",
                "coordinates": [
                    16.6723319,
                    43.1813221
                ]
            },
            "properties": {
                "name": "Nono Toni"
            }
        },
        {
            "type": "Feature",
            "geometry": {
                "type": "Point",
                "coordinates": [
                    16.6706431,
                    43.1813796
                ]
            },
            "properties": {
                "name": "Paparazzi"
            }
        },
        {
            "type": "Feature",
            "geometry": {
                "type": "Point",
                "coordinates": [
                    16.6713747,
                    43.1811951
                ]
            },
            "properties": {
                "name": "Riva"
            }
        },
        {
            "type": "Feature",
            "geometry": {
                "type": "Point",
                "coordinates": [
                    16.4503312,
                    43.5086977
                ]
            },
            "properties": {
                "name": "Adventure bar"
            }
        },
        {
            "type": "Feature",
            "geometry": {
                "type": "Point",
                "coordinates": [
                    16.4386263,
                    43.5090904
                ]
            },
            "properties": {
                "name": "Vivas Bar"
            }
        },
        {
            "type": "Feature",
            "geometry": {
                "type": "Point",
                "coordinates": [
                    17.0203584,
                    43.2929956
                ]
            },
            "properties": {
                "name": "Notturno"
            }
        },
        {
            "type": "Feature",
            "geometry": {
                "type": "Point",
                "coordinates": [
                    17.020496,
                    43.293012
                ]
            },
            "properties": {
                "name": "Medin"
            }
        },
        {
            "type": "Feature",
            "geometry": {
                "type": "Point",
                "coordinates": [
                    17.020435,
                    43.292857
                ]
            },
            "properties": {
                "name": "Bebi\u0107"
            }
        },
        {
            "type": "Feature",
            "geometry": {
                "type": "Point",
                "coordinates": [
                    17.020345,
                    43.292825
                ]
            },
            "properties": {
                "name": "Funky Bar"
            }
        },
        {
            "type": "Feature",
            "geometry": {
                "type": "Point",
                "coordinates": [
                    17.020464,
                    43.292646
                ]
            },
            "properties": {
                "name": "Marineta"
            }
        },
        {
            "type": "Feature",
            "geometry": {
                "type": "Point",
                "coordinates": [
                    17.020576,
                    43.292236
                ]
            },
            "properties": {
                "name": "Chivas"
            }
        },
        {
            "type": "Feature",
            "geometry": {
                "type": "Point",
                "coordinates": [
                    17.0196248,
                    43.294147
                ]
            },
            "properties": {
                "name": "Skala"
            }
        },
        {
            "type": "Feature",
            "geometry": {
                "type": "Point",
                "coordinates": [
                    17.0193,
                    43.2944311
                ]
            },
            "properties": {
                "name": "Kostela"
            }
        },
        {
            "type": "Feature",
            "geometry": {
                "type": "Point",
                "coordinates": [
                    17.0194026,
                    43.2947528
                ]
            }
        },
        {
            "type": "Feature",
            "geometry": {
                "type": "Point",
                "coordinates": [
                    17.02147,
                    43.294385
                ]
            },
            "properties": {
                "name": "Tin"
            }
        },
        {
            "type": "Feature",
            "geometry": {
                "type": "Point",
                "coordinates": [
                    17.0200171,
                    43.2936734
                ]
            }
        },
        {
            "type": "Feature",
            "geometry": {
                "type": "Point",
                "coordinates": [
                    17.0211175,
                    43.2943166
                ]
            }
        },
        {
            "type": "Feature",
            "geometry": {
                "type": "Point",
                "coordinates": [
                    17.020113,
                    43.2942999
                ]
            },
            "properties": {
                "name": "Bri\u0161kula"
            }
        },
        {
            "type": "Feature",
            "geometry": {
                "type": "Point",
                "coordinates": [
                    13.9390722,
                    45.2399959
                ]
            }
        },
        {
            "type": "Feature",
            "geometry": {
                "type": "Point",
                "coordinates": [
                    13.9375626,
                    45.2398412
                ]
            },
            "properties": {
                "name": "Gradska kavana"
            }
        },
        {
            "type": "Feature",
            "geometry": {
                "type": "Point",
                "coordinates": [
                    15.1831021,
                    44.0846791
                ]
            },
            "properties": {
                "name": "Pavi Jadran 2"
            }
        },
        {
            "type": "Feature",
            "geometry": {
                "type": "Point",
                "coordinates": [
                    16.4551868,
                    43.5099827
                ]
            },
            "properties": {
                "name": "Carver"
            }
        },
        {
            "type": "Feature",
            "geometry": {
                "type": "Point",
                "coordinates": [
                    15.1865205,
                    44.0839925
                ]
            },
            "properties": {
                "name": "Mareta"
            }
        },
        {
            "type": "Feature",
            "geometry": {
                "type": "Point",
                "coordinates": [
                    16.4603306,
                    43.387543
                ]
            },
            "properties": {
                "name": "Modrulj"
            }
        },
        {
            "type": "Feature",
            "geometry": {
                "type": "Point",
                "coordinates": [
                    13.5426693,
                    45.3443138
                ]
            },
            "properties": {
                "name": "Beach Club Macumba"
            }
        },
        {
            "type": "Feature",
            "geometry": {
                "type": "Point",
                "coordinates": [
                    15.2810312,
                    44.0672505
                ]
            }
        },
        {
            "type": "Feature",
            "geometry": {
                "type": "Point",
                "coordinates": [
                    16.0718681,
                    45.7162098
                ]
            },
            "properties": {
                "name": "Music hall"
            }
        },
        {
            "type": "Feature",
            "geometry": {
                "type": "Point",
                "coordinates": [
                    13.719427,
                    45.2142393
                ]
            },
            "properties": {
                "name": "Two Sisters"
            }
        },
        {
            "type": "Feature",
            "geometry": {
                "type": "Point",
                "coordinates": [
                    13.6380812,
                    45.0813792
                ]
            },
            "properties": {
                "name": "Art Public Bar"
            }
        },
        {
            "type": "Feature",
            "geometry": {
                "type": "Point",
                "coordinates": [
                    13.9180953,
                    44.7713155
                ]
            },
            "properties": {
                "name": "Beach Bar Debeljak"
            }
        },
        {
            "type": "Feature",
            "geometry": {
                "type": "Point",
                "coordinates": [
                    14.7467185,
                    44.9713132
                ]
            }
        },
        {
            "type": "Feature",
            "geometry": {
                "type": "Point",
                "coordinates": [
                    14.7712864,
                    44.9686983
                ]
            },
            "properties": {
                "name": "Boneta"
            }
        },
        {
            "type": "Feature",
            "geometry": {
                "type": "Point",
                "coordinates": [
                    16.5858123,
                    43.183783
                ]
            }
        },
        {
            "type": "Feature",
            "geometry": {
                "type": "Point",
                "coordinates": [
                    17.0499818,
                    43.2717917
                ]
            }
        },
        {
            "type": "Feature",
            "geometry": {
                "type": "Point",
                "coordinates": [
                    15.6774591,
                    46.0748602
                ]
            }
        },
        {
            "type": "Feature",
            "geometry": {
                "type": "Point",
                "coordinates": [
                    15.7019091,
                    45.326233
                ]
            },
            "properties": {
                "name": "Heart"
            }
        },
        {
            "type": "Feature",
            "geometry": {
                "type": "Point",
                "coordinates": [
                    16.8294276,
                    46.1630784
                ]
            },
            "properties": {
                "name": "cART"
            }
        },
        {
            "type": "Feature",
            "geometry": {
                "type": "Point",
                "coordinates": [
                    16.4662743,
                    43.5194271
                ]
            },
            "properties": {
                "name": "Clo bar"
            }
        },
        {
            "type": "Feature",
            "geometry": {
                "type": "Point",
                "coordinates": [
                    15.6334284,
                    43.8102674
                ]
            }
        },
        {
            "type": "Feature",
            "geometry": {
                "type": "Point",
                "coordinates": [
                    15.1450687,
                    44.1931568
                ]
            },
            "properties": {
                "name": "Beachbar Bracera"
            }
        },
        {
            "type": "Feature",
            "geometry": {
                "type": "Point",
                "coordinates": [
                    15.8880568,
                    43.7369604
                ]
            },
            "properties": {
                "name": "Dolac"
            }
        },
        {
            "type": "Feature",
            "geometry": {
                "type": "Point",
                "coordinates": [
                    15.8878514,
                    43.7371995
                ]
            },
            "properties": {
                "name": "Domald"
            }
        },
        {
            "type": "Feature",
            "geometry": {
                "type": "Point",
                "coordinates": [
                    15.8878138,
                    43.7377623
                ]
            },
            "properties": {
                "name": "Domino"
            }
        },
        {
            "type": "Feature",
            "geometry": {
                "type": "Point",
                "coordinates": [
                    15.8878289,
                    43.7374414
                ]
            },
            "properties": {
                "name": "Downtown"
            }
        },
        {
            "type": "Feature",
            "geometry": {
                "type": "Point",
                "coordinates": [
                    15.8877789,
                    43.737677
                ]
            },
            "properties": {
                "name": "Point bar"
            }
        },
        {
            "type": "Feature",
            "geometry": {
                "type": "Point",
                "coordinates": [
                    15.8879585,
                    43.7379806
                ]
            },
            "properties": {
                "name": "Skipper"
            }
        },
        {
            "type": "Feature",
            "geometry": {
                "type": "Point",
                "coordinates": [
                    15.8880588,
                    43.7370467
                ]
            },
            "properties": {
                "name": "Trapula"
            }
        },
        {
            "type": "Feature",
            "geometry": {
                "type": "Point",
                "coordinates": [
                    15.9457948,
                    45.7834795
                ]
            },
            "properties": {
                "name": "In bar"
            }
        },
        {
            "type": "Feature",
            "geometry": {
                "type": "Point",
                "coordinates": [
                    15.9640889,
                    45.8028435
                ]
            },
            "properties": {
                "name": "Shamballa"
            }
        },
        {
            "type": "Feature",
            "geometry": {
                "type": "Point",
                "coordinates": [
                    15.9541224,
                    45.7853759
                ]
            }
        },
        {
            "type": "Feature",
            "geometry": {
                "type": "Point",
                "coordinates": [
                    16.0348186,
                    45.855283
                ]
            }
        },
        {
            "type": "Feature",
            "geometry": {
                "type": "Point",
                "coordinates": [
                    15.794593,
                    45.8704693
                ]
            }
        },
        {
            "type": "Feature",
            "geometry": {
                "type": "Point",
                "coordinates": [
                    15.7948798,
                    45.870443
                ]
            }
        },
        {
            "type": "Feature",
            "geometry": {
                "type": "Point",
                "coordinates": [
                    16.74608,
                    46.331988
                ]
            },
            "properties": {
                "name": "Caffe bar mango"
            }
        },
        {
            "type": "Feature",
            "geometry": {
                "type": "Point",
                "coordinates": [
                    16.7453799,
                    46.3319843
                ]
            },
            "properties": {
                "name": "Caffe Bar Kocka"
            }
        },
        {
            "type": "Feature",
            "geometry": {
                "type": "Point",
                "coordinates": [
                    16.7438028,
                    46.3293932
                ]
            },
            "properties": {
                "name": "Caffe Bar Swing"
            }
        },
        {
            "type": "Feature",
            "geometry": {
                "type": "Point",
                "coordinates": [
                    15.9351111,
                    45.800476
                ]
            },
            "properties": {
                "name": "Excelente bar"
            }
        },
        {
            "type": "Feature",
            "geometry": {
                "type": "Point",
                "coordinates": [
                    15.9360492,
                    45.7972315
                ]
            },
            "properties": {
                "name": "Albatros"
            }
        },
        {
            "type": "Feature",
            "geometry": {
                "type": "Point",
                "coordinates": [
                    15.9844877,
                    45.8158147
                ]
            },
            "properties": {
                "name": "Boing"
            }
        },
        {
            "type": "Feature",
            "geometry": {
                "type": "Point",
                "coordinates": [
                    15.9845175,
                    45.8097361
                ]
            },
            "properties": {
                "name": "Aquarius"
            }
        },
        {
            "type": "Feature",
            "geometry": {
                "type": "Point",
                "coordinates": [
                    16.5475126,
                    46.0221207
                ]
            },
            "properties": {
                "name": "Caffee Bar Planet"
            }
        },
        {
            "type": "Feature",
            "geometry": {
                "type": "Point",
                "coordinates": [
                    16.5477398,
                    46.0263455
                ]
            },
            "properties": {
                "name": "Cocktail bar Latino"
            }
        },
        {
            "type": "Feature",
            "geometry": {
                "type": "Point",
                "coordinates": [
                    16.4552847,
                    43.5100397
                ]
            },
            "properties": {
                "name": "Karoca"
            }
        },
        {
            "type": "Feature",
            "geometry": {
                "type": "Point",
                "coordinates": [
                    16.0083986,
                    45.8182398
                ]
            },
            "properties": {
                "name": "Bumbar"
            }
        },
        {
            "type": "Feature",
            "geometry": {
                "type": "Point",
                "coordinates": [
                    16.0059257,
                    45.8168674
                ]
            },
            "properties": {
                "name": "\u017dirafa"
            }
        },
        {
            "type": "Feature",
            "geometry": {
                "type": "Point",
                "coordinates": [
                    16.0026202,
                    45.7370143
                ]
            },
            "properties": {
                "name": "Galerija"
            }
        },
        {
            "type": "Feature",
            "geometry": {
                "type": "Point",
                "coordinates": [
                    17.3821068,
                    45.8317638
                ]
            },
            "properties": {
                "name": "Caffe bar Cappuccino"
            }
        },
        {
            "type": "Feature",
            "geometry": {
                "type": "Point",
                "coordinates": [
                    17.387723,
                    45.8319951
                ]
            },
            "properties": {
                "name": "Principessa"
            }
        },
        {
            "type": "Feature",
            "geometry": {
                "type": "Point",
                "coordinates": [
                    17.387689,
                    45.832982
                ]
            },
            "properties": {
                "name": "Caffe bar Duje"
            }
        },
        {
            "type": "Feature",
            "geometry": {
                "type": "Point",
                "coordinates": [
                    17.388406,
                    45.8326254
                ]
            },
            "properties": {
                "name": "Time"
            }
        },
        {
            "type": "Feature",
            "geometry": {
                "type": "Point",
                "coordinates": [
                    17.3886251,
                    45.8322886
                ]
            },
            "properties": {
                "name": "Music Club"
            }
        },
        {
            "type": "Feature",
            "geometry": {
                "type": "Point",
                "coordinates": [
                    17.389647,
                    45.8307992
                ]
            },
            "properties": {
                "name": "Boom"
            }
        },
        {
            "type": "Feature",
            "geometry": {
                "type": "Point",
                "coordinates": [
                    17.3872332,
                    45.8315145
                ]
            },
            "properties": {
                "name": "Mount Everest"
            }
        },
        {
            "type": "Feature",
            "geometry": {
                "type": "Point",
                "coordinates": [
                    17.3873617,
                    45.8356599
                ]
            },
            "properties": {
                "name": "Delfin"
            }
        },
        {
            "type": "Feature",
            "geometry": {
                "type": "Point",
                "coordinates": [
                    16.08984,
                    45.3385838
                ]
            },
            "properties": {
                "name": "Plavi 9"
            }
        },
        {
            "type": "Feature",
            "geometry": {
                "type": "Point",
                "coordinates": [
                    16.182695,
                    45.6744913
                ]
            }
        },
        {
            "type": "Feature",
            "geometry": {
                "type": "Point",
                "coordinates": [
                    18.7438418,
                    45.6041374
                ]
            },
            "properties": {
                "name": "Cafe Bar Centar"
            }
        },
        {
            "type": "Feature",
            "geometry": {
                "type": "Point",
                "coordinates": [
                    18.1210165,
                    42.6241884
                ]
            }
        },
        {
            "type": "Feature",
            "geometry": {
                "type": "Point",
                "coordinates": [
                    18.1111753,
                    42.6391513
                ]
            }
        },
        {
            "type": "Feature",
            "geometry": {
                "type": "Point",
                "coordinates": [
                    18.1120271,
                    42.6394375
                ]
            }
        },
        {
            "type": "Feature",
            "geometry": {
                "type": "Point",
                "coordinates": [
                    16.2470937,
                    45.964737
                ]
            }
        },
        {
            "type": "Feature",
            "geometry": {
                "type": "Point",
                "coordinates": [
                    16.669346,
                    43.4390406
                ]
            },
            "properties": {
                "name": "Shooko bar"
            }
        },
        {
            "type": "Feature",
            "geometry": {
                "type": "Point",
                "coordinates": [
                    16.4869012,
                    43.5330043
                ]
            },
            "properties": {
                "name": "kod Peri\u0107a"
            }
        },
        {
            "type": "Feature",
            "geometry": {
                "type": "Point",
                "coordinates": [
                    15.5497903,
                    45.4887931
                ]
            }
        },
        {
            "type": "Feature",
            "geometry": {
                "type": "Point",
                "coordinates": [
                    18.4108389,
                    45.3111122
                ]
            },
            "properties": {
                "name": "Galerija Raa"
            }
        },
        {
            "type": "Feature",
            "geometry": {
                "type": "Point",
                "coordinates": [
                    18.4136729,
                    45.3138946
                ]
            },
            "properties": {
                "name": "Yolo"
            }
        },
        {
            "type": "Feature",
            "geometry": {
                "type": "Point",
                "coordinates": [
                    18.4120452,
                    45.312154
                ]
            },
            "properties": {
                "name": "Zdenac"
            }
        },
        {
            "type": "Feature",
            "geometry": {
                "type": "Point",
                "coordinates": [
                    14.913874,
                    44.5393594
                ]
            },
            "properties": {
                "name": "Aquarius"
            }
        },
        {
            "type": "Feature",
            "geometry": {
                "type": "Point",
                "coordinates": [
                    16.4367485,
                    43.510145
                ]
            },
            "properties": {
                "name": "Tapas"
            }
        },
        {
            "type": "Feature",
            "geometry": {
                "type": "Point",
                "coordinates": [
                    16.5482675,
                    43.3851863
                ]
            },
            "properties": {
                "name": "Monaco"
            }
        },
        {
            "type": "Feature",
            "geometry": {
                "type": "Point",
                "coordinates": [
                    16.5484569,
                    43.3851733
                ]
            }
        },
        {
            "type": "Feature",
            "geometry": {
                "type": "Point",
                "coordinates": [
                    17.1363859,
                    42.9626309
                ]
            },
            "properties": {
                "name": "Massimo"
            }
        },
        {
            "type": "Feature",
            "geometry": {
                "type": "Point",
                "coordinates": [
                    16.0686325,
                    45.7160598
                ]
            },
            "properties": {
                "name": "Caba\u00f1a Bar"
            }
        },
        {
            "type": "Feature",
            "geometry": {
                "type": "Point",
                "coordinates": [
                    13.6308906,
                    45.0819915
                ]
            },
            "properties": {
                "name": "Valentino"
            }
        },
        {
            "type": "Feature",
            "geometry": {
                "type": "Point",
                "coordinates": [
                    14.6643395,
                    45.1054279
                ]
            }
        },
        {
            "type": "Feature",
            "geometry": {
                "type": "Point",
                "coordinates": [
                    14.6659381,
                    45.1054733
                ]
            }
        },
        {
            "type": "Feature",
            "geometry": {
                "type": "Point",
                "coordinates": [
                    16.4563992,
                    43.5060259
                ]
            },
            "properties": {
                "name": "Oscar"
            }
        },
        {
            "type": "Feature",
            "geometry": {
                "type": "Point",
                "coordinates": [
                    14.8967119,
                    44.5314362
                ]
            },
            "properties": {
                "name": "Je\u017e"
            }
        },
        {
            "type": "Feature",
            "geometry": {
                "type": "Point",
                "coordinates": [
                    18.0763993,
                    42.6554833
                ]
            }
        },
        {
            "type": "Feature",
            "geometry": {
                "type": "Point",
                "coordinates": [
                    18.0858064,
                    42.6604152
                ]
            },
            "properties": {
                "name": "Caffe Solska baza"
            }
        },
        {
            "type": "Feature",
            "geometry": {
                "type": "Point",
                "coordinates": [
                    18.0778218,
                    42.6571814
                ]
            },
            "properties": {
                "name": "Restaurant Bono"
            }
        },
        {
            "type": "Feature",
            "geometry": {
                "type": "Point",
                "coordinates": [
                    15.9914064,
                    45.7898722
                ]
            },
            "properties": {
                "name": "Ti i Ja"
            }
        },
        {
            "type": "Feature",
            "geometry": {
                "type": "Point",
                "coordinates": [
                    15.8956761,
                    45.804818
                ]
            },
            "properties": {
                "name": "Jet star"
            }
        },
        {
            "type": "Feature",
            "geometry": {
                "type": "Point",
                "coordinates": [
                    14.6122724,
                    45.2311762
                ]
            }
        },
        {
            "type": "Feature",
            "geometry": {
                "type": "Point",
                "coordinates": [
                    14.6109564,
                    45.2304901
                ]
            }
        },
        {
            "type": "Feature",
            "geometry": {
                "type": "Point",
                "coordinates": [
                    15.9798853,
                    45.7924586
                ]
            },
            "properties": {
                "name": "Caffe Bar Time"
            }
        },
        {
            "type": "Feature",
            "geometry": {
                "type": "Point",
                "coordinates": [
                    16.0417773,
                    45.8261228
                ]
            },
            "properties": {
                "name": "Bounty"
            }
        },
        {
            "type": "Feature",
            "geometry": {
                "type": "Point",
                "coordinates": [
                    16.0420813,
                    45.8260484
                ]
            },
            "properties": {
                "name": "Latino Bar"
            }
        },
        {
            "type": "Feature",
            "geometry": {
                "type": "Point",
                "coordinates": [
                    16.3433548,
                    46.3151069
                ]
            }
        },
        {
            "type": "Feature",
            "geometry": {
                "type": "Point",
                "coordinates": [
                    16.3404929,
                    46.3164704
                ]
            },
            "properties": {
                "name": "Sajmi\u0161te"
            }
        },
        {
            "type": "Feature",
            "geometry": {
                "type": "Point",
                "coordinates": [
                    16.3411213,
                    46.3066338
                ]
            },
            "properties": {
                "name": "Rock Art Caffe"
            }
        },
        {
            "type": "Feature",
            "geometry": {
                "type": "Point",
                "coordinates": [
                    15.9931501,
                    45.7656972
                ]
            },
            "properties": {
                "name": "Caffe Marche"
            }
        },
        {
            "type": "Feature",
            "geometry": {
                "type": "Point",
                "coordinates": [
                    15.9069772,
                    46.080104
                ]
            }
        },
        {
            "type": "Feature",
            "geometry": {
                "type": "Point",
                "coordinates": [
                    15.9050995,
                    46.0964661
                ]
            }
        },
        {
            "type": "Feature",
            "geometry": {
                "type": "Point",
                "coordinates": [
                    15.9064115,
                    46.0958786
                ]
            }
        },
        {
            "type": "Feature",
            "geometry": {
                "type": "Point",
                "coordinates": [
                    18.6070535,
                    45.7739015
                ]
            },
            "properties": {
                "name": "Amonsul"
            }
        },
        {
            "type": "Feature",
            "geometry": {
                "type": "Point",
                "coordinates": [
                    18.6079123,
                    45.7726785
                ]
            },
            "properties": {
                "name": "Rim"
            }
        },
        {
            "type": "Feature",
            "geometry": {
                "type": "Point",
                "coordinates": [
                    18.598747,
                    45.7701262
                ]
            },
            "properties": {
                "name": "Green pub"
            }
        },
        {
            "type": "Feature",
            "geometry": {
                "type": "Point",
                "coordinates": [
                    18.615365,
                    45.7670555
                ]
            }
        },
        {
            "type": "Feature",
            "geometry": {
                "type": "Point",
                "coordinates": [
                    18.6169317,
                    45.7666811
                ]
            }
        },
        {
            "type": "Feature",
            "geometry": {
                "type": "Point",
                "coordinates": [
                    16.8604814,
                    42.9063571
                ]
            },
            "properties": {
                "name": "Night club \"Ernest\""
            }
        },
        {
            "type": "Feature",
            "geometry": {
                "type": "Point",
                "coordinates": [
                    16.8595233,
                    42.9059633
                ]
            },
            "properties": {
                "name": "Night Bar \"\u0160\u0107eta\""
            }
        },
        {
            "type": "Feature",
            "geometry": {
                "type": "Point",
                "coordinates": [
                    16.8577262,
                    42.9086854
                ]
            }
        },
        {
            "type": "Feature",
            "geometry": {
                "type": "Point",
                "coordinates": [
                    16.9367565,
                    42.910929
                ]
            }
        },
        {
            "type": "Feature",
            "geometry": {
                "type": "Point",
                "coordinates": [
                    16.9345971,
                    42.9359661
                ]
            },
            "properties": {
                "name": "Caffe bar \"\u0106akula\""
            }
        },
        {
            "type": "Feature",
            "geometry": {
                "type": "Point",
                "coordinates": [
                    16.05238,
                    45.832599
                ]
            },
            "properties": {
                "name": "Caffe bar \"Je\u017e\""
            }
        },
        {
            "type": "Feature",
            "geometry": {
                "type": "Point",
                "coordinates": [
                    16.0502566,
                    45.8333245
                ]
            },
            "properties": {
                "name": "Caffe bar \"King\""
            }
        },
        {
            "type": "Feature",
            "geometry": {
                "type": "Point",
                "coordinates": [
                    15.9792281,
                    45.7767842
                ]
            },
            "properties": {
                "name": "Johan"
            }
        },
        {
            "type": "Feature",
            "geometry": {
                "type": "Point",
                "coordinates": [
                    16.0026394,
                    45.8024027
                ]
            },
            "properties": {
                "name": "Escalator bar"
            }
        },
        {
            "type": "Feature",
            "geometry": {
                "type": "Point",
                "coordinates": [
                    16.3919987,
                    46.1098517
                ]
            }
        },
        {
            "type": "Feature",
            "geometry": {
                "type": "Point",
                "coordinates": [
                    16.1915056,
                    44.0302419
                ]
            }
        },
        {
            "type": "Feature",
            "geometry": {
                "type": "Point",
                "coordinates": [
                    13.836971,
                    45.1173206
                ]
            },
            "properties": {
                "name": "Caffe bar \"Joy\""
            }
        },
        {
            "type": "Feature",
            "geometry": {
                "type": "Point",
                "coordinates": [
                    13.8381846,
                    45.1161266
                ]
            },
            "properties": {
                "name": "Caffe bar \"Masen\""
            }
        },
        {
            "type": "Feature",
            "geometry": {
                "type": "Point",
                "coordinates": [
                    16.4410953,
                    46.3901442
                ]
            },
            "properties": {
                "name": "Drink & Music Club Podroom"
            }
        },
        {
            "type": "Feature",
            "geometry": {
                "type": "Point",
                "coordinates": [
                    15.9644536,
                    45.7991418
                ]
            },
            "properties": {
                "name": "Cafe Bar Q"
            }
        },
        {
            "type": "Feature",
            "geometry": {
                "type": "Point",
                "coordinates": [
                    16.4760492,
                    45.989075
                ]
            },
            "properties": {
                "name": "Ben 2"
            }
        },
        {
            "type": "Feature",
            "geometry": {
                "type": "Point",
                "coordinates": [
                    13.6527277,
                    45.066159
                ]
            }
        },
        {
            "type": "Feature",
            "geometry": {
                "type": "Point",
                "coordinates": [
                    15.2327371,
                    44.1139192
                ]
            },
            "properties": {
                "name": "Maraschino bar"
            }
        },
        {
            "type": "Feature",
            "geometry": {
                "type": "Point",
                "coordinates": [
                    16.4132577,
                    43.1557345
                ]
            },
            "properties": {
                "name": "Beach Bar Mlini"
            }
        },
        {
            "type": "Feature",
            "geometry": {
                "type": "Point",
                "coordinates": [
                    16.4162296,
                    43.1570059
                ]
            },
            "properties": {
                "name": "Tri Grede"
            }
        },