{
    "type": "FeatureCollection",
    "features": [
        {
            "type": "Feature",
            "geometry": {
                "type": "Point",
                "coordinates": [
                    -18.0894604,
                    65.6813778
                ]
            },
            "properties": {
                "name": "Gr\u00e6ni hatturinn"
            }
        },
        {
            "type": "Feature",
            "geometry": {
                "type": "Point",
                "coordinates": [
                    -21.8150646,
                    64.1052642
                ]
            },
            "properties": {
                "name": "Caf\u00e9 Bar 8"
            }
        },
        {
            "type": "Feature",
            "geometry": {
                "type": "Point",
                "coordinates": [
                    -21.9344147,
                    64.1468911
                ]
            },
            "properties": {
                "name": "b5 bar - bistro"
            }
        },
        {
            "type": "Feature",
            "geometry": {
                "type": "Point",
                "coordinates": [
                    -21.933708,
                    64.1467658
                ]
            },
            "properties": {
                "name": "S\u00f3lon"
            }
        },
        {
            "type": "Feature",
            "geometry": {
                "type": "Point",
                "coordinates": [
                    -21.9345772,
                    64.1463368
                ]
            },
            "properties": {
                "name": "Domo"
            }
        },
        {
            "type": "Feature",
            "geometry": {
                "type": "Point",
                "coordinates": [
                    -21.9343741,
                    64.1464988
                ]
            },
            "properties": {
                "name": "\u00deingholtsbar"
            }
        },
        {
            "type": "Feature",
            "geometry": {
                "type": "Point",
                "coordinates": [
                    -21.8888851,
                    64.1396876
                ]
            },
            "properties": {
                "name": "Hilton Bar"
            }
        },
        {
            "type": "Feature",
            "geometry": {
                "type": "Point",
                "coordinates": [
                    -21.9361435,
                    64.147753
                ]
            },
            "properties": {
                "name": "Square"
            }
        },
        {
            "type": "Feature",
            "geometry": {
                "type": "Point",
                "coordinates": [
                    -21.9461185,
                    64.1510227
                ]
            },
            "properties": {
                "name": "Slippbarinn"
            }
        },
        {
            "type": "Feature",
            "geometry": {
                "type": "Point",
                "coordinates": [
                    -21.9296445,
                    64.1457321
                ]
            },
            "properties": {
                "name": "The Big Lebowski"
            }
        },
        {
            "type": "Feature",
            "geometry": {
                "type": "Point",
                "coordinates": [
                    -22.0819917,
                    64.3177734
                ]
            },
            "properties": {
                "name": "Kaffi \u00c1si"
            }
        },
        {
            "type": "Feature",
            "geometry": {
                "type": "Point",
                "coordinates": [
                    -21.9292401,
                    64.145577
                ]
            },
            "properties": {
                "name": "K\u00edK\u00ed Queer Bar"
            }
        },
        {
            "type": "Feature",
            "geometry": {
                "type": "Point",
                "coordinates": [
                    -21.9201965,
                    64.1440523
                ]
            },
            "properties": {
                "name": "V\u00ednsmakkarinn"
            }
        },
        {
            "type": "Feature",
            "geometry": {
                "type": "Point",
                "coordinates": [
                    -21.0036194,
                    63.9378424
                ]
            }
        },
        {
            "type": "Feature",
            "geometry": {
                "type": "Point",
                "coordinates": [
                    -21.9338254,
                    64.1467805
                ]
            },
            "properties": {
                "name": "Loft bar"
            }
        },
        {
            "type": "Feature",
            "geometry": {
                "type": "Point",
                "coordinates": [
                    -19.6512241,
                    65.7512908
                ]
            },
            "properties": {
                "name": "Micro"
            }
        },
        {
            "type": "Feature",
            "geometry": {
                "type": "Point",
                "coordinates": [
                    -21.8327276,
                    64.087476
                ]
            },
            "properties": {
                "name": "Players"
            }
        },
        {
            "type": "Feature",
            "geometry": {
                "type": "Point",
                "coordinates": [
                    -21.9425607,
                    64.1474475
                ]
            },
            "properties": {
                "name": "Uppsalir"
            }
        },
        {
            "type": "Feature",
            "geometry": {
                "type": "Point",
                "coordinates": [
                    -21.9435813,
                    64.1461514
                ]
            },
            "properties": {
                "name": "Tjarnarbarinn"
            }
        },
        {
            "type": "Feature",
            "geometry": {
                "type": "Point",
                "coordinates": [
                    -18.0893206,
                    65.681175
                ]
            },
            "properties": {
                "name": "G\u00f6tubarinn"
            }
        },
        {
            "type": "Feature",
            "geometry": {
                "type": "Point",
                "coordinates": [
                    -18.0899895,
                    65.681929
                ]
            },
            "properties": {
                "name": "P\u00f3sth\u00fasbarinn"
            }
        },
        {
            "type": "Feature",
            "geometry": {
                "type": "Point",
                "coordinates": [
                    -21.9269998,
                    64.146443
                ]
            }
        },
        {
            "type": "Feature",
            "geometry": {
                "type": "Point",
                "coordinates": [
                    -18.0907919,
                    65.682348
                ]
            }
        },
        {
            "type": "Feature",
            "geometry": {
                "type": "Point",
                "coordinates": [
                    -21.8705812,
                    64.1317736
                ]
            }
        },
        {
            "type": "Feature",
            "geometry": {
                "type": "Point",
                "coordinates": [
                    -22.6229845,
                    63.9959433
                ]
            }
        },
        {
            "type": "Feature",
            "geometry": {
                "type": "Point",
                "coordinates": [
                    -21.9405838,
                    64.1481525
                ]
            }
        },
        {
            "type": "Feature",
            "geometry": {
                "type": "Point",
                "coordinates": [
                    -21.9292609,
                    64.1455096
                ]
            },
            "properties": {
                "name": "Ve\u00f0ur"
            }
        },
        {
            "type": "Feature",
            "geometry": {
                "type": "Point",
                "coordinates": [
                    -21.9335769,
                    64.1469153
                ]
            },
            "properties": {
                "name": "Petersen Suite"
            }
        },
        {
            "type": "Feature",
            "geometry": {
                "type": "Point",
                "coordinates": [
                    -22.6238533,
                    63.9940325
                ]
            },
            "properties": {
                "name": "Saga Lounge"
            }
        },
        {
            "type": "Feature",
            "geometry": {
                "type": "Point",
                "coordinates": [
                    -21.9150059,
                    64.1432178
                ]
            },
            "properties": {
                "name": "Hlemmur Square"
            }
        },
        {
            "type": "Feature",
            "geometry": {
                "type": "Point",
                "coordinates": [
                    -15.9499959,
                    66.4540598
                ]
            }
        },
        {
            "type": "Feature",
            "geometry": {
                "type": "Point",
                "coordinates": [
                    -14.2231645,
                    65.0319296
                ]
            },
            "properties": {
                "name": "Kaffi Cos\u00fd"
            }
        }
    ],
    "crs": {
        "type": "name",
        "properties": {
            "name": "urn:ogc:def:crs:OGC:1.3:CRS84"
        }
    }
}