{
    "type": "FeatureCollection",
    "features": [
        {
            "type": "Feature",
            "geometry": {
                "type": "Point",
                "coordinates": [
                    15.4523885,
                    47.0726465
                ]
            },
            "properties": {
                "name": "durstK\u00fcche"
            }
        },
        {
            "type": "Feature",
            "geometry": {
                "type": "Point",
                "coordinates": [
                    16.3929027,
                    48.2003245
                ]
            },
            "properties": {
                "name": "Str\u00f6ck Feierabend"
            }
        },
        {
            "type": "Feature",
            "geometry": {
                "type": "Point",
                "coordinates": [
                    16.3563982,
                    48.2298213
                ]
            },
            "properties": {
                "name": "The Blue Label Bar"
            }
        },
        {
            "type": "Feature",
            "geometry": {
                "type": "Point",
                "coordinates": [
                    16.4004072,
                    48.1996208
                ]
            },
            "properties": {
                "name": "Melbourne"
            }
        },
        {
            "type": "Feature",
            "geometry": {
                "type": "Point",
                "coordinates": [
                    13.0442829,
                    47.8019227
                ]
            },
            "properties": {
                "name": "Beer Lounge"
            }
        },
        {
            "type": "Feature",
            "geometry": {
                "type": "Point",
                "coordinates": [
                    12.3905601,
                    47.4461138
                ]
            },
            "properties": {
                "name": "Jimmy's"
            }
        },
        {
            "type": "Feature",
            "geometry": {
                "type": "Point",
                "coordinates": [
                    15.4395729,
                    47.066756
                ]
            },
            "properties": {
                "name": "Wein & Co"
            }
        },
        {
            "type": "Feature",
            "geometry": {
                "type": "Point",
                "coordinates": [
                    14.2820624,
                    48.30066
                ]
            },
            "properties": {
                "name": "KAPU"
            }
        },
        {
            "type": "Feature",
            "geometry": {
                "type": "Point",
                "coordinates": [
                    14.0468425,
                    48.0751712
                ]
            },
            "properties": {
                "name": "Kleeblatt"
            }
        },
        {
            "type": "Feature",
            "geometry": {
                "type": "Point",
                "coordinates": [
                    14.0551041,
                    48.0739542
                ]
            },
            "properties": {
                "name": "Zum Sepp"
            }
        },
        {
            "type": "Feature",
            "geometry": {
                "type": "Point",
                "coordinates": [
                    16.3651253,
                    48.196612
                ]
            },
            "properties": {
                "name": "Schikaneder"
            }
        },
        {
            "type": "Feature",
            "geometry": {
                "type": "Point",
                "coordinates": [
                    15.4428865,
                    47.0708695
                ]
            },
            "properties": {
                "name": "The Spot"
            }
        },
        {
            "type": "Feature",
            "geometry": {
                "type": "Point",
                "coordinates": [
                    15.4415273,
                    47.0711057
                ]
            },
            "properties": {
                "name": "Hasenstall"
            }
        },
        {
            "type": "Feature",
            "geometry": {
                "type": "Point",
                "coordinates": [
                    15.4332816,
                    47.0734931
                ]
            },
            "properties": {
                "name": "Miles : Jazz Bar"
            }
        },
        {
            "type": "Feature",
            "geometry": {
                "type": "Point",
                "coordinates": [
                    16.3653354,
                    48.2000494
                ]
            },
            "properties": {
                "name": "Wein & Co"
            }
        },
        {
            "type": "Feature",
            "geometry": {
                "type": "Point",
                "coordinates": [
                    16.3505694,
                    48.22506
                ]
            },
            "properties": {
                "name": "Cafe Saxx"
            }
        },
        {
            "type": "Feature",
            "geometry": {
                "type": "Point",
                "coordinates": [
                    16.3051414,
                    48.2229914
                ]
            },
            "properties": {
                "name": "Gr\u00fcnes Licht"
            }
        },
        {
            "type": "Feature",
            "geometry": {
                "type": "Point",
                "coordinates": [
                    16.3804725,
                    48.2184281
                ]
            },
            "properties": {
                "name": "Hammond"
            }
        },
        {
            "type": "Feature",
            "geometry": {
                "type": "Point",
                "coordinates": [
                    9.5941574,
                    47.2373711
                ]
            },
            "properties": {
                "name": "The Bozz Bar"
            }
        },
        {
            "type": "Feature",
            "geometry": {
                "type": "Point",
                "coordinates": [
                    13.3871588,
                    47.3548579
                ]
            },
            "properties": {
                "name": "Yeti Bar"
            }
        },
        {
            "type": "Feature",
            "geometry": {
                "type": "Point",
                "coordinates": [
                    16.3391375,
                    48.2170326
                ]
            },
            "properties": {
                "name": "Theatro"
            }
        },
        {
            "type": "Feature",
            "geometry": {
                "type": "Point",
                "coordinates": [
                    14.0522942,
                    48.3447896
                ]
            },
            "properties": {
                "name": "Feldkirchener Almh\u00fcttn"
            }
        },
        {
            "type": "Feature",
            "geometry": {
                "type": "Point",
                "coordinates": [
                    16.4173137,
                    48.173005
                ]
            },
            "properties": {
                "name": "Deluxe Coffee Bar"
            }
        },
        {
            "type": "Feature",
            "geometry": {
                "type": "Point",
                "coordinates": [
                    16.8370798,
                    47.854608
                ]
            },
            "properties": {
                "name": "Urbanbar"
            }
        },
        {
            "type": "Feature",
            "geometry": {
                "type": "Point",
                "coordinates": [
                    16.4138305,
                    48.1746787
                ]
            },
            "properties": {
                "name": "Rhtyhm & Disco"
            }
        },
        {
            "type": "Feature",
            "geometry": {
                "type": "Point",
                "coordinates": [
                    9.650561,
                    47.4325068
                ]
            },
            "properties": {
                "name": "Villa Blumenau"
            }
        },
        {
            "type": "Feature",
            "geometry": {
                "type": "Point",
                "coordinates": [
                    11.3966677,
                    47.2661879
                ]
            },
            "properties": {
                "name": "Sitzwohl"
            }
        },
        {
            "type": "Feature",
            "geometry": {
                "type": "Point",
                "coordinates": [
                    16.342522,
                    48.218113
                ]
            },
            "properties": {
                "name": "Einbaum\u00f6bel"
            }
        },
        {
            "type": "Feature",
            "geometry": {
                "type": "Point",
                "coordinates": [
                    16.3425699,
                    48.2182636
                ]
            },
            "properties": {
                "name": "Venster99"
            }
        },
        {
            "type": "Feature",
            "geometry": {
                "type": "Point",
                "coordinates": [
                    11.4021375,
                    47.26748
                ]
            },
            "properties": {
                "name": "jellyfish music.bar"
            }
        },
        {
            "type": "Feature",
            "geometry": {
                "type": "Point",
                "coordinates": [
                    11.402278,
                    47.2679705
                ]
            },
            "properties": {
                "name": "p.m.k"
            }
        },
        {
            "type": "Feature",
            "geometry": {
                "type": "Point",
                "coordinates": [
                    11.402335,
                    47.2681727
                ]
            },
            "properties": {
                "name": "Babalon"
            }
        },
        {
            "type": "Feature",
            "geometry": {
                "type": "Point",
                "coordinates": [
                    11.4023588,
                    47.2682549
                ]
            },
            "properties": {
                "name": "Project"
            }
        },
        {
            "type": "Feature",
            "geometry": {
                "type": "Point",
                "coordinates": [
                    11.4023774,
                    47.2683182
                ]
            },
            "properties": {
                "name": "Down Under"
            }
        },
        {
            "type": "Feature",
            "geometry": {
                "type": "Point",
                "coordinates": [
                    11.4026232,
                    47.2690204
                ]
            },
            "properties": {
                "name": "Sky Lounge"
            }
        },
        {
            "type": "Feature",
            "geometry": {
                "type": "Point",
                "coordinates": [
                    16.3424914,
                    48.2196865
                ]
            },
            "properties": {
                "name": "Bar Feeling"
            }
        },
        {
            "type": "Feature",
            "geometry": {
                "type": "Point",
                "coordinates": [
                    13.9932075,
                    48.5731561
                ]
            },
            "properties": {
                "name": "Lucky Lips - Bergwerk"
            }
        },
        {
            "type": "Feature",
            "geometry": {
                "type": "Point",
                "coordinates": [
                    16.3601742,
                    48.200329
                ]
            },
            "properties": {
                "name": "Mon Ami"
            }
        },
        {
            "type": "Feature",
            "geometry": {
                "type": "Point",
                "coordinates": [
                    16.3749505,
                    48.1977287
                ]
            },
            "properties": {
                "name": "Schwarzberg"
            }
        },
        {
            "type": "Feature",
            "geometry": {
                "type": "Point",
                "coordinates": [
                    16.3460762,
                    48.2069555
                ]
            },
            "properties": {
                "name": "Fr\u00e4uleins"
            }
        },
        {
            "type": "Feature",
            "geometry": {
                "type": "Point",
                "coordinates": [
                    16.358335,
                    48.191337
                ]
            },
            "properties": {
                "name": "Cuadro"
            }
        },
        {
            "type": "Feature",
            "geometry": {
                "type": "Point",
                "coordinates": [
                    14.0261101,
                    48.1536799
                ]
            },
            "properties": {
                "name": "Isola Bella"
            }
        },
        {
            "type": "Feature",
            "geometry": {
                "type": "Point",
                "coordinates": [
                    13.2976232,
                    47.4625253
                ]
            }
        },
        {
            "type": "Feature",
            "geometry": {
                "type": "Point",
                "coordinates": [
                    15.7089804,
                    47.1047906
                ]
            },
            "properties": {
                "name": "Wahnsinnsbeisl"
            }
        },
        {
            "type": "Feature",
            "geometry": {
                "type": "Point",
                "coordinates": [
                    15.7115194,
                    47.104538
                ]
            },
            "properties": {
                "name": "Sandro Cafe Lounge"
            }
        },
        {
            "type": "Feature",
            "geometry": {
                "type": "Point",
                "coordinates": [
                    14.4197657,
                    48.0402131
                ]
            },
            "properties": {
                "name": "Sky Lounge"
            }
        },
        {
            "type": "Feature",
            "geometry": {
                "type": "Point",
                "coordinates": [
                    16.3370235,
                    48.1947989
                ]
            },
            "properties": {
                "name": "The Lounge wombats CITY HOSTEL VIENNA"
            }
        },
        {
            "type": "Feature",
            "geometry": {
                "type": "Point",
                "coordinates": [
                    16.8273885,
                    47.8602947
                ]
            },
            "properties": {
                "name": "SunSetBar"
            }
        },
        {
            "type": "Feature",
            "geometry": {
                "type": "Point",
                "coordinates": [
                    16.8303007,
                    47.85779
                ]
            },
            "properties": {
                "name": "Martinskeller"
            }
        },
        {
            "type": "Feature",
            "geometry": {
                "type": "Point",
                "coordinates": [
                    15.4523215,
                    47.0728575
                ]
            },
            "properties": {
                "name": "Guest Room"
            }
        },
        {
            "type": "Feature",
            "geometry": {
                "type": "Point",
                "coordinates": [
                    14.0263815,
                    48.3687631
                ]
            },
            "properties": {
                "name": "Cuba"
            }
        },
        {
            "type": "Feature",
            "geometry": {
                "type": "Point",
                "coordinates": [
                    16.3852689,
                    48.2169355
                ]
            },
            "properties": {
                "name": "New Bar"
            }
        },
        {
            "type": "Feature",
            "geometry": {
                "type": "Point",
                "coordinates": [
                    14.477599,
                    48.3571877
                ]
            },
            "properties": {
                "name": "EVERS Tanzschuppen"
            }
        },
        {
            "type": "Feature",
            "geometry": {
                "type": "Point",
                "coordinates": [
                    15.6266002,
                    48.2041215
                ]
            },
            "properties": {
                "name": "Shu'mata"
            }
        },
        {
            "type": "Feature",
            "geometry": {
                "type": "Point",
                "coordinates": [
                    15.6233815,
                    48.2055287
                ]
            },
            "properties": {
                "name": "Cinema Paradiso"
            }
        },
        {
            "type": "Feature",
            "geometry": {
                "type": "Point",
                "coordinates": [
                    15.1705768,
                    48.6028803
                ]
            },
            "properties": {
                "name": "Kuba - die Bar"
            }
        },
        {
            "type": "Feature",
            "geometry": {
                "type": "Point",
                "coordinates": [
                    16.3652315,
                    48.1971153
                ]
            },
            "properties": {
                "name": "Aruba"
            }
        },
        {
            "type": "Feature",
            "geometry": {
                "type": "Point",
                "coordinates": [
                    16.8268566,
                    48.0347235
                ]
            },
            "properties": {
                "name": "Lake Side"
            }
        },
        {
            "type": "Feature",
            "geometry": {
                "type": "Point",
                "coordinates": [
                    13.4212152,
                    47.9858074
                ]
            },
            "properties": {
                "name": "Millas Bar"
            }
        },
        {
            "type": "Feature",
            "geometry": {
                "type": "Point",
                "coordinates": [
                    13.8570879,
                    46.6310952
                ]
            },
            "properties": {
                "name": "Mooonlightbar"
            }
        },
        {
            "type": "Feature",
            "geometry": {
                "type": "Point",
                "coordinates": [
                    13.042553,
                    47.7975126
                ]
            },
            "properties": {
                "name": "Felsenkeller"
            }
        },
        {
            "type": "Feature",
            "geometry": {
                "type": "Point",
                "coordinates": [
                    13.5343324,
                    46.905348
                ]
            },
            "properties": {
                "name": "Coconut"
            }
        },
        {
            "type": "Feature",
            "geometry": {
                "type": "Point",
                "coordinates": [
                    16.2359346,
                    48.0035217
                ]
            },
            "properties": {
                "name": "Diva Club"
            }
        },
        {
            "type": "Feature",
            "geometry": {
                "type": "Point",
                "coordinates": [
                    16.233152,
                    48.0064738
                ]
            },
            "properties": {
                "name": "Mojo"
            }
        },
        {
            "type": "Feature",
            "geometry": {
                "type": "Point",
                "coordinates": [
                    14.3030039,
                    46.6237447
                ]
            },
            "properties": {
                "name": "Chili Bar"
            }
        },
        {
            "type": "Feature",
            "geometry": {
                "type": "Point",
                "coordinates": [
                    13.4425146,
                    47.7394276
                ]
            },
            "properties": {
                "name": "Sloppy Joe's"
            }
        },
        {
            "type": "Feature",
            "geometry": {
                "type": "Point",
                "coordinates": [
                    16.354098,
                    48.197022
                ]
            },
            "properties": {
                "name": "Schauplatz"
            }
        },
        {
            "type": "Feature",
            "geometry": {
                "type": "Point",
                "coordinates": [
                    13.5396987,
                    48.0454973
                ]
            },
            "properties": {
                "name": "Party Alm"
            }
        },
        {
            "type": "Feature",
            "geometry": {
                "type": "Point",
                "coordinates": [
                    10.5028903,
                    46.890569
                ]
            },
            "properties": {
                "name": "Yetibar"
            }
        },
        {
            "type": "Feature",
            "geometry": {
                "type": "Point",
                "coordinates": [
                    15.132624,
                    48.060762
                ]
            },
            "properties": {
                "name": "Bar Blackout"
            }
        },
        {
            "type": "Feature",
            "geometry": {
                "type": "Point",
                "coordinates": [
                    14.2820015,
                    48.3037689
                ]
            },
            "properties": {
                "name": "Missing Link"
            }
        },
        {
            "type": "Feature",
            "geometry": {
                "type": "Point",
                "coordinates": [
                    15.9527078,
                    48.7561903
                ]
            },
            "properties": {
                "name": "Soizamt"
            }
        },
        {
            "type": "Feature",
            "geometry": {
                "type": "Point",
                "coordinates": [
                    13.5224936,
                    47.4330466
                ]
            },
            "properties": {
                "name": "kalahari"
            }
        },
        {
            "type": "Feature",
            "geometry": {
                "type": "Point",
                "coordinates": [
                    14.3056858,
                    46.6260542
                ]
            },
            "properties": {
                "name": "Gallo Nero"
            }
        },
        {
            "type": "Feature",
            "geometry": {
                "type": "Point",
                "coordinates": [
                    14.3068052,
                    46.6253976
                ]
            },
            "properties": {
                "name": "Cafe-Bar 31"
            }
        },
        {
            "type": "Feature",
            "geometry": {
                "type": "Point",
                "coordinates": [
                    14.3094609,
                    46.6261798
                ]
            },
            "properties": {
                "name": "Tapeo"
            }
        },
        {
            "type": "Feature",
            "geometry": {
                "type": "Point",
                "coordinates": [
                    14.3015316,
                    46.6231436
                ]
            },
            "properties": {
                "name": "Studio Bar"
            }
        },
        {
            "type": "Feature",
            "geometry": {
                "type": "Point",
                "coordinates": [
                    14.3069926,
                    46.6265736
                ]
            },
            "properties": {
                "name": "Teatro"
            }
        },
        {
            "type": "Feature",
            "geometry": {
                "type": "Point",
                "coordinates": [
                    14.3091445,
                    46.627826
                ]
            },
            "properties": {
                "name": "Bodega km uno"
            }
        },
        {
            "type": "Feature",
            "geometry": {
                "type": "Point",
                "coordinates": [
                    14.3074354,
                    46.6203911
                ]
            },
            "properties": {
                "name": "Stereo Club"
            }
        },
        {
            "type": "Feature",
            "geometry": {
                "type": "Point",
                "coordinates": [
                    14.3089623,
                    46.6252004
                ]
            },
            "properties": {
                "name": "La Carintha"
            }
        },
        {
            "type": "Feature",
            "geometry": {
                "type": "Point",
                "coordinates": [
                    14.3065346,
                    46.6254348
                ]
            },
            "properties": {
                "name": "Bistro Basilikum"
            }
        },
        {
            "type": "Feature",
            "geometry": {
                "type": "Point",
                "coordinates": [
                    14.306221,
                    46.6252759
                ]
            },
            "properties": {
                "name": "La Vida"
            }
        },
        {
            "type": "Feature",
            "geometry": {
                "type": "Point",
                "coordinates": [
                    14.3063793,
                    46.6254385
                ]
            },
            "properties": {
                "name": "Checkpoint Charlie"
            }
        },
        {
            "type": "Feature",
            "geometry": {
                "type": "Point",
                "coordinates": [
                    14.3061109,
                    46.6254449
                ]
            },
            "properties": {
                "name": "Spatzl"
            }
        },
        {
            "type": "Feature",
            "geometry": {
                "type": "Point",
                "coordinates": [
                    14.3057045,
                    46.6258897
                ]
            },
            "properties": {
                "name": "Le Passage"
            }
        },
        {
            "type": "Feature",
            "geometry": {
                "type": "Point",
                "coordinates": [
                    14.305962,
                    46.6258484
                ]
            },
            "properties": {
                "name": "Bronx"
            }
        },
        {
            "type": "Feature",
            "geometry": {
                "type": "Point",
                "coordinates": [
                    14.3059019,
                    46.6256892
                ]
            },
            "properties": {
                "name": "Spektakel"
            }
        },
        {
            "type": "Feature",
            "geometry": {
                "type": "Point",
                "coordinates": [
                    14.3064487,
                    46.6253975
                ]
            },
            "properties": {
                "name": "Carpe Noctem"
            }
        },
        {
            "type": "Feature",
            "geometry": {
                "type": "Point",
                "coordinates": [
                    14.3057903,
                    46.62632
                ]
            },
            "properties": {
                "name": "80*Cocktailbar"
            }
        },
        {
            "type": "Feature",
            "geometry": {
                "type": "Point",
                "coordinates": [
                    14.3085093,
                    46.6261222
                ]
            },
            "properties": {
                "name": "Vinothek Lerch"
            }
        },
        {
            "type": "Feature",
            "geometry": {
                "type": "Point",
                "coordinates": [
                    14.3082924,
                    46.6257555
                ]
            },
            "properties": {
                "name": "Cafe Bar Pontasch"
            }
        },
        {
            "type": "Feature",
            "geometry": {
                "type": "Point",
                "coordinates": [
                    14.3079017,
                    46.6261372
                ]
            },
            "properties": {
                "name": "Speki"
            }
        },
        {
            "type": "Feature",
            "geometry": {
                "type": "Point",
                "coordinates": [
                    14.3078932,
                    46.6260311
                ]
            },
            "properties": {
                "name": "L'Asso"
            }
        },
        {
            "type": "Feature",
            "geometry": {
                "type": "Point",
                "coordinates": [
                    14.3069827,
                    46.6245187
                ]
            },
            "properties": {
                "name": "Averna's"
            }
        },
        {
            "type": "Feature",
            "geometry": {
                "type": "Point",
                "coordinates": [
                    14.2093184,
                    46.6270031
                ]
            },
            "properties": {
                "name": "Corner"
            }
        },
        {
            "type": "Feature",
            "geometry": {
                "type": "Point",
                "coordinates": [
                    11.3910096,
                    47.2678121
                ]
            },
            "properties": {
                "name": "tapabar"
            }
        },
        {
            "type": "Feature",
            "geometry": {
                "type": "Point",
                "coordinates": [
                    15.6670424,
                    48.3185716
                ]
            },
            "properties": {
                "name": "Heuriger Schoderb\u00f6ck"
            }
        },
        {
            "type": "Feature",
            "geometry": {
                "type": "Point",
                "coordinates": [
                    15.6736746,
                    48.3214677
                ]
            },
            "properties": {
                "name": "Heuriger Wutzl"
            }
        },
        {
            "type": "Feature",
            "geometry": {
                "type": "Point",
                "coordinates": [
                    15.6614196,
                    48.3150631
                ]
            },
            "properties": {
                "name": "Heuriger M\u00fcllner"
            }
        },
        {
            "type": "Feature",
            "geometry": {
                "type": "Point",
                "coordinates": [
                    15.6623663,
                    48.3145429
                ]
            },
            "properties": {
                "name": "Heuriger Schoderb\u00f6ck"
            }
        },
        {
            "type": "Feature",
            "geometry": {
                "type": "Point",
                "coordinates": [
                    15.6610826,
                    48.3153859
                ]
            },
            "properties": {
                "name": "Heuriger Wieser"
            }
        },
        {
            "type": "Feature",
            "geometry": {
                "type": "Point",
                "coordinates": [
                    15.6613674,
                    48.3155727
                ]
            },
            "properties": {
                "name": "Heuriger Staudenmayer"
            }
        },
        {
            "type": "Feature",
            "geometry": {
                "type": "Point",
                "coordinates": [
                    15.662286,
                    48.3152285
                ]
            },
            "properties": {
                "name": "Heuriger Kaiser"
            }
        },
        {
            "type": "Feature",
            "geometry": {
                "type": "Point",
                "coordinates": [
                    16.3723092,
                    48.212021
                ]
            },
            "properties": {
                "name": "Funky Monkey"
            }
        },
        {
            "type": "Feature",
            "geometry": {
                "type": "Point",
                "coordinates": [
                    13.6065479,
                    48.2348138
                ]
            },
            "properties": {
                "name": "Katze\u00b4s T\u00fct"
            }
        },
        {
            "type": "Feature",
            "geometry": {
                "type": "Point",
                "coordinates": [
                    13.5174265,
                    47.5685298
                ]
            },
            "properties": {
                "name": "Schirmbar"
            }
        },
        {
            "type": "Feature",
            "geometry": {
                "type": "Point",
                "coordinates": [
                    16.3389121,
                    48.2095727
                ]
            },
            "properties": {
                "name": "Loop"
            }
        },
        {
            "type": "Feature",
            "geometry": {
                "type": "Point",
                "coordinates": [
                    11.3994024,
                    47.2685166
                ]
            },
            "properties": {
                "name": "Kir Royal"
            }
        },
        {
            "type": "Feature",
            "geometry": {
                "type": "Point",
                "coordinates": [
                    11.3901946,
                    47.2604673
                ]
            },
            "properties": {
                "name": "Cafe & Kellerbar Rififi"
            }
        },
        {
            "type": "Feature",
            "geometry": {
                "type": "Point",
                "coordinates": [
                    16.2137468,
                    47.7294266
                ]
            },
            "properties": {
                "name": "Schirmbar \"Zum Storchennest\""
            }
        },
        {
            "type": "Feature",
            "geometry": {
                "type": "Point",
                "coordinates": [
                    13.4788317,
                    47.5685437
                ]
            },
            "properties": {
                "name": "Schirmbar"
            }
        },
        {
            "type": "Feature",
            "geometry": {
                "type": "Point",
                "coordinates": [
                    10.2937282,
                    47.0130293
                ]
            },
            "properties": {
                "name": "SCHATZI Bar"
            }
        },
        {
            "type": "Feature",
            "geometry": {
                "type": "Point",
                "coordinates": [
                    14.2480506,
                    48.2790977
                ]
            },
            "properties": {
                "name": "BATA 2"
            }
        },
        {
            "type": "Feature",
            "geometry": {
                "type": "Point",
                "coordinates": [
                    14.0259592,
                    48.1564633
                ]
            },
            "properties": {
                "name": "Weinzeit"
            }
        },
        {
            "type": "Feature",
            "geometry": {
                "type": "Point",
                "coordinates": [
                    16.3438849,
                    48.2122441
                ]
            },
            "properties": {
                "name": "albertgasse39"
            }
        },
        {
            "type": "Feature",
            "geometry": {
                "type": "Point",
                "coordinates": [
                    15.9030436,
                    46.8699949
                ]
            },
            "properties": {
                "name": "Tanzbar Oasis"
            }
        },
        {
            "type": "Feature",
            "geometry": {
                "type": "Point",
                "coordinates": [
                    14.1074262,
                    48.28765
                ]
            },
            "properties": {
                "name": "Filiale"
            }
        },
        {
            "type": "Feature",
            "geometry": {
                "type": "Point",
                "coordinates": [
                    15.6254091,
                    48.2066629
                ]
            },
            "properties": {
                "name": "Tapas"
            }
        },
        {
            "type": "Feature",
            "geometry": {
                "type": "Point",
                "coordinates": [
                    14.4644041,
                    48.1414569
                ]
            },
            "properties": {
                "name": "RaBar"
            }
        },
        {
            "type": "Feature",
            "geometry": {
                "type": "Point",
                "coordinates": [
                    16.3477659,
                    48.2043752
                ]
            },
            "properties": {
                "name": "Cafe Zipp"
            }
        },
        {
            "type": "Feature",
            "geometry": {
                "type": "Point",
                "coordinates": [
                    10.4638937,
                    47.0827757
                ]
            },
            "properties": {
                "name": "H\u00fchnerstall"
            }
        },
        {
            "type": "Feature",
            "geometry": {
                "type": "Point",
                "coordinates": [
                    10.4770161,
                    47.0735433
                ]
            },
            "properties": {
                "name": "Medrigalm"
            }
        },
        {
            "type": "Feature",
            "geometry": {
                "type": "Point",
                "coordinates": [
                    12.7969386,
                    47.3237097
                ]
            },
            "properties": {
                "name": "Ginhouse"
            }
        },
        {
            "type": "Feature",
            "geometry": {
                "type": "Point",
                "coordinates": [
                    16.4920712,
                    48.360451
                ]
            },
            "properties": {
                "name": "Gecko"
            }
        },
        {
            "type": "Feature",
            "geometry": {
                "type": "Point",
                "coordinates": [
                    15.6245598,
                    48.2059362
                ]
            },
            "properties": {
                "name": "Cocopelli"
            }
        },
        {
            "type": "Feature",
            "geometry": {
                "type": "Point",
                "coordinates": [
                    13.4846742,
                    47.54305
                ]
            },
            "properties": {
                "name": "Schirmbar"
            }
        },
        {
            "type": "Feature",
            "geometry": {
                "type": "Point",
                "coordinates": [
                    14.2038152,
                    48.0253342
                ]
            },
            "properties": {
                "name": "Red Rooster"
            }
        },
        {
            "type": "Feature",
            "geometry": {
                "type": "Point",
                "coordinates": [
                    13.1112238,
                    46.9358484
                ]
            },
            "properties": {
                "name": "Ice"
            }
        },
        {
            "type": "Feature",
            "geometry": {
                "type": "Point",
                "coordinates": [
                    13.0551243,
                    47.8084406
                ]
            },
            "properties": {
                "name": "Rugia"
            }
        },
        {
            "type": "Feature",
            "geometry": {
                "type": "Point",
                "coordinates": [
                    13.045105,
                    47.801807
                ]
            },
            "properties": {
                "name": "Wein & Co"
            }
        },
        {
            "type": "Feature",
            "geometry": {
                "type": "Point",
                "coordinates": [
                    13.049684,
                    47.8084859
                ]
            },
            "properties": {
                "name": "HOSI Salzburg Vereinslokal"
            }
        },
        {
            "type": "Feature",
            "geometry": {
                "type": "Point",
                "coordinates": [
                    16.3563909,
                    48.2042569
                ]
            },
            "properties": {
                "name": "Hauptsache Franz"
            }
        },
        {
            "type": "Feature",
            "geometry": {
                "type": "Point",
                "coordinates": [
                    14.0261813,
                    48.1567704
                ]
            },
            "properties": {
                "name": "Auf Verdacht"
            }
        },
        {
            "type": "Feature",
            "geometry": {
                "type": "Point",
                "coordinates": [
                    14.0262229,
                    48.1567313
                ]
            },
            "properties": {
                "name": "Stadtbeisl"
            }
        },
        {
            "type": "Feature",
            "geometry": {
                "type": "Point",
                "coordinates": [
                    14.1109277,
                    48.1913791
                ]
            },
            "properties": {
                "name": "Bar Feature"
            }
        },
        {
            "type": "Feature",
            "geometry": {
                "type": "Point",
                "coordinates": [
                    11.3964622,
                    47.2568322
                ]
            },
            "properties": {
                "name": "Sky-Bar"
            }
        },
        {
            "type": "Feature",
            "geometry": {
                "type": "Point",
                "coordinates": [
                    16.2164678,
                    47.9302498
                ]
            },
            "properties": {
                "name": "Cocktail"
            }
        },
        {
            "type": "Feature",
            "geometry": {
                "type": "Point",
                "coordinates": [
                    16.4256276,
                    48.2330547
                ]
            }
        },
        {
            "type": "Feature",
            "geometry": {
                "type": "Point",
                "coordinates": [
                    14.0255495,
                    48.1572242
                ]
            },
            "properties": {
                "name": "Raum Bar"
            }
        },
        {
            "type": "Feature",
            "geometry": {
                "type": "Point",
                "coordinates": [
                    16.3305137,
                    48.2257362
                ]
            },
            "properties": {
                "name": "Ur-knall"
            }
        },
        {
            "type": "Feature",
            "geometry": {
                "type": "Point",
                "coordinates": [
                    14.2916488,
                    48.2983763
                ]
            },
            "properties": {
                "name": "Shinebar"
            }
        },
        {
            "type": "Feature",
            "geometry": {
                "type": "Point",
                "coordinates": [
                    15.4429536,
                    47.0700314
                ]
            },
            "properties": {
                "name": "Weinlokal \"Der Keller\""
            }
        },
        {
            "type": "Feature",
            "geometry": {
                "type": "Point",
                "coordinates": [
                    11.389925,
                    47.2687273
                ]
            },
            "properties": {
                "name": "Zwanzig Zwoelf"
            }
        },
        {
            "type": "Feature",
            "geometry": {
                "type": "Point",
                "coordinates": [
                    11.3929976,
                    47.2680415
                ]
            },
            "properties": {
                "name": "Nano Cafe Bar"
            }
        },
        {
            "type": "Feature",
            "geometry": {
                "type": "Point",
                "coordinates": [
                    11.3930693,
                    47.2695876
                ]
            },
            "properties": {
                "name": "Da Vincenzo"
            }
        },
        {
            "type": "Feature",
            "geometry": {
                "type": "Point",
                "coordinates": [
                    11.3927728,
                    47.2679866
                ]
            },
            "properties": {
                "name": "Die Wilderin"
            }
        },
        {
            "type": "Feature",
            "geometry": {
                "type": "Point",
                "coordinates": [
                    13.2083889,
                    47.9273463
                ]
            },
            "properties": {
                "name": "WallerSeeAlm"
            }
        },
        {
            "type": "Feature",
            "geometry": {
                "type": "Point",
                "coordinates": [
                    16.3461221,
                    48.2104329
                ]
            },
            "properties": {
                "name": "Skubibar"
            }
        },
        {
            "type": "Feature",
            "geometry": {
                "type": "Point",
                "coordinates": [
                    16.3447124,
                    48.210026
                ]
            },
            "properties": {
                "name": "Brauchbar"
            }
        },
        {
            "type": "Feature",
            "geometry": {
                "type": "Point",
                "coordinates": [
                    16.3485611,
                    48.2109596
                ]
            },
            "properties": {
                "name": "Gerard-Tanzbar"
            }
        },
        {
            "type": "Feature",
            "geometry": {
                "type": "Point",
                "coordinates": [
                    16.3469687,
                    48.2122667
                ]
            },
            "properties": {
                "name": "Salim's"
            }
        },
        {
            "type": "Feature",
            "geometry": {
                "type": "Point",
                "coordinates": [
                    16.3526468,
                    48.205143
                ]
            },
            "properties": {
                "name": "Erich"
            }
        },
        {
            "type": "Feature",
            "geometry": {
                "type": "Point",
                "coordinates": [
                    13.2545609,
                    47.9808957
                ]
            },
            "properties": {
                "name": "Eder\u00b4s"
            }
        },
        {
            "type": "Feature",
            "geometry": {
                "type": "Point",
                "coordinates": [
                    13.2547325,
                    47.9804001
                ]
            },
            "properties": {
                "name": "Leoni"
            }
        },
        {
            "type": "Feature",
            "geometry": {
                "type": "Point",
                "coordinates": [
                    13.2544965,
                    47.9791433
                ]
            },
            "properties": {
                "name": "Helmi's No1 W\u00fcrstlbude"
            }
        },
        {
            "type": "Feature",
            "geometry": {
                "type": "Point",
                "coordinates": [
                    16.3350417,
                    48.2131426
                ]
            },
            "properties": {
                "name": "la Salvia"
            }
        },
        {
            "type": "Feature",
            "geometry": {
                "type": "Point",
                "coordinates": [
                    14.0318266,
                    46.5647696
                ]
            },
            "properties": {
                "name": "Dogi\u00b4s Pub"
            }
        },
        {
            "type": "Feature",
            "geometry": {
                "type": "Point",
                "coordinates": [
                    16.3017314,
                    47.9566881
                ]
            },
            "properties": {
                "name": "Collins"
            }
        },
        {
            "type": "Feature",
            "geometry": {
                "type": "Point",
                "coordinates": [
                    14.2896886,
                    48.304704
                ]
            },
            "properties": {
                "name": "Lennox"
            }
        },
        {
            "type": "Feature",
            "geometry": {
                "type": "Point",
                "coordinates": [
                    13.0565199,
                    47.8260657
                ]
            },
            "properties": {
                "name": "Center for Bar Culture"
            }
        },
        {
            "type": "Feature",
            "geometry": {
                "type": "Point",
                "coordinates": [
                    12.6924313,
                    47.5863214
                ]
            },
            "properties": {
                "name": "Cafe Bar Mitten Drin"
            }
        },
        {
            "type": "Feature",
            "geometry": {
                "type": "Point",
                "coordinates": [
                    12.2502793,
                    47.5297421
                ]
            },
            "properties": {
                "name": "DeLuxe"
            }
        },
        {
            "type": "Feature",
            "geometry": {
                "type": "Point",
                "coordinates": [
                    14.2849715,
                    48.3057854
                ]
            },
            "properties": {
                "name": "SegaBar"
            }
        },
        {
            "type": "Feature",
            "geometry": {
                "type": "Point",
                "coordinates": [
                    13.0409333,
                    47.8007404
                ]
            },
            "properties": {
                "name": "Citybeats"
            }
        },
        {
            "type": "Feature",
            "geometry": {
                "type": "Point",
                "coordinates": [
                    13.0393259,
                    47.8008127
                ]
            },
            "properties": {
                "name": "Half Moon"
            }
        },
        {
            "type": "Feature",
            "geometry": {
                "type": "Point",
                "coordinates": [
                    13.0388941,
                    47.8012368
                ]
            },
            "properties": {
                "name": "Soda Club"
            }
        },
        {
            "type": "Feature",
            "geometry": {
                "type": "Point",
                "coordinates": [
                    13.046569,
                    47.7999776
                ]
            },
            "properties": {
                "name": "Vis a Vis"
            }
        },
        {
            "type": "Feature",
            "geometry": {
                "type": "Point",
                "coordinates": [
                    13.0390549,
                    47.8006169
                ]
            },
            "properties": {
                "name": "Take Five"
            }
        },
        {
            "type": "Feature",
            "geometry": {
                "type": "Point",
                "coordinates": [
                    15.6638707,
                    48.4066844
                ]
            },
            "properties": {
                "name": "Cinema Lounge"
            }
        },
        {
            "type": "Feature",
            "geometry": {
                "type": "Point",
                "coordinates": [
                    15.6636132,
                    48.4066128
                ]
            },
            "properties": {
                "name": "Hemingway"
            }
        },
        {
            "type": "Feature",
            "geometry": {
                "type": "Point",
                "coordinates": [
                    13.047969,
                    47.803985
                ]
            },
            "properties": {
                "name": "linz bar"
            }
        },
        {
            "type": "Feature",
            "geometry": {
                "type": "Point",
                "coordinates": [
                    13.0453622,
                    47.8036237
                ]
            },
            "properties": {
                "name": "Yasmin"
            }
        },
        {
            "type": "Feature",
            "geometry": {
                "type": "Point",
                "coordinates": [
                    13.0450103,
                    47.8038424
                ]
            },
            "properties": {
                "name": "Tagesbar Servus"
            }
        },
        {
            "type": "Feature",
            "geometry": {
                "type": "Point",
                "coordinates": [
                    13.0445488,
                    47.8020951
                ]
            },
            "properties": {
                "name": "SegaBar Lederergasse"
            }
        },
        {
            "type": "Feature",
            "geometry": {
                "type": "Point",
                "coordinates": [
                    13.0476206,
                    47.8038367
                ]
            },
            "properties": {
                "name": "Murat"
            }
        },
        {
            "type": "Feature",
            "geometry": {
                "type": "Point",
                "coordinates": [
                    13.0455718,
                    47.8014975
                ]
            },
            "properties": {
                "name": "Shrimps Bar & Restaurant"
            }
        },
        {
            "type": "Feature",
            "geometry": {
                "type": "Point",
                "coordinates": [
                    13.048281,
                    47.805739
                ]
            },
            "properties": {
                "name": "Times"
            }
        },
        {
            "type": "Feature",
            "geometry": {
                "type": "Point",
                "coordinates": [
                    13.0423112,
                    47.8060434
                ]
            },
            "properties": {
                "name": "Bellinis"
            }
        },
        {
            "type": "Feature",
            "geometry": {
                "type": "Point",
                "coordinates": [
                    15.0957925,
                    47.3813092
                ]
            }
        },
        {
            "type": "Feature",
            "geometry": {
                "type": "Point",
                "coordinates": [
                    15.0930865,
                    47.3820001
                ]
            },
            "properties": {
                "name": "Cocktailbar"
            }
        },
        {
            "type": "Feature",
            "geometry": {
                "type": "Point",
                "coordinates": [
                    15.0931712,
                    47.3793236
                ]
            },
            "properties": {
                "name": "Zellergassl"
            }
        },
        {
            "type": "Feature",
            "geometry": {
                "type": "Point",
                "coordinates": [
                    16.2990722,
                    48.0867429
                ]
            },
            "properties": {
                "name": "GRANDE Cocktailbar"
            }
        },
        {
            "type": "Feature",
            "geometry": {
                "type": "Point",
                "coordinates": [
                    16.3675205,
                    48.1761806
                ]
            },
            "properties": {
                "name": "Rendezvous"
            }
        },
        {
            "type": "Feature",
            "geometry": {
                "type": "Point",
                "coordinates": [
                    13.3112729,
                    47.9674417
                ]
            },
            "properties": {
                "name": "Sepp's Spinnradl"
            }
        },
        {
            "type": "Feature",
            "geometry": {
                "type": "Point",
                "coordinates": [
                    16.3704042,
                    48.2079865
                ]
            },
            "properties": {
                "name": "Fledermaus"
            }
        },
        {
            "type": "Feature",
            "geometry": {
                "type": "Point",
                "coordinates": [
                    13.6690194,
                    47.3833166
                ]
            },
            "properties": {
                "name": "Pfitschigogerl"
            }
        },
        {
            "type": "Feature",
            "geometry": {
                "type": "Point",
                "coordinates": [
                    15.3246843,
                    47.2694456
                ]
            },
            "properties": {
                "name": "Filou"
            }
        },
        {
            "type": "Feature",
            "geometry": {
                "type": "Point",
                "coordinates": [
                    16.3754187,
                    48.2017055
                ]
            },
            "properties": {
                "name": "Schubert Bar"
            }
        },
        {
            "type": "Feature",
            "geometry": {
                "type": "Point",
                "coordinates": [
                    16.354588,
                    48.1746429
                ]
            },
            "properties": {
                "name": "Medusa"
            }
        },
        {
            "type": "Feature",
            "geometry": {
                "type": "Point",
                "coordinates": [
                    16.3744638,
                    48.2041025
                ]
            },
            "properties": {
                "name": "Bettel-Alm"
            }
        },
        {
            "type": "Feature",
            "geometry": {
                "type": "Point",
                "coordinates": [
                    16.6761062,
                    47.8012499
                ]
            },
            "properties": {
                "name": "Elfenhof Vinothek"
            }
        },
        {
            "type": "Feature",
            "geometry": {
                "type": "Point",
                "coordinates": [
                    14.3598094,
                    47.9493528
                ]
            },
            "properties": {
                "name": "Spozal"
            }
        },
        {
            "type": "Feature",
            "geometry": {
                "type": "Point",
                "coordinates": [
                    15.4416318,
                    47.0735802
                ]
            },
            "properties": {
                "name": "Buddha Bar"
            }
        },
        {
            "type": "Feature",
            "geometry": {
                "type": "Point",
                "coordinates": [
                    14.2893705,
                    48.3029558
                ]
            },
            "properties": {
                "name": "Sky Garden"
            }
        },
        {
            "type": "Feature",
            "geometry": {
                "type": "Point",
                "coordinates": [
                    16.3562907,
                    48.198044
                ]
            },
            "properties": {
                "name": "Joanelli"
            }
        },
        {
            "type": "Feature",
            "geometry": {
                "type": "Point",
                "coordinates": [
                    16.3769201,
                    48.1813457
                ]
            },
            "properties": {
                "name": "Vittoria"
            }
        },
        {
            "type": "Feature",
            "geometry": {
                "type": "Point",
                "coordinates": [
                    13.2524585,
                    47.841689
                ]
            },
            "properties": {
                "name": "Hexl Bar"
            }
        },
        {
            "type": "Feature",
            "geometry": {
                "type": "Point",
                "coordinates": [
                    10.7193722,
                    47.4901667
                ]
            }
        },
        {
            "type": "Feature",
            "geometry": {
                "type": "Point",
                "coordinates": [
                    15.437306,
                    47.0716819
                ]
            },
            "properties": {
                "name": "Ernst-Fuchs-Bar"
            }
        },
        {
            "type": "Feature",
            "geometry": {
                "type": "Point",
                "coordinates": [
                    14.4192557,
                    48.0383838
                ]
            },
            "properties": {
                "name": "Fun House"
            }
        },
        {
            "type": "Feature",
            "geometry": {
                "type": "Point",
                "coordinates": [
                    9.596878,
                    47.2373615
                ]
            },
            "properties": {
                "name": "Stone Club"
            }
        },
        {
            "type": "Feature",
            "geometry": {
                "type": "Point",
                "coordinates": [
                    9.732278,
                    47.2145915
                ]
            },
            "properties": {
                "name": "Gerach St\u00fcble"
            }
        },
        {
            "type": "Feature",
            "geometry": {
                "type": "Point",
                "coordinates": [
                    10.1829156,
                    47.3553411
                ]
            },
            "properties": {
                "name": "M&M"
            }
        },
        {
            "type": "Feature",
            "geometry": {
                "type": "Point",
                "coordinates": [
                    11.7729627,
                    47.3919441
                ]
            },
            "properties": {
                "name": "Pssst"
            }
        },
        {
            "type": "Feature",
            "geometry": {
                "type": "Point",
                "coordinates": [
                    13.618448,
                    47.7130481
                ]
            },
            "properties": {
                "name": "F-Joe"
            }
        },
        {
            "type": "Feature",
            "geometry": {
                "type": "Point",
                "coordinates": [
                    13.6210905,
                    47.7109762
                ]
            },
            "properties": {
                "name": "KuK-Hofbeisl"
            }
        },
        {
            "type": "Feature",
            "geometry": {
                "type": "Point",
                "coordinates": [
                    14.292882,
                    48.3084885
                ]
            },
            "properties": {
                "name": "Marco Polo"
            }
        },
        {
            "type": "Feature",
            "geometry": {
                "type": "Point",
                "coordinates": [
                    16.3253261,
                    47.2417507
                ]
            },
            "properties": {
                "name": "Akira"
            }
        },
        {
            "type": "Feature",
            "geometry": {
                "type": "Point",
                "coordinates": [
                    13.3039327,
                    47.9547824
                ]
            },
            "properties": {
                "name": "Tanzbar Landschl\u00f6ssl"
            }
        },
        {
            "type": "Feature",
            "geometry": {
                "type": "Point",
                "coordinates": [
                    16.3717832,
                    48.2043363
                ]
            },
            "properties": {
                "name": "New York Bar"
            }
        },
        {
            "type": "Feature",
            "geometry": {
                "type": "Point",
                "coordinates": [
                    16.3771324,
                    48.2082188
                ]
            },
            "properties": {
                "name": "Hillinger"
            }
        },
        {
            "type": "Feature",
            "geometry": {
                "type": "Point",
                "coordinates": [
                    16.3768297,
                    48.2062341
                ]
            },
            "properties": {
                "name": "Cafe Cristall"
            }
        },
        {
            "type": "Feature",
            "geometry": {
                "type": "Point",
                "coordinates": [
                    15.451541,
                    47.0747467
                ]
            },
            "properties": {
                "name": "Kulturhauskeller"
            }
        },
        {
            "type": "Feature",
            "geometry": {
                "type": "Point",
                "coordinates": [
                    11.6972952,
                    47.4374795
                ]
            }
        },
        {
            "type": "Feature",
            "geometry": {
                "type": "Point",
                "coordinates": [
                    9.8824927,
                    47.3510548
                ]
            },
            "properties": {
                "name": "s'B\u00e4rle Bar"
            }
        },
        {
            "type": "Feature",
            "geometry": {
                "type": "Point",
                "coordinates": [
                    16.2096061,
                    47.9670794
                ]
            },
            "properties": {
                "name": "Milchbar"
            }
        },
        {
            "type": "Feature",
            "geometry": {
                "type": "Point",
                "coordinates": [
                    15.4520425,
                    47.0751628
                ]
            },
            "properties": {
                "name": "Three Monkeys"
            }
        },
        {
            "type": "Feature",
            "geometry": {
                "type": "Point",
                "coordinates": [
                    14.2841022,
                    48.3061392
                ]
            },
            "properties": {
                "name": "Tempel Bar"
            }
        },
        {
            "type": "Feature",
            "geometry": {
                "type": "Point",
                "coordinates": [
                    14.2474861,
                    48.1949257
                ]
            },
            "properties": {
                "name": "Segafredo"
            }
        },
        {
            "type": "Feature",
            "geometry": {
                "type": "Point",
                "coordinates": [
                    14.2478632,
                    48.1965263
                ]
            }
        },
        {
            "type": "Feature",
            "geometry": {
                "type": "Point",
                "coordinates": [
                    11.8778365,
                    47.4300023
                ]
            },
            "properties": {
                "name": "Bar U-Turn"
            }
        },
        {
            "type": "Feature",
            "geometry": {
                "type": "Point",
                "coordinates": [
                    11.8792034,
                    47.4305734
                ]
            },
            "properties": {
                "name": "Bar \"Il Gusto\""
            }
        },
        {
            "type": "Feature",
            "geometry": {
                "type": "Point",
                "coordinates": [
                    11.8778153,
                    47.4303853
                ]
            },
            "properties": {
                "name": "Bar Las Vegas"
            }
        },
        {
            "type": "Feature",
            "geometry": {
                "type": "Point",
                "coordinates": [
                    14.2770759,
                    46.592336
                ]
            },
            "properties": {
                "name": "Caro's Pub"
            }
        },
        {
            "type": "Feature",
            "geometry": {
                "type": "Point",
                "coordinates": [
                    16.3736837,
                    48.2116196
                ]
            },
            "properties": {
                "name": "Domby NextDoor"
            }
        },
        {
            "type": "Feature",
            "geometry": {
                "type": "Point",
                "coordinates": [
                    10.2635498,
                    47.1280162
                ]
            },
            "properties": {
                "name": "Anton"
            }
        },
        {
            "type": "Feature",
            "geometry": {
                "type": "Point",
                "coordinates": [
                    13.6532255,
                    47.4177332
                ]
            },
            "properties": {
                "name": "Apre Ski Bar"
            }
        },
        {
            "type": "Feature",
            "geometry": {
                "type": "Point",
                "coordinates": [
                    13.6899778,
                    47.3920116
                ]
            },
            "properties": {
                "name": "cabalou"
            }
        },
        {
            "type": "Feature",
            "geometry": {
                "type": "Point",
                "coordinates": [
                    13.689121,
                    47.3911492
                ]
            },
            "properties": {
                "name": "Szenario"
            }
        },
        {
            "type": "Feature",
            "geometry": {
                "type": "Point",
                "coordinates": [
                    13.6884891,
                    47.392577
                ]
            },
            "properties": {
                "name": "Friends Cafe & Bar"
            }
        },
        {
            "type": "Feature",
            "geometry": {
                "type": "Point",
                "coordinates": [
                    13.589125,
                    47.358619
                ]
            },
            "properties": {
                "name": "Almbar"
            }
        },
        {
            "type": "Feature",
            "geometry": {
                "type": "Point",
                "coordinates": [
                    16.3729296,
                    48.2013063
                ]
            },
            "properties": {
                "name": "Imperial Bar"
            }
        },
        {
            "type": "Feature",
            "geometry": {
                "type": "Point",
                "coordinates": [
                    16.2917842,
                    48.1412929
                ]
            },
            "properties": {
                "name": "Quan"
            }
        },
        {
            "type": "Feature",
            "geometry": {
                "type": "Point",
                "coordinates": [
                    14.3084094,
                    46.6273358
                ]
            },
            "properties": {
                "name": "absoluthek"
            }
        },
        {
            "type": "Feature",
            "geometry": {
                "type": "Point",
                "coordinates": [
                    13.0929021,
                    47.6836289
                ]
            },
            "properties": {
                "name": "Caf\u00e9 Bar Zeitlos"
            }
        },
        {
            "type": "Feature",
            "geometry": {
                "type": "Point",
                "coordinates": [
                    16.2108522,
                    48.3879275
                ]
            },
            "properties": {
                "name": "K5 - cafe bar events"
            }
        },
        {
            "type": "Feature",
            "geometry": {
                "type": "Point",
                "coordinates": [
                    10.679109,
                    47.0525426
                ]
            },
            "properties": {
                "name": "Lolly Pub"
            }
        },
        {
            "type": "Feature",
            "geometry": {
                "type": "Point",
                "coordinates": [
                    10.6795792,
                    47.0522678
                ]
            },
            "properties": {
                "name": "Schneebar"
            }
        },
        {
            "type": "Feature",
            "geometry": {
                "type": "Point",
                "coordinates": [
                    13.1111133,
                    47.6801094
                ]
            },
            "properties": {
                "name": "Plauscherl"
            }
        },
        {
            "type": "Feature",
            "geometry": {
                "type": "Point",
                "coordinates": [
                    12.5970429,
                    47.3786609
                ]
            },
            "properties": {
                "name": "London Pub"
            }
        },
        {
            "type": "Feature",
            "geometry": {
                "type": "Point",
                "coordinates": [
                    12.9411587,
                    47.9445347
                ]
            },
            "properties": {
                "name": "4 Roses Bar"
            }
        },
        {
            "type": "Feature",
            "geometry": {
                "type": "Point",
                "coordinates": [
                    15.9176214,
                    46.9477881
                ]
            },
            "properties": {
                "name": "M.C.M. - Feldbach"
            }
        },
        {
            "type": "Feature",
            "geometry": {
                "type": "Point",
                "coordinates": [
                    10.6047177,
                    47.0385744
                ]
            },
            "properties": {
                "name": "Schirmbar"
            }
        },
        {
            "type": "Feature",
            "geometry": {
                "type": "Point",
                "coordinates": [
                    13.5546485,
                    47.249605
                ]
            },
            "properties": {
                "name": "QuBar"
            }
        },
        {
            "type": "Feature",
            "geometry": {
                "type": "Point",
                "coordinates": [
                    16.3488881,
                    48.2252743
                ]
            },
            "properties": {
                "name": "Caf\u00e9 zur Volksoper"
            }
        },
        {
            "type": "Feature",
            "geometry": {
                "type": "Point",
                "coordinates": [
                    16.2432669,
                    47.8139219
                ]
            },
            "properties": {
                "name": "GMBH"
            }
        },
        {
            "type": "Feature",
            "geometry": {
                "type": "Point",
                "coordinates": [
                    16.2425923,
                    47.8139676
                ]
            },
            "properties": {
                "name": "Orange"
            }
        },
        {
            "type": "Feature",
            "geometry": {
                "type": "Point",
                "coordinates": [
                    16.2425667,
                    47.814075
                ]
            },
            "properties": {
                "name": "Mephisto"
            }
        },
        {
            "type": "Feature",
            "geometry": {
                "type": "Point",
                "coordinates": [
                    16.2428855,
                    47.813949
                ]
            },
            "properties": {
                "name": "Sternberg"
            }
        },
        {
            "type": "Feature",
            "geometry": {
                "type": "Point",
                "coordinates": [
                    16.3540775,
                    48.2536376
                ]
            },
            "properties": {
                "name": "Cocktailbar"
            }
        },
        {
            "type": "Feature",
            "geometry": {
                "type": "Point",
                "coordinates": [
                    16.3328477,
                    48.1994486
                ]
            },
            "properties": {
                "name": "Cream Lounge"
            }
        },
        {
            "type": "Feature",
            "geometry": {
                "type": "Point",
                "coordinates": [
                    16.3747206,
                    48.2153796
                ]
            },
            "properties": {
                "name": "adam & luna"
            }
        },
        {
            "type": "Feature",
            "geometry": {
                "type": "Point",
                "coordinates": [
                    10.2727833,
                    47.1349123
                ]
            },
            "properties": {
                "name": "Fanghouse"
            }
        },
        {
            "type": "Feature",
            "geometry": {
                "type": "Point",
                "coordinates": [
                    16.336981,
                    48.2008367
                ]
            },
            "properties": {
                "name": "Caf\u00e9 San Marco"
            }
        },
        {
            "type": "Feature",
            "geometry": {
                "type": "Point",
                "coordinates": [
                    16.3943543,
                    48.2091034
                ]
            },
            "properties": {
                "name": "Club Massiv"
            }
        },
        {
            "type": "Feature",
            "geometry": {
                "type": "Point",
                "coordinates": [
                    16.3747466,
                    48.2104057
                ]
            },
            "properties": {
                "name": "match box"
            }
        },
        {
            "type": "Feature",
            "geometry": {
                "type": "Point",
                "coordinates": [
                    14.7495178,
                    48.0723594
                ]
            },
            "properties": {
                "name": "Evita"
            }
        },
        {
            "type": "Feature",
            "geometry": {
                "type": "Point",
                "coordinates": [
                    10.9700436,
                    47.1251866
                ]
            },
            "properties": {
                "name": "Trofana Kellerbar"
            }
        },
        {
            "type": "Feature",
            "geometry": {
                "type": "Point",
                "coordinates": [
                    13.8451913,
                    46.6143178
                ]
            },
            "properties": {
                "name": "Kookies - Bar"
            }
        },
        {
            "type": "Feature",
            "geometry": {
                "type": "Point",
                "coordinates": [
                    11.4040998,
                    47.2708069
                ]
            },
            "properties": {
                "name": "Plateau"
            }
        },
        {
            "type": "Feature",
            "geometry": {
                "type": "Point",
                "coordinates": [
                    12.4192711,
                    47.275604
                ]
            },
            "properties": {
                "name": "Bar Cafe Kramer"
            }
        },
        {
            "type": "Feature",
            "geometry": {
                "type": "Point",
                "coordinates": [
                    15.4524882,
                    47.0727347
                ]
            },
            "properties": {
                "name": "garden lounge at pharmacy bar"
            }
        },
        {
            "type": "Feature",
            "geometry": {
                "type": "Point",
                "coordinates": [
                    13.7702755,
                    48.3450547
                ]
            },
            "properties": {
                "name": "Caf\u00e9 Bar AufLauf"
            }
        },
        {
            "type": "Feature",
            "geometry": {
                "type": "Point",
                "coordinates": [
                    14.8730623,
                    48.1239031
                ]
            },
            "properties": {
                "name": "Caf\u00e9 CAFETI Bar"
            }
        },
        {
            "type": "Feature",
            "geometry": {
                "type": "Point",
                "coordinates": [
                    14.8796768,
                    48.123165
                ]
            },
            "properties": {
                "name": "K1"
            }
        },
        {
            "type": "Feature",
            "geometry": {
                "type": "Point",
                "coordinates": [
                    14.879827,
                    48.1231471
                ]
            },
            "properties": {
                "name": "Flair"
            }
        },
        {
            "type": "Feature",
            "geometry": {
                "type": "Point",
                "coordinates": [
                    9.7529146,
                    47.4730354
                ]
            },
            "properties": {
                "name": "Lorenzo B."
            }
        },
        {
            "type": "Feature",
            "geometry": {
                "type": "Point",
                "coordinates": [
                    11.3249292,
                    47.2574691
                ]
            },
            "properties": {
                "name": "Die Steireria"
            }
        },
        {
            "type": "Feature",
            "geometry": {
                "type": "Point",
                "coordinates": [
                    11.5081319,
                    47.2815875
                ]
            },
            "properties": {
                "name": "Dianabar"
            }
        },
        {
            "type": "Feature",
            "geometry": {
                "type": "Point",
                "coordinates": [
                    16.3526882,
                    48.207189
                ]
            },
            "properties": {
                "name": "Frauencafe"
            }
        },
        {
            "type": "Feature",
            "geometry": {
                "type": "Point",
                "coordinates": [
                    11.3996318,
                    47.2692575
                ]
            },
            "properties": {
                "name": "Pfiff Bar"
            }
        },
        {
            "type": "Feature",
            "geometry": {
                "type": "Point",
                "coordinates": [
                    11.3998128,
                    47.269649
                ]
            },
            "properties": {
                "name": "Kapuziner"
            }
        },
        {
            "type": "Feature",
            "geometry": {
                "type": "Point",
                "coordinates": [
                    13.3498401,
                    47.8564447
                ]
            },
            "properties": {
                "name": "Mond-Bar"
            }
        },
        {
            "type": "Feature",
            "geometry": {
                "type": "Point",
                "coordinates": [
                    16.378886,
                    48.2080721
                ]
            },
            "properties": {
                "name": "Tinto Rosso"
            }
        },
        {
            "type": "Feature",
            "geometry": {
                "type": "Point",
                "coordinates": [
                    16.3618818,
                    48.2131038
                ]
            },
            "properties": {
                "name": "Wein & Co"
            }
        },
        {
            "type": "Feature",
            "geometry": {
                "type": "Point",
                "coordinates": [
                    15.7046267,
                    47.105419
                ]
            },
            "properties": {
                "name": "Mambo"
            }
        },
        {
            "type": "Feature",
            "geometry": {
                "type": "Point",
                "coordinates": [
                    16.3378094,
                    48.2175844
                ]
            },
            "properties": {
                "name": "Subterrarium"
            }
        },
        {
            "type": "Feature",
            "geometry": {
                "type": "Point",
                "coordinates": [
                    15.3361884,
                    47.1147917
                ]
            },
            "properties": {
                "name": "G\u00dc Reloaded"
            }
        },
        {
            "type": "Feature",
            "geometry": {
                "type": "Point",
                "coordinates": [
                    13.0073461,
                    47.7937427
                ]
            },
            "properties": {
                "name": "Threesixty"
            }
        },
        {
            "type": "Feature",
            "geometry": {
                "type": "Point",
                "coordinates": [
                    14.8879416,
                    47.541128
                ]
            },
            "properties": {
                "name": "Feel"
            }
        },
        {
            "type": "Feature",
            "geometry": {
                "type": "Point",
                "coordinates": [
                    14.2841732,
                    48.3056691
                ]
            },
            "properties": {
                "name": "Stones"
            }
        },
        {
            "type": "Feature",
            "geometry": {
                "type": "Point",
                "coordinates": [
                    16.414267,
                    47.196917
                ]
            },
            "properties": {
                "name": "Vinothek Eisenberg - DAC"
            }
        },
        {
            "type": "Feature",
            "geometry": {
                "type": "Point",
                "coordinates": [
                    16.4146023,
                    47.1395789
                ]
            },
            "properties": {
                "name": "Oswald"
            }
        },
        {
            "type": "Feature",
            "geometry": {
                "type": "Point",
                "coordinates": [
                    16.4774614,
                    48.4333542
                ]
            },
            "properties": {
                "name": "La Maitrise"
            }
        },
        {
            "type": "Feature",
            "geometry": {
                "type": "Point",
                "coordinates": [
                    16.4576926,
                    47.0539946
                ]
            },
            "properties": {
                "name": "Weinstadl"
            }
        },
        {
            "type": "Feature",
            "geometry": {
                "type": "Point",
                "coordinates": [
                    16.3556018,
                    48.1896547
                ]
            },
            "properties": {
                "name": "Tik Tak Lounge"
            }
        },
        {
            "type": "Feature",
            "geometry": {
                "type": "Point",
                "coordinates": [
                    14.1778338,
                    48.2265815
                ]
            },
            "properties": {
                "name": "Calypso"
            }
        },
        {
            "type": "Feature",
            "geometry": {
                "type": "Point",
                "coordinates": [
                    15.4413546,
                    47.0725301
                ]
            },
            "properties": {
                "name": "Schreiner"
            }
        },
        {
            "type": "Feature",
            "geometry": {
                "type": "Point",
                "coordinates": [
                    16.177707,
                    48.2073722
                ]
            },
            "properties": {
                "name": "Drop In Caf\u00e9 & Bar"
            }
        },
        {
            "type": "Feature",
            "geometry": {
                "type": "Point",
                "coordinates": [
                    13.0347948,
                    47.8062401
                ]
            },
            "properties": {
                "name": "M\u00fcllner Stube"
            }
        },
        {
            "type": "Feature",
            "geometry": {
                "type": "Point",
                "coordinates": [
                    15.4309407,
                    47.0729291
                ]
            },
            "properties": {
                "name": "Stern"
            }
        },
        {
            "type": "Feature",
            "geometry": {
                "type": "Point",
                "coordinates": [
                    12.4177939,
                    46.747553
                ]
            },
            "properties": {
                "name": "P99"
            }
        },
        {
            "type": "Feature",
            "geometry": {
                "type": "Point",
                "coordinates": [
                    11.009411,
                    46.972352
                ]
            },
            "properties": {
                "name": "Kuckuck"
            }
        },
        {
            "type": "Feature",
            "geometry": {
                "type": "Point",
                "coordinates": [
                    11.0087942,
                    46.9732058
                ]
            }
        },
        {
            "type": "Feature",
            "geometry": {
                "type": "Point",
                "coordinates": [
                    11.3832252,
                    47.2659821
                ]
            },
            "properties": {
                "name": "Selles"
            }
        },
        {
            "type": "Feature",
            "geometry": {
                "type": "Point",
                "coordinates": [
                    14.2861907,
                    48.3028426
                ]
            },
            "properties": {
                "name": "Caf\u00e9 Valdes"
            }
        },
        {
            "type": "Feature",
            "geometry": {
                "type": "Point",
                "coordinates": [
                    15.444661,
                    47.0662423
                ]
            },
            "properties": {
                "name": "Music-House"
            }
        },
        {
            "type": "Feature",
            "geometry": {
                "type": "Point",
                "coordinates": [
                    11.6746298,
                    47.1080727
                ]
            },
            "properties": {
                "name": "Almhit"
            }
        },
        {
            "type": "Feature",
            "geometry": {
                "type": "Point",
                "coordinates": [
                    12.1692415,
                    47.5827909
                ]
            },
            "properties": {
                "name": "Bar Albert"
            }
        },
        {
            "type": "Feature",
            "geometry": {
                "type": "Point",
                "coordinates": [
                    14.2347448,
                    48.2262817
                ]
            },
            "properties": {
                "name": "New Melon"
            }
        },
        {
            "type": "Feature",
            "geometry": {
                "type": "Point",
                "coordinates": [
                    15.6226058,
                    48.203745
                ]
            },
            "properties": {
                "name": "Yesterday-die Bar"
            }
        },
        {
            "type": "Feature",
            "geometry": {
                "type": "Point",
                "coordinates": [
                    12.4183334,
                    46.7478077
                ]
            },
            "properties": {
                "name": "Adlerbar"
            }
        },
        {
            "type": "Feature",
            "geometry": {
                "type": "Point",
                "coordinates": [
                    12.1663389,
                    47.5769693
                ]
            },
            "properties": {
                "name": "Gasthaus Adler"
            }
        },
        {
            "type": "Feature",
            "geometry": {
                "type": "Point",
                "coordinates": [
                    16.3521986,
                    48.2135059
                ]
            },
            "properties": {
                "name": "nachBar"
            }
        },
        {
            "type": "Feature",
            "geometry": {
                "type": "Point",
                "coordinates": [
                    14.2925272,
                    48.3007939
                ]
            },
            "properties": {
                "name": "Kulturbar Konrad"
            }
        },
        {
            "type": "Feature",
            "geometry": {
                "type": "Point",
                "coordinates": [
                    16.3920274,
                    48.2168302
                ]
            },
            "properties": {
                "name": "Cafe Benu"
            }
        },
        {
            "type": "Feature",
            "geometry": {
                "type": "Point",
                "coordinates": [
                    16.2344213,
                    48.0072995
                ]
            },
            "properties": {
                "name": "Palmira"
            }
        },
        {
            "type": "Feature",
            "geometry": {
                "type": "Point",
                "coordinates": [
                    16.2326586,
                    48.0067386
                ]
            },
            "properties": {
                "name": "Friends"
            }
        },
        {
            "type": "Feature",
            "geometry": {
                "type": "Point",
                "coordinates": [
                    14.2717427,
                    48.2590799
                ]
            },
            "properties": {
                "name": "American Bar Route 66"
            }
        },
        {
            "type": "Feature",
            "geometry": {
                "type": "Point",
                "coordinates": [
                    14.1406508,
                    46.6363644
                ]
            },
            "properties": {
                "name": "barcafe mec's"
            }
        },
        {
            "type": "Feature",
            "geometry": {
                "type": "Point",
                "coordinates": [
                    16.2341578,
                    48.0068087
                ]
            },
            "properties": {
                "name": "Muggi's Steira Eck"
            }
        },
        {
            "type": "Feature",
            "geometry": {
                "type": "Point",
                "coordinates": [
                    15.3348633,
                    46.9449531
                ]
            }
        },
        {
            "type": "Feature",
            "geometry": {
                "type": "Point",
                "coordinates": [
                    15.5101548,
                    48.2011759
                ]
            },
            "properties": {
                "name": "G\u00f6s'n Bar"
            }
        },