{
    "type": "FeatureCollection",
    "features": [
        {
            "type": "Feature",
            "geometry": {
                "type": "Point",
                "coordinates": [
                    -7.792318,
                    40.953654
                ]
            },
            "properties": {
                "name": "Tasco O Varosa"
            }
        },
        {
            "type": "Feature",
            "geometry": {
                "type": "Point",
                "coordinates": [
                    -9.1000062,
                    38.4431984
                ]
            },
            "properties": {
                "name": "Tony"
            }
        },
        {
            "type": "Feature",
            "geometry": {
                "type": "Point",
                "coordinates": [
                    -9.1308342,
                    38.4482889
                ]
            }
        },
        {
            "type": "Feature",
            "geometry": {
                "type": "Point",
                "coordinates": [
                    -8.6696505,
                    37.0868805
                ]
            },
            "properties": {
                "name": "Restaurante O Camilo"
            }
        },
        {
            "type": "Feature",
            "geometry": {
                "type": "Point",
                "coordinates": [
                    -8.6744648,
                    37.0935865
                ]
            },
            "properties": {
                "name": "Tri\u00e2ngolo"
            }
        },
        {
            "type": "Feature",
            "geometry": {
                "type": "Point",
                "coordinates": [
                    -8.5654756,
                    37.3136109
                ]
            },
            "properties": {
                "name": "Jardim das Oliveiras"
            }
        },
        {
            "type": "Feature",
            "geometry": {
                "type": "Point",
                "coordinates": [
                    -8.4191926,
                    40.200475
                ]
            },
            "properties": {
                "name": "Adega T\u00edpica Pharm\u00e1cia"
            }
        },
        {
            "type": "Feature",
            "geometry": {
                "type": "Point",
                "coordinates": [
                    -8.3740231,
                    41.5671192
                ]
            },
            "properties": {
                "name": "O Gato do Rio"
            }
        },
        {
            "type": "Feature",
            "geometry": {
                "type": "Point",
                "coordinates": [
                    -8.4204718,
                    40.1998042
                ]
            },
            "properties": {
                "name": "Casa dos Crepes"
            }
        },
        {
            "type": "Feature",
            "geometry": {
                "type": "Point",
                "coordinates": [
                    -8.4195359,
                    40.200309
                ]
            },
            "properties": {
                "name": "Correia"
            }
        },
        {
            "type": "Feature",
            "geometry": {
                "type": "Point",
                "coordinates": [
                    -8.4201888,
                    40.1998856
                ]
            }
        },
        {
            "type": "Feature",
            "geometry": {
                "type": "Point",
                "coordinates": [
                    -8.4038318,
                    40.199126
                ]
            },
            "properties": {
                "name": "Dom Duarte II"
            }
        },
        {
            "type": "Feature",
            "geometry": {
                "type": "Point",
                "coordinates": [
                    -8.4171868,
                    40.2061584
                ]
            },
            "properties": {
                "name": "Taberna Costa"
            }
        },
        {
            "type": "Feature",
            "geometry": {
                "type": "Point",
                "coordinates": [
                    -8.3355142,
                    40.1584779
                ]
            },
            "properties": {
                "name": "Restaurante O Pent\u00e1gono"
            }
        },
        {
            "type": "Feature",
            "geometry": {
                "type": "Point",
                "coordinates": [
                    -8.9939849,
                    38.9541985
                ]
            },
            "properties": {
                "name": "Restaurante a Mina"
            }
        },
        {
            "type": "Feature",
            "geometry": {
                "type": "Point",
                "coordinates": [
                    -8.6481634,
                    37.1193986
                ]
            },
            "properties": {
                "name": "O Jardim"
            }
        },
        {
            "type": "Feature",
            "geometry": {
                "type": "Point",
                "coordinates": [
                    -8.5327931,
                    37.1402599
                ]
            },
            "properties": {
                "name": "Dona Barca"
            }
        },
        {
            "type": "Feature",
            "geometry": {
                "type": "Point",
                "coordinates": [
                    -8.672963,
                    37.1004021
                ]
            },
            "properties": {
                "name": "Mullen's"
            }
        },
        {
            "type": "Feature",
            "geometry": {
                "type": "Point",
                "coordinates": [
                    -8.6722925,
                    37.1016878
                ]
            },
            "properties": {
                "name": "Os Arcos"
            }
        },
        {
            "type": "Feature",
            "geometry": {
                "type": "Point",
                "coordinates": [
                    -8.6723649,
                    37.1018246
                ]
            },
            "properties": {
                "name": "Dom Sebasti\u00e3o"
            }
        },
        {
            "type": "Feature",
            "geometry": {
                "type": "Point",
                "coordinates": [
                    -9.1522811,
                    38.7318639
                ]
            },
            "properties": {
                "name": "Saraiva"
            }
        },
        {
            "type": "Feature",
            "geometry": {
                "type": "Point",
                "coordinates": [
                    -16.9023582,
                    32.6756102
                ]
            },
            "properties": {
                "name": "Belmonte"
            }
        },
        {
            "type": "Feature",
            "geometry": {
                "type": "Point",
                "coordinates": [
                    -16.853042,
                    32.7865457
                ]
            },
            "properties": {
                "name": "Ponta Velha"
            }
        },
        {
            "type": "Feature",
            "geometry": {
                "type": "Point",
                "coordinates": [
                    -16.9747816,
                    32.6492492
                ]
            },
            "properties": {
                "name": "Vila do Peixe"
            }
        },
        {
            "type": "Feature",
            "geometry": {
                "type": "Point",
                "coordinates": [
                    -16.9754888,
                    32.649446
                ]
            },
            "properties": {
                "name": "Vila da Carne"
            }
        },
        {
            "type": "Feature",
            "geometry": {
                "type": "Point",
                "coordinates": [
                    -9.4192335,
                    39.005058
                ]
            },
            "properties": {
                "name": "Estrela do Mar"
            }
        },
        {
            "type": "Feature",
            "geometry": {
                "type": "Point",
                "coordinates": [
                    -16.904022,
                    32.6487598
                ]
            },
            "properties": {
                "name": "Restaurante Pastelaria"
            }
        },
        {
            "type": "Feature",
            "geometry": {
                "type": "Point",
                "coordinates": [
                    -16.7649892,
                    32.7178114
                ]
            },
            "properties": {
                "name": "Restaurante Mercado Velho"
            }
        },
        {
            "type": "Feature",
            "geometry": {
                "type": "Point",
                "coordinates": [
                    -16.764163,
                    32.717789
                ]
            }
        },
        {
            "type": "Feature",
            "geometry": {
                "type": "Point",
                "coordinates": [
                    -16.7915112,
                    32.6873268
                ]
            },
            "properties": {
                "name": "Esplanada Alameda"
            }
        },
        {
            "type": "Feature",
            "geometry": {
                "type": "Point",
                "coordinates": [
                    -16.7901077,
                    32.6878906
                ]
            },
            "properties": {
                "name": "Praia das Palmeiras"
            }
        },
        {
            "type": "Feature",
            "geometry": {
                "type": "Point",
                "coordinates": [
                    -16.7915473,
                    32.6880498
                ]
            },
            "properties": {
                "name": "Taberna Petisco"
            }
        },
        {
            "type": "Feature",
            "geometry": {
                "type": "Point",
                "coordinates": [
                    -16.7914132,
                    32.6879709
                ]
            },
            "properties": {
                "name": "Praca da Cerveja"
            }
        },
        {
            "type": "Feature",
            "geometry": {
                "type": "Point",
                "coordinates": [
                    -16.792042,
                    32.6883197
                ]
            },
            "properties": {
                "name": "Bom Jesus"
            }
        },
        {
            "type": "Feature",
            "geometry": {
                "type": "Point",
                "coordinates": [
                    -17.087803,
                    32.679475
                ]
            },
            "properties": {
                "name": "Lareira Portuguesa"
            }
        },
        {
            "type": "Feature",
            "geometry": {
                "type": "Point",
                "coordinates": [
                    -17.0874366,
                    32.6798127
                ]
            },
            "properties": {
                "name": "Lugar de Baixo"
            }
        },
        {
            "type": "Feature",
            "geometry": {
                "type": "Point",
                "coordinates": [
                    -17.1328738,
                    32.6997825
                ]
            },
            "properties": {
                "name": "Cantinho da Madalena"
            }
        },
        {
            "type": "Feature",
            "geometry": {
                "type": "Point",
                "coordinates": [
                    -17.1343695,
                    32.7034702
                ]
            },
            "properties": {
                "name": "A Poita"
            }
        },
        {
            "type": "Feature",
            "geometry": {
                "type": "Point",
                "coordinates": [
                    -8.5629402,
                    41.2635556
                ]
            }
        },
        {
            "type": "Feature",
            "geometry": {
                "type": "Point",
                "coordinates": [
                    -16.8473358,
                    32.7884071
                ]
            },
            "properties": {
                "name": "Gal\u00e9"
            }
        },
        {
            "type": "Feature",
            "geometry": {
                "type": "Point",
                "coordinates": [
                    -17.1035408,
                    32.8217439
                ]
            },
            "properties": {
                "name": "Brisa Mar"
            }
        },
        {
            "type": "Feature",
            "geometry": {
                "type": "Point",
                "coordinates": [
                    -17.1042064,
                    32.678553
                ]
            },
            "properties": {
                "name": "Sol Poente"
            }
        },
        {
            "type": "Feature",
            "geometry": {
                "type": "Point",
                "coordinates": [
                    -17.1046748,
                    32.6793978
                ]
            },
            "properties": {
                "name": "Mar\u00e9 Alta"
            }
        },
        {
            "type": "Feature",
            "geometry": {
                "type": "Point",
                "coordinates": [
                    -16.8512607,
                    32.7861231
                ]
            },
            "properties": {
                "name": "Grutas Do Faial"
            }
        },
        {
            "type": "Feature",
            "geometry": {
                "type": "Point",
                "coordinates": [
                    -16.8664785,
                    32.7958296
                ]
            },
            "properties": {
                "name": "Curtado"
            }
        },
        {
            "type": "Feature",
            "geometry": {
                "type": "Point",
                "coordinates": [
                    -9.4174239,
                    38.9816051
                ]
            }
        },
        {
            "type": "Feature",
            "geometry": {
                "type": "Point",
                "coordinates": [
                    -9.4195439,
                    38.9777819
                ]
            }
        },
        {
            "type": "Feature",
            "geometry": {
                "type": "Point",
                "coordinates": [
                    -9.416248,
                    38.9997641
                ]
            }
        },
        {
            "type": "Feature",
            "geometry": {
                "type": "Point",
                "coordinates": [
                    -9.4180161,
                    39.0021853
                ]
            }
        },
        {
            "type": "Feature",
            "geometry": {
                "type": "Point",
                "coordinates": [
                    -9.4203335,
                    39.0058471
                ]
            }
        },
        {
            "type": "Feature",
            "geometry": {
                "type": "Point",
                "coordinates": [
                    -9.4186427,
                    39.0064808
                ]
            }
        },
        {
            "type": "Feature",
            "geometry": {
                "type": "Point",
                "coordinates": [
                    -9.4148146,
                    39.0093887
                ]
            }
        },
        {
            "type": "Feature",
            "geometry": {
                "type": "Point",
                "coordinates": [
                    -9.4158446,
                    39.0011915
                ]
            }
        },
        {
            "type": "Feature",
            "geometry": {
                "type": "Point",
                "coordinates": [
                    -9.421106,
                    39.0133902
                ]
            }
        },
        {
            "type": "Feature",
            "geometry": {
                "type": "Point",
                "coordinates": [
                    -9.4177249,
                    39.0027454
                ]
            }
        },
        {
            "type": "Feature",
            "geometry": {
                "type": "Point",
                "coordinates": [
                    -17.0459798,
                    32.8102265
                ]
            }
        },
        {
            "type": "Feature",
            "geometry": {
                "type": "Point",
                "coordinates": [
                    -17.0486939,
                    32.808649
                ]
            },
            "properties": {
                "name": "Quebra \u041car Restaurant"
            }
        },
        {
            "type": "Feature",
            "geometry": {
                "type": "Point",
                "coordinates": [
                    -17.0492092,
                    32.8083941
                ]
            },
            "properties": {
                "name": "Frente Mar"
            }
        },
        {
            "type": "Feature",
            "geometry": {
                "type": "Point",
                "coordinates": [
                    -17.0493483,
                    32.8083484
                ]
            },
            "properties": {
                "name": "Caravela"
            }
        },
        {
            "type": "Feature",
            "geometry": {
                "type": "Point",
                "coordinates": [
                    -17.0500582,
                    32.808219
                ]
            },
            "properties": {
                "name": "Praia Mar"
            }
        },
        {
            "type": "Feature",
            "geometry": {
                "type": "Point",
                "coordinates": [
                    -17.0498812,
                    32.8082301
                ]
            },
            "properties": {
                "name": "Xapa Gril"
            }
        },
        {
            "type": "Feature",
            "geometry": {
                "type": "Point",
                "coordinates": [
                    -17.1704642,
                    32.8680899
                ]
            },
            "properties": {
                "name": "Orca"
            }
        },
        {
            "type": "Feature",
            "geometry": {
                "type": "Point",
                "coordinates": [
                    -17.1705694,
                    32.8676946
                ]
            },
            "properties": {
                "name": "Salgueiro"
            }
        },
        {
            "type": "Feature",
            "geometry": {
                "type": "Point",
                "coordinates": [
                    -17.1669501,
                    32.8660856
                ]
            },
            "properties": {
                "name": "Atlantico"
            }
        },
        {
            "type": "Feature",
            "geometry": {
                "type": "Point",
                "coordinates": [
                    -8.8470739,
                    37.3483517
                ]
            },
            "properties": {
                "name": "Taberna do Gabriel"
            }
        },
        {
            "type": "Feature",
            "geometry": {
                "type": "Point",
                "coordinates": [
                    -8.5086536,
                    38.371422
                ]
            },
            "properties": {
                "name": "Hortel\u00e3 da Ribeira"
            }
        },
        {
            "type": "Feature",
            "geometry": {
                "type": "Point",
                "coordinates": [
                    -9.1500561,
                    38.7243442
                ]
            },
            "properties": {
                "name": "The Great American Disaster"
            }
        },
        {
            "type": "Feature",
            "geometry": {
                "type": "Point",
                "coordinates": [
                    -8.8512251,
                    37.3042885
                ]
            },
            "properties": {
                "name": "Fonte do Vale"
            }
        },
        {
            "type": "Feature",
            "geometry": {
                "type": "Point",
                "coordinates": [
                    -8.8505881,
                    37.3043553
                ]
            },
            "properties": {
                "name": "Taska do Karisma"
            }
        },
        {
            "type": "Feature",
            "geometry": {
                "type": "Point",
                "coordinates": [
                    -8.5948333,
                    37.1230413
                ]
            },
            "properties": {
                "name": "Cinco Quinas"
            }
        },
        {
            "type": "Feature",
            "geometry": {
                "type": "Point",
                "coordinates": [
                    -7.9126395,
                    40.6599645
                ]
            },
            "properties": {
                "name": "Tia Iva"
            }
        },
        {
            "type": "Feature",
            "geometry": {
                "type": "Point",
                "coordinates": [
                    -9.4971328,
                    38.7805387
                ]
            }
        },
        {
            "type": "Feature",
            "geometry": {
                "type": "Point",
                "coordinates": [
                    -9.141757,
                    38.7166133
                ]
            },
            "properties": {
                "name": "Hard Rock Cafe Lisboa"
            }
        },
        {
            "type": "Feature",
            "geometry": {
                "type": "Point",
                "coordinates": [
                    -8.2621247,
                    41.3022093
                ]
            },
            "properties": {
                "name": "Sol - Area Servi\u00e7o de Lousada"
            }
        },
        {
            "type": "Feature",
            "geometry": {
                "type": "Point",
                "coordinates": [
                    -8.0537312,
                    41.4539529
                ]
            }
        },
        {
            "type": "Feature",
            "geometry": {
                "type": "Point",
                "coordinates": [
                    -7.8699673,
                    41.7371721
                ]
            },
            "properties": {
                "name": "A Brasa Churrasqueira"
            }
        },
        {
            "type": "Feature",
            "geometry": {
                "type": "Point",
                "coordinates": [
                    -9.147032,
                    38.7305751
                ]
            },
            "properties": {
                "name": "Pizza Hut"
            }
        },
        {
            "type": "Feature",
            "geometry": {
                "type": "Point",
                "coordinates": [
                    -9.1455694,
                    38.7181699
                ]
            },
            "properties": {
                "name": "Gioia Food Lab"
            }
        },
        {
            "type": "Feature",
            "geometry": {
                "type": "Point",
                "coordinates": [
                    -8.3741285,
                    41.5532584
                ]
            },
            "properties": {
                "name": "Casa Velha"
            }
        },
        {
            "type": "Feature",
            "geometry": {
                "type": "Point",
                "coordinates": [
                    -8.3743482,
                    41.55305
                ]
            },
            "properties": {
                "name": "O Paulo"
            }
        },
        {
            "type": "Feature",
            "geometry": {
                "type": "Point",
                "coordinates": [
                    -8.3739397,
                    41.5529553
                ]
            },
            "properties": {
                "name": "Central Bom Jesus"
            }
        },
        {
            "type": "Feature",
            "geometry": {
                "type": "Point",
                "coordinates": [
                    -8.373665,
                    41.55248
                ]
            },
            "properties": {
                "name": "\u00c1gueda"
            }
        },
        {
            "type": "Feature",
            "geometry": {
                "type": "Point",
                "coordinates": [
                    -8.5922552,
                    41.1607731
                ]
            },
            "properties": {
                "name": "Scala"
            }
        },
        {
            "type": "Feature",
            "geometry": {
                "type": "Point",
                "coordinates": [
                    -8.5917705,
                    41.160823
                ]
            },
            "properties": {
                "name": "Vit\u00f3ria"
            }
        },
        {
            "type": "Feature",
            "geometry": {
                "type": "Point",
                "coordinates": [
                    -8.5975147,
                    41.1590503
                ]
            },
            "properties": {
                "name": "Barrigas"
            }
        },
        {
            "type": "Feature",
            "geometry": {
                "type": "Point",
                "coordinates": [
                    -8.5932339,
                    41.166263
                ]
            },
            "properties": {
                "name": "Al Forno"
            }
        },
        {
            "type": "Feature",
            "geometry": {
                "type": "Point",
                "coordinates": [
                    -8.5982894,
                    41.1656169
                ]
            },
            "properties": {
                "name": "Cidade"
            }
        },
        {
            "type": "Feature",
            "geometry": {
                "type": "Point",
                "coordinates": [
                    -8.6729679,
                    37.1035795
                ]
            },
            "properties": {
                "name": "Mamma Mia"
            }
        },
        {
            "type": "Feature",
            "geometry": {
                "type": "Point",
                "coordinates": [
                    -8.6731119,
                    37.1007824
                ]
            },
            "properties": {
                "name": "Restaurante Dos Artistos"
            }
        },
        {
            "type": "Feature",
            "geometry": {
                "type": "Point",
                "coordinates": [
                    -8.6334459,
                    41.2260793
                ]
            },
            "properties": {
                "name": "Quinta das Raparigas"
            }
        },
        {
            "type": "Feature",
            "geometry": {
                "type": "Point",
                "coordinates": [
                    -8.5498357,
                    41.431235
                ]
            },
            "properties": {
                "name": "Casa do Outeirinho"
            }
        },
        {
            "type": "Feature",
            "geometry": {
                "type": "Point",
                "coordinates": [
                    -8.6303451,
                    41.0085694
                ]
            },
            "properties": {
                "name": "Pizzaria Tomate"
            }
        },
        {
            "type": "Feature",
            "geometry": {
                "type": "Point",
                "coordinates": [
                    -9.4777754,
                    38.8129055
                ]
            },
            "properties": {
                "name": "Angra"
            }
        },
        {
            "type": "Feature",
            "geometry": {
                "type": "Point",
                "coordinates": [
                    -7.8002905,
                    40.0667402
                ]
            },
            "properties": {
                "name": "Fiado"
            }
        },
        {
            "type": "Feature",
            "geometry": {
                "type": "Point",
                "coordinates": [
                    -7.8475998,
                    40.0154726
                ]
            },
            "properties": {
                "name": "Slide"
            }
        },
        {
            "type": "Feature",
            "geometry": {
                "type": "Point",
                "coordinates": [
                    -9.5062166,
                    39.4143873
                ]
            },
            "properties": {
                "name": "Mar & Sol"
            }
        },
        {
            "type": "Feature",
            "geometry": {
                "type": "Point",
                "coordinates": [
                    -9.4085939,
                    39.3593783
                ]
            },
            "properties": {
                "name": "Nau Dos Corvos"
            }
        },
        {
            "type": "Feature",
            "geometry": {
                "type": "Point",
                "coordinates": [
                    -9.3792772,
                    39.3615314
                ]
            },
            "properties": {
                "name": "Sr. Pizza"
            }
        },
        {
            "type": "Feature",
            "geometry": {
                "type": "Point",
                "coordinates": [
                    -9.1618773,
                    38.7762224
                ]
            },
            "properties": {
                "name": "Toledo"
            }
        },
        {
            "type": "Feature",
            "geometry": {
                "type": "Point",
                "coordinates": [
                    -8.8672375,
                    37.2969765
                ]
            },
            "properties": {
                "name": "Oceano"
            }
        },
        {
            "type": "Feature",
            "geometry": {
                "type": "Point",
                "coordinates": [
                    -8.9333178,
                    37.0094174
                ]
            },
            "properties": {
                "name": "O Pescador"
            }
        },
        {
            "type": "Feature",
            "geometry": {
                "type": "Point",
                "coordinates": [
                    -8.8657338,
                    37.2959535
                ]
            },
            "properties": {
                "name": "Brisamar"
            }
        },
        {
            "type": "Feature",
            "geometry": {
                "type": "Point",
                "coordinates": [
                    -8.8682482,
                    37.2964895
                ]
            },
            "properties": {
                "name": "Sol E Mar"
            }
        },
        {
            "type": "Feature",
            "geometry": {
                "type": "Point",
                "coordinates": [
                    -8.8035383,
                    37.3146571
                ]
            },
            "properties": {
                "name": "Primavera"
            }
        },
        {
            "type": "Feature",
            "geometry": {
                "type": "Point",
                "coordinates": [
                    -8.8033396,
                    37.3171591
                ]
            },
            "properties": {
                "name": "Ponte a P\u00e9"
            }
        },
        {
            "type": "Feature",
            "geometry": {
                "type": "Point",
                "coordinates": [
                    -7.6478297,
                    37.125716
                ]
            },
            "properties": {
                "name": "Restaurante Gilao"
            }
        },
        {
            "type": "Feature",
            "geometry": {
                "type": "Point",
                "coordinates": [
                    -16.3789612,
                    33.0249809
                ]
            },
            "properties": {
                "name": "O Calhetas"
            }
        },
        {
            "type": "Feature",
            "geometry": {
                "type": "Point",
                "coordinates": [
                    -7.9355556,
                    37.0154185
                ]
            },
            "properties": {
                "name": "Caf\u00e9 do Coreto"
            }
        },
        {
            "type": "Feature",
            "geometry": {
                "type": "Point",
                "coordinates": [
                    -7.009337,
                    40.0335314
                ]
            },
            "properties": {
                "name": "O Javali"
            }
        },
        {
            "type": "Feature",
            "geometry": {
                "type": "Point",
                "coordinates": [
                    -8.6553449,
                    40.6424486
                ]
            },
            "properties": {
                "name": "Restaurante Mercado do Peixe"
            }
        },
        {
            "type": "Feature",
            "geometry": {
                "type": "Point",
                "coordinates": [
                    -7.4889543,
                    39.887952
                ]
            }
        },
        {
            "type": "Feature",
            "geometry": {
                "type": "Point",
                "coordinates": [
                    -7.5204099,
                    37.1655107
                ]
            },
            "properties": {
                "name": "Rios's"
            }
        },
        {
            "type": "Feature",
            "geometry": {
                "type": "Point",
                "coordinates": [
                    -7.5207133,
                    37.165917
                ]
            },
            "properties": {
                "name": "Finalmente"
            }
        },
        {
            "type": "Feature",
            "geometry": {
                "type": "Point",
                "coordinates": [
                    -7.5221881,
                    37.1676182
                ]
            },
            "properties": {
                "name": "A Proa"
            }
        },
        {
            "type": "Feature",
            "geometry": {
                "type": "Point",
                "coordinates": [
                    -7.5226107,
                    37.1681764
                ]
            },
            "properties": {
                "name": "Manta-Rota"
            }
        },
        {
            "type": "Feature",
            "geometry": {
                "type": "Point",
                "coordinates": [
                    -8.4773315,
                    37.1048173
                ]
            },
            "properties": {
                "name": "Quinta do Para\u00edso"
            }
        },
        {
            "type": "Feature",
            "geometry": {
                "type": "Point",
                "coordinates": [
                    -8.4725595,
                    37.1068605
                ]
            }
        },
        {
            "type": "Feature",
            "geometry": {
                "type": "Point",
                "coordinates": [
                    -9.14226,
                    38.6507506
                ]
            }
        },
        {
            "type": "Feature",
            "geometry": {
                "type": "Point",
                "coordinates": [
                    -6.7262661,
                    41.8121172
                ]
            },
            "properties": {
                "name": "Nordeste"
            }
        },
        {
            "type": "Feature",
            "geometry": {
                "type": "Point",
                "coordinates": [
                    -7.4922339,
                    39.8225998
                ]
            },
            "properties": {
                "name": "Kalifa"
            }
        },
        {
            "type": "Feature",
            "geometry": {
                "type": "Point",
                "coordinates": [
                    -9.1416365,
                    38.7119688
                ]
            },
            "properties": {
                "name": "Aqui h\u00e1 Peixe"
            }
        },
        {
            "type": "Feature",
            "geometry": {
                "type": "Point",
                "coordinates": [
                    -9.1414129,
                    38.7123732
                ]
            },
            "properties": {
                "name": "Casa Alcoba\u00e7a"
            }
        },
        {
            "type": "Feature",
            "geometry": {
                "type": "Point",
                "coordinates": [
                    -9.1422883,
                    38.7131427
                ]
            },
            "properties": {
                "name": "Ca\u00e7ador de Oliveira"
            }
        },
        {
            "type": "Feature",
            "geometry": {
                "type": "Point",
                "coordinates": [
                    -9.1416319,
                    38.7129747
                ]
            },
            "properties": {
                "name": "Adega da Condessa"
            }
        },
        {
            "type": "Feature",
            "geometry": {
                "type": "Point",
                "coordinates": [
                    -9.1434568,
                    38.7121651
                ]
            },
            "properties": {
                "name": "Lisbo\u00e0 Noite"
            }
        },
        {
            "type": "Feature",
            "geometry": {
                "type": "Point",
                "coordinates": [
                    -9.1433503,
                    38.7122671
                ]
            },
            "properties": {
                "name": "Restaurante 560"
            }
        },
        {
            "type": "Feature",
            "geometry": {
                "type": "Point",
                "coordinates": [
                    -9.1433546,
                    38.7123643
                ]
            },
            "properties": {
                "name": "Restaurante Osignal"
            }
        },
        {
            "type": "Feature",
            "geometry": {
                "type": "Point",
                "coordinates": [
                    -9.1435865,
                    38.7130399
                ]
            },
            "properties": {
                "name": "Mojito company - Tosca Cubana"
            }
        },
        {
            "type": "Feature",
            "geometry": {
                "type": "Point",
                "coordinates": [
                    -9.1444802,
                    38.7137566
                ]
            },
            "properties": {
                "name": "Restaurante Indiano"
            }
        },
        {
            "type": "Feature",
            "geometry": {
                "type": "Point",
                "coordinates": [
                    -8.605705,
                    37.1879364
                ]
            },
            "properties": {
                "name": "Solar do Farelo"
            }
        },
        {
            "type": "Feature",
            "geometry": {
                "type": "Point",
                "coordinates": [
                    -8.5907791,
                    37.1983494
                ]
            },
            "properties": {
                "name": "Fonte da Pedra"
            }
        },
        {
            "type": "Feature",
            "geometry": {
                "type": "Point",
                "coordinates": [
                    -8.6765566,
                    41.1514309
                ]
            },
            "properties": {
                "name": "Cepa"
            }
        },
        {
            "type": "Feature",
            "geometry": {
                "type": "Point",
                "coordinates": [
                    -25.310171,
                    37.7735145
                ]
            },
            "properties": {
                "name": "O Miroma"
            }
        },
        {
            "type": "Feature",
            "geometry": {
                "type": "Point",
                "coordinates": [
                    -9.1407154,
                    38.7154534
                ]
            },
            "properties": {
                "name": "Pin\u00f3quio"
            }
        },
        {
            "type": "Feature",
            "geometry": {
                "type": "Point",
                "coordinates": [
                    -8.1183514,
                    37.0754104
                ]
            },
            "properties": {
                "name": "Petunia"
            }
        },
        {
            "type": "Feature",
            "geometry": {
                "type": "Point",
                "coordinates": [
                    -8.6689163,
                    41.2533321
                ]
            },
            "properties": {
                "name": "Restaurante Via Lidador"
            }
        },
        {
            "type": "Feature",
            "geometry": {
                "type": "Point",
                "coordinates": [
                    -8.6461445,
                    41.2522557
                ]
            },
            "properties": {
                "name": "Os Teixeiras"
            }
        },
        {
            "type": "Feature",
            "geometry": {
                "type": "Point",
                "coordinates": [
                    -9.161159,
                    38.4774833
                ]
            }
        },
        {
            "type": "Feature",
            "geometry": {
                "type": "Point",
                "coordinates": [
                    -8.6556364,
                    40.6407427
                ]
            },
            "properties": {
                "name": "Marisqueira Mar\u00e9 Cheia"
            }
        },
        {
            "type": "Feature",
            "geometry": {
                "type": "Point",
                "coordinates": [
                    -9.0256023,
                    38.9602742
                ]
            },
            "properties": {
                "name": "O Barril"
            }
        },
        {
            "type": "Feature",
            "geometry": {
                "type": "Point",
                "coordinates": [
                    -9.0258255,
                    38.9603076
                ]
            },
            "properties": {
                "name": "A Nortenha"
            }
        },
        {
            "type": "Feature",
            "geometry": {
                "type": "Point",
                "coordinates": [
                    -28.6264215,
                    38.5278623
                ]
            },
            "properties": {
                "name": "Canto da Doca"
            }
        },
        {
            "type": "Feature",
            "geometry": {
                "type": "Point",
                "coordinates": [
                    -8.4035458,
                    41.5485911
                ]
            },
            "properties": {
                "name": "Temperos da Gracinda"
            }
        },
        {
            "type": "Feature",
            "geometry": {
                "type": "Point",
                "coordinates": [
                    -8.3922618,
                    41.562912
                ]
            },
            "properties": {
                "name": "Restaurante New York"
            }
        },
        {
            "type": "Feature",
            "geometry": {
                "type": "Point",
                "coordinates": [
                    -8.3984846,
                    41.5587041
                ]
            },
            "properties": {
                "name": "Ponto.com"
            }
        },
        {
            "type": "Feature",
            "geometry": {
                "type": "Point",
                "coordinates": [
                    -8.3986242,
                    41.5589471
                ]
            },
            "properties": {
                "name": "Bachio Pizzeria Ristorante"
            }
        },
        {
            "type": "Feature",
            "geometry": {
                "type": "Point",
                "coordinates": [
                    -8.3983389,
                    41.5578481
                ]
            },
            "properties": {
                "name": "Sabor da Fruta"
            }
        },
        {
            "type": "Feature",
            "geometry": {
                "type": "Point",
                "coordinates": [
                    -25.3113433,
                    37.7735247
                ]
            },
            "properties": {
                "name": "Restaurante Tony's"
            }
        },
        {
            "type": "Feature",
            "geometry": {
                "type": "Point",
                "coordinates": [
                    -28.711097,
                    38.5220462
                ]
            }
        },
        {
            "type": "Feature",
            "geometry": {
                "type": "Point",
                "coordinates": [
                    -8.6673501,
                    41.5043581
                ]
            },
            "properties": {
                "name": "Novo Horizonte"
            }
        },
        {
            "type": "Feature",
            "geometry": {
                "type": "Point",
                "coordinates": [
                    -9.1552935,
                    38.735203
                ]
            },
            "properties": {
                "name": "Gustus & Sushi Alentejano"
            }
        },
        {
            "type": "Feature",
            "geometry": {
                "type": "Point",
                "coordinates": [
                    -8.6708519,
                    37.1173817
                ]
            },
            "properties": {
                "name": "Vitasol Park"
            }
        },
        {
            "type": "Feature",
            "geometry": {
                "type": "Point",
                "coordinates": [
                    -17.1398232,
                    32.7075082
                ]
            },
            "properties": {
                "name": "Costa Verde"
            }
        },
        {
            "type": "Feature",
            "geometry": {
                "type": "Point",
                "coordinates": [
                    -16.8327589,
                    32.6412375
                ]
            },
            "properties": {
                "name": "Lido Galomar"
            }
        },
        {
            "type": "Feature",
            "geometry": {
                "type": "Point",
                "coordinates": [
                    -16.8329998,
                    32.6416986
                ]
            },
            "properties": {
                "name": "O Galo"
            }
        },
        {
            "type": "Feature",
            "geometry": {
                "type": "Point",
                "coordinates": [
                    -16.8323583,
                    32.642095
                ]
            },
            "properties": {
                "name": "Pizzaria Galosol"
            }
        },
        {
            "type": "Feature",
            "geometry": {
                "type": "Point",
                "coordinates": [
                    -16.829295,
                    32.6442086
                ]
            },
            "properties": {
                "name": "A Traineira"
            }
        },
        {
            "type": "Feature",
            "geometry": {
                "type": "Point",
                "coordinates": [
                    -16.8962213,
                    32.6624368
                ]
            }
        },
        {
            "type": "Feature",
            "geometry": {
                "type": "Point",
                "coordinates": [
                    -17.0654771,
                    32.6704884
                ]
            },
            "properties": {
                "name": "Don Luis"
            }
        },
        {
            "type": "Feature",
            "geometry": {
                "type": "Point",
                "coordinates": [
                    -17.066238,
                    32.670828
                ]
            },
            "properties": {
                "name": "Bordo d'Agua"
            }
        },
        {
            "type": "Feature",
            "geometry": {
                "type": "Point",
                "coordinates": [
                    -17.2096269,
                    32.7368136
                ]
            },
            "properties": {
                "name": "TarMar"
            }
        },
        {
            "type": "Feature",
            "geometry": {
                "type": "Point",
                "coordinates": [
                    -17.2111515,
                    32.7385191
                ]
            },
            "properties": {
                "name": "Joe's Bar"
            }
        },
        {
            "type": "Feature",
            "geometry": {
                "type": "Point",
                "coordinates": [
                    -9.1428539,
                    38.7189975
                ]
            },
            "properties": {
                "name": "Z\u00e9 Varunca"
            }
        },
        {
            "type": "Feature",
            "geometry": {
                "type": "Point",
                "coordinates": [
                    -9.1444252,
                    38.7174766
                ]
            },
            "properties": {
                "name": "Restaurante As Velhas"
            }
        },
        {
            "type": "Feature",
            "geometry": {
                "type": "Point",
                "coordinates": [
                    -16.8298005,
                    32.6444646
                ]
            }
        },
        {
            "type": "Feature",
            "geometry": {
                "type": "Point",
                "coordinates": [
                    -16.8276776,
                    32.6465604
                ]
            },
            "properties": {
                "name": "O Laranjinha"
            }
        },
        {
            "type": "Feature",
            "geometry": {
                "type": "Point",
                "coordinates": [
                    -9.4779542,
                    38.8125663
                ]
            },
            "properties": {
                "name": "Casa da Gal\u00e9"
            }
        },
        {
            "type": "Feature",
            "geometry": {
                "type": "Point",
                "coordinates": [
                    -9.3358751,
                    38.6902657
                ]
            },
            "properties": {
                "name": "Ashiana"
            }
        },
        {
            "type": "Feature",
            "geometry": {
                "type": "Point",
                "coordinates": [
                    -8.3831641,
                    41.1895827
                ]
            },
            "properties": {
                "name": "O Zang\u00e3o"
            }
        },
        {
            "type": "Feature",
            "geometry": {
                "type": "Point",
                "coordinates": [
                    -9.2988126,
                    38.692249
                ]
            }
        },
        {
            "type": "Feature",
            "geometry": {
                "type": "Point",
                "coordinates": [
                    -9.2991155,
                    38.6921407
                ]
            },
            "properties": {
                "name": "Xico"
            }
        },
        {
            "type": "Feature",
            "geometry": {
                "type": "Point",
                "coordinates": [
                    -9.1569126,
                    38.707271
                ]
            },
            "properties": {
                "name": "Mimosa de Santos"
            }
        },
        {
            "type": "Feature",
            "geometry": {
                "type": "Point",
                "coordinates": [
                    -8.2961992,
                    37.0757644
                ]
            },
            "properties": {
                "name": "Vista Mar"
            }
        },
        {
            "type": "Feature",
            "geometry": {
                "type": "Point",
                "coordinates": [
                    -8.6935762,
                    41.1910784
                ]
            },
            "properties": {
                "name": "Restaurante Z\u00e9 D'Av\u00f3"
            }
        },
        {
            "type": "Feature",
            "geometry": {
                "type": "Point",
                "coordinates": [
                    -8.384159,
                    41.1753973
                ]
            },
            "properties": {
                "name": "O Anfitri\u00e3o"
            }
        },
        {
            "type": "Feature",
            "geometry": {
                "type": "Point",
                "coordinates": [
                    -8.3895804,
                    41.1919668
                ]
            },
            "properties": {
                "name": "O Baltarense"
            }
        },
        {
            "type": "Feature",
            "geometry": {
                "type": "Point",
                "coordinates": [
                    -8.3868131,
                    41.1931686
                ]
            },
            "properties": {
                "name": "Churrasqueira do Vasco"
            }
        },
        {
            "type": "Feature",
            "geometry": {
                "type": "Point",
                "coordinates": [
                    -8.3956536,
                    41.1902136
                ]
            },
            "properties": {
                "name": "O Corti\u00e7o"
            }
        },
        {
            "type": "Feature",
            "geometry": {
                "type": "Point",
                "coordinates": [
                    -8.3968338,
                    41.19069
                ]
            },
            "properties": {
                "name": "Churrasqueira Baltar"
            }
        },
        {
            "type": "Feature",
            "geometry": {
                "type": "Point",
                "coordinates": [
                    -8.3901712,
                    41.1921836
                ]
            },
            "properties": {
                "name": "Casa dos Frangos"
            }
        },
        {
            "type": "Feature",
            "geometry": {
                "type": "Point",
                "coordinates": [
                    -28.5335515,
                    38.5329203
                ]
            },
            "properties": {
                "name": "A Parisiana"
            }
        },
        {
            "type": "Feature",
            "geometry": {
                "type": "Point",
                "coordinates": [
                    -28.3060323,
                    38.5182503
                ]
            },
            "properties": {
                "name": "\u00c1guas Cristalinas"
            }
        },
        {
            "type": "Feature",
            "geometry": {
                "type": "Point",
                "coordinates": [
                    -28.321782,
                    38.5299259
                ]
            },
            "properties": {
                "name": "Clube Naval de S\u00e3o Roque do Pico"
            }
        },
        {
            "type": "Feature",
            "geometry": {
                "type": "Point",
                "coordinates": [
                    -28.2045423,
                    38.6789601
                ]
            },
            "properties": {
                "name": "Clube Naval"
            }
        },
        {
            "type": "Feature",
            "geometry": {
                "type": "Point",
                "coordinates": [
                    -28.2056203,
                    38.6801295
                ]
            },
            "properties": {
                "name": "Restaurant A\u00e7or"
            }
        },
        {
            "type": "Feature",
            "geometry": {
                "type": "Point",
                "coordinates": [
                    -28.2056761,
                    38.6803827
                ]
            },
            "properties": {
                "name": "Suspiro"
            }
        },
        {
            "type": "Feature",
            "geometry": {
                "type": "Point",
                "coordinates": [
                    -17.2058898,
                    32.7511894
                ]
            },
            "properties": {
                "name": "Manjerico"
            }
        },
        {
            "type": "Feature",
            "geometry": {
                "type": "Point",
                "coordinates": [
                    -17.2300702,
                    32.7573958
                ]
            },
            "properties": {
                "name": "Sol e Mar"
            }
        },
        {
            "type": "Feature",
            "geometry": {
                "type": "Point",
                "coordinates": [
                    -16.888148,
                    32.712423
                ]
            },
            "properties": {
                "name": "Casa de Abrigo do Poiso"
            }
        },
        {
            "type": "Feature",
            "geometry": {
                "type": "Point",
                "coordinates": [
                    -16.8721795,
                    32.7497578
                ]
            },
            "properties": {
                "name": "Churrasquaria Pro Pico"
            }
        },
        {
            "type": "Feature",
            "geometry": {
                "type": "Point",
                "coordinates": [
                    -9.3016709,
                    38.7046407
                ]
            }
        },
        {
            "type": "Feature",
            "geometry": {
                "type": "Point",
                "coordinates": [
                    -17.1334027,
                    32.701747
                ]
            },
            "properties": {
                "name": "Restaurante Preia-mar"
            }
        },
        {
            "type": "Feature",
            "geometry": {
                "type": "Point",
                "coordinates": [
                    -7.9117366,
                    38.5689977
                ]
            },
            "properties": {
                "name": "Salsa Verde"
            }
        },
        {
            "type": "Feature",
            "geometry": {
                "type": "Point",
                "coordinates": [
                    -8.4837813,
                    40.2404557
                ]
            },
            "properties": {
                "name": "Churrasqueira da Cidreira"
            }
        },
        {
            "type": "Feature",
            "geometry": {
                "type": "Point",
                "coordinates": [
                    -8.4791186,
                    41.3419205
                ]
            },
            "properties": {
                "name": "Restaurante e Churrascaria Campinhos"
            }
        },
        {
            "type": "Feature",
            "geometry": {
                "type": "Point",
                "coordinates": [
                    -8.8217064,
                    39.7617208
                ]
            }
        },
        {
            "type": "Feature",
            "geometry": {
                "type": "Point",
                "coordinates": [
                    -8.8552065,
                    41.7149825
                ]
            },
            "properties": {
                "name": "Alquimista"
            }
        },
        {
            "type": "Feature",
            "geometry": {
                "type": "Point",
                "coordinates": [
                    -8.8717636,
                    37.9560701
                ]
            },
            "properties": {
                "name": "Mar Vermelho"
            }
        },
        {
            "type": "Feature",
            "geometry": {
                "type": "Point",
                "coordinates": [
                    -8.2903748,
                    37.0803828
                ]
            },
            "properties": {
                "name": "Dom Diniz"
            }
        },
        {
            "type": "Feature",
            "geometry": {
                "type": "Point",
                "coordinates": [
                    -8.3040028,
                    37.0797689
                ]
            },
            "properties": {
                "name": "Quinta da Gal\u00e9"
            }
        },
        {
            "type": "Feature",
            "geometry": {
                "type": "Point",
                "coordinates": [
                    -8.2988593,
                    37.0792723
                ]
            },
            "properties": {
                "name": "P\u00f4r do Sol"
            }
        },
        {
            "type": "Feature",
            "geometry": {
                "type": "Point",
                "coordinates": [
                    -8.2773829,
                    37.076229
                ]
            },
            "properties": {
                "name": "A Sardinha"
            }
        },
        {
            "type": "Feature",
            "geometry": {
                "type": "Point",
                "coordinates": [
                    -8.2917578,
                    37.0796697
                ]
            },
            "properties": {
                "name": "O Marinheiro"
            }
        },
        {
            "type": "Feature",
            "geometry": {
                "type": "Point",
                "coordinates": [
                    -8.2850324,
                    37.0808989
                ]
            },
            "properties": {
                "name": "Seasons"
            }
        },
        {
            "type": "Feature",
            "geometry": {
                "type": "Point",
                "coordinates": [
                    -8.2819961,
                    37.0807578
                ]
            },
            "properties": {
                "name": "Grande Mundo"
            }
        },
        {
            "type": "Feature",
            "geometry": {
                "type": "Point",
                "coordinates": [
                    -8.2826215,
                    37.080698
                ]
            },
            "properties": {
                "name": "Margem Sul"
            }
        },
        {
            "type": "Feature",
            "geometry": {
                "type": "Point",
                "coordinates": [
                    -8.8138989,
                    39.7537988
                ]
            },
            "properties": {
                "name": "A Grelha"
            }
        },
        {
            "type": "Feature",
            "geometry": {
                "type": "Point",
                "coordinates": [
                    -8.8125792,
                    39.7529163
                ]
            }
        },
        {
            "type": "Feature",
            "geometry": {
                "type": "Point",
                "coordinates": [
                    -8.8259903,
                    39.7563805
                ]
            }
        },
        {
            "type": "Feature",
            "geometry": {
                "type": "Point",
                "coordinates": [
                    -8.3137936,
                    37.079963
                ]
            },
            "properties": {
                "name": "Vila Joya"
            }
        },
        {
            "type": "Feature",
            "geometry": {
                "type": "Point",
                "coordinates": [
                    -8.3001421,
                    37.0792882
                ]
            },
            "properties": {
                "name": "The Curry Club"
            }
        },
        {
            "type": "Feature",
            "geometry": {
                "type": "Point",
                "coordinates": [
                    -8.3000412,
                    37.0792422
                ]
            },
            "properties": {
                "name": "Quo Vadis"
            }
        },
        {
            "type": "Feature",
            "geometry": {
                "type": "Point",
                "coordinates": [
                    -8.3091075,
                    37.0856377
                ]
            },
            "properties": {
                "name": "A Grelha do Ti Manel"
            }
        },
        {
            "type": "Feature",
            "geometry": {
                "type": "Point",
                "coordinates": [
                    -8.3092081,
                    37.0865147
                ]
            },
            "properties": {
                "name": "Pit\u00e9u da Gal\u00e9"
            }
        },
        {
            "type": "Feature",
            "geometry": {
                "type": "Point",
                "coordinates": [
                    -8.3102942,
                    37.0926957
                ]
            },
            "properties": {
                "name": "Karahi"
            }
        },
        {
            "type": "Feature",
            "geometry": {
                "type": "Point",
                "coordinates": [
                    -8.3102322,
                    37.0934486
                ]
            },
            "properties": {
                "name": "O Girissol"
            }
        },
        {
            "type": "Feature",
            "geometry": {
                "type": "Point",
                "coordinates": [
                    -8.3119992,
                    37.127968
                ]
            },
            "properties": {
                "name": "O Ribeirinho Churrasqueira"
            }
        },
        {
            "type": "Feature",
            "geometry": {
                "type": "Point",
                "coordinates": [
                    -8.2795781,
                    37.1065446
                ]
            },
            "properties": {
                "name": "O Marmeleiro"
            }
        },
        {
            "type": "Feature",
            "geometry": {
                "type": "Point",
                "coordinates": [
                    -8.3011538,
                    37.1272748
                ]
            },
            "properties": {
                "name": "Grade"
            }
        },
        {
            "type": "Feature",
            "geometry": {
                "type": "Point",
                "coordinates": [
                    -8.3008296,
                    37.1272643
                ]
            },
            "properties": {
                "name": "O Alfredo"
            }
        },
        {
            "type": "Feature",
            "geometry": {
                "type": "Point",
                "coordinates": [
                    -8.3010805,
                    37.1276079
                ]
            },
            "properties": {
                "name": "O Churrasco"
            }
        },
        {
            "type": "Feature",
            "geometry": {
                "type": "Point",
                "coordinates": [
                    -8.3007315,
                    37.1276221
                ]
            },
            "properties": {
                "name": "Matafomi"
            }
        },
        {
            "type": "Feature",
            "geometry": {
                "type": "Point",
                "coordinates": [
                    -8.2950982,
                    37.1270681
                ]
            },
            "properties": {
                "name": "O Aur\u00e9lio"
            }
        },
        {
            "type": "Feature",
            "geometry": {
                "type": "Point",
                "coordinates": [
                    -8.2937263,
                    37.127206
                ]
            },
            "properties": {
                "name": "O Marreiro"
            }
        },
        {
            "type": "Feature",
            "geometry": {
                "type": "Point",
                "coordinates": [
                    -8.2972619,
                    37.0825915
                ]
            },
            "properties": {
                "name": "Jompra"
            }
        },
        {
            "type": "Feature",
            "geometry": {
                "type": "Point",
                "coordinates": [
                    -8.2968602,
                    37.0832772
                ]
            },
            "properties": {
                "name": "Alimentare"
            }
        },
        {
            "type": "Feature",
            "geometry": {
                "type": "Point",
                "coordinates": [
                    -8.2831444,
                    37.0755989
                ]
            },
            "properties": {
                "name": "Praia Grande"
            }
        },
        {
            "type": "Feature",
            "geometry": {
                "type": "Point",
                "coordinates": [
                    -8.2662156,
                    37.0849923
                ]
            },
            "properties": {
                "name": "O Pa\u00eds"
            }
        },
        {
            "type": "Feature",
            "geometry": {
                "type": "Point",
                "coordinates": [
                    -8.703678,
                    39.7343942
                ]
            }
        },
        {
            "type": "Feature",
            "geometry": {
                "type": "Point",
                "coordinates": [
                    -8.2891197,
                    37.0833329
                ]
            },
            "properties": {
                "name": "Boulevard"
            }
        },
        {
            "type": "Feature",
            "geometry": {
                "type": "Point",
                "coordinates": [
                    -8.2847462,
                    37.0833683
                ]
            },
            "properties": {
                "name": "Sunshine"
            }
        },
        {
            "type": "Feature",
            "geometry": {
                "type": "Point",
                "coordinates": [
                    -8.2920818,
                    37.0874712
                ]
            },
            "properties": {
                "name": "Solar Das Oliveiras"
            }
        },
        {
            "type": "Feature",
            "geometry": {
                "type": "Point",
                "coordinates": [
                    -8.2778074,
                    37.0865257
                ]
            },
            "properties": {
                "name": "Luau"
            }
        },
        {
            "type": "Feature",
            "geometry": {
                "type": "Point",
                "coordinates": [
                    -8.3190283,
                    37.0960748
                ]
            },
            "properties": {
                "name": "Salgadosmar"
            }
        },
        {
            "type": "Feature",
            "geometry": {
                "type": "Point",
                "coordinates": [
                    -8.316878,
                    37.0988246
                ]
            },
            "properties": {
                "name": "Salgados Diner"
            }
        },
        {
            "type": "Feature",
            "geometry": {
                "type": "Point",
                "coordinates": [
                    -8.3171986,
                    37.0989336
                ]
            },
            "properties": {
                "name": "Museu dos Salgados"
            }
        },
        {
            "type": "Feature",
            "geometry": {
                "type": "Point",
                "coordinates": [
                    -8.3164585,
                    37.098675
                ]
            },
            "properties": {
                "name": "Prima Pasta"
            }
        },
        {
            "type": "Feature",
            "geometry": {
                "type": "Point",
                "coordinates": [
                    -8.3096183,
                    37.096617
                ]
            },
            "properties": {
                "name": "Cabanitas"
            }
        },
        {
            "type": "Feature",
            "geometry": {
                "type": "Point",
                "coordinates": [
                    -8.3033043,
                    37.0940904
                ]
            },
            "properties": {
                "name": "Casa Da Carne"
            }
        },
        {
            "type": "Feature",
            "geometry": {
                "type": "Point",
                "coordinates": [
                    -8.2945583,
                    37.0898572
                ]
            },
            "properties": {
                "name": "O Barco"
            }
        },
        {
            "type": "Feature",
            "geometry": {
                "type": "Point",
                "coordinates": [
                    -8.3242968,
                    37.1065904
                ]
            },
            "properties": {
                "name": "Quinta la Saudade"
            }
        },
        {
            "type": "Feature",
            "geometry": {
                "type": "Point",
                "coordinates": [
                    -8.3003181,
                    37.1266229
                ]
            },
            "properties": {
                "name": "Atlantico"
            }
        },
        {
            "type": "Feature",
            "geometry": {
                "type": "Point",
                "coordinates": [
                    -8.2995261,
                    37.125012
                ]
            },
            "properties": {
                "name": "Palladium"
            }
        },
        {
            "type": "Feature",
            "geometry": {
                "type": "Point",
                "coordinates": [
                    -8.2993766,
                    37.126076
                ]
            },
            "properties": {
                "name": "Casa Bitoque"
            }
        },
        {
            "type": "Feature",
            "geometry": {
                "type": "Point",
                "coordinates": [
                    -8.299264,
                    37.1263496
                ]
            },
            "properties": {
                "name": "Ramires"
            }
        },
        {
            "type": "Feature",
            "geometry": {
                "type": "Point",
                "coordinates": [
                    -8.2989981,
                    37.1263331
                ]
            },
            "properties": {
                "name": "Ideal"
            }
        },
        {
            "type": "Feature",
            "geometry": {
                "type": "Point",
                "coordinates": [
                    -8.5573734,
                    41.1586211
                ]
            },
            "properties": {
                "name": "Restaurante Ponte do Freixo"
            }
        },
        {
            "type": "Feature",
            "geometry": {
                "type": "Point",
                "coordinates": [
                    -7.6644439,
                    37.6361512
                ]
            },
            "properties": {
                "name": "Alsafir"
            }
        },
        {
            "type": "Feature",
            "geometry": {
                "type": "Point",
                "coordinates": [
                    -7.6627559,
                    37.6385982
                ]
            },
            "properties": {
                "name": "Migas"
            }
        },
        {
            "type": "Feature",
            "geometry": {
                "type": "Point",
                "coordinates": [
                    -8.1777357,
                    37.2355745
                ]
            },
            "properties": {
                "name": "O Louis"
            }
        },
        {
            "type": "Feature",
            "geometry": {
                "type": "Point",
                "coordinates": [
                    -8.7848794,
                    37.1397292
                ]
            },
            "properties": {
                "name": "Florestal"
            }
        },
        {
            "type": "Feature",
            "geometry": {
                "type": "Point",
                "coordinates": [
                    -16.9210696,
                    32.6427571
                ]
            },
            "properties": {
                "name": "Taj Mahal"
            }
        },
        {
            "type": "Feature",
            "geometry": {
                "type": "Point",
                "coordinates": [
                    -8.4830165,
                    37.114496
                ]
            },
            "properties": {
                "name": "Da Donato"
            }
        },
        {
            "type": "Feature",
            "geometry": {
                "type": "Point",
                "coordinates": [
                    -8.5132267,
                    37.1052373
                ]
            },
            "properties": {
                "name": "Rei das Praias (Caneiros)"
            }
        },
        {
            "type": "Feature",
            "geometry": {
                "type": "Point",
                "coordinates": [
                    -9.2223751,
                    38.743474
                ]
            },
            "properties": {
                "name": "Princesa de Neudel"
            }
        },
        {
            "type": "Feature",
            "geometry": {
                "type": "Point",
                "coordinates": [
                    -8.3982722,
                    41.5578952
                ]
            },
            "properties": {
                "name": "Zero53"
            }
        },
        {
            "type": "Feature",
            "geometry": {
                "type": "Point",
                "coordinates": [
                    -8.398845,
                    41.5578073
                ]
            },
            "properties": {
                "name": "Pipas"
            }
        },
        {
            "type": "Feature",
            "geometry": {
                "type": "Point",
                "coordinates": [
                    -9.3319106,
                    38.7172484
                ]
            },
            "properties": {
                "name": "Colina do Sol"
            }
        },
        {
            "type": "Feature",
            "geometry": {
                "type": "Point",
                "coordinates": [
                    -8.7865659,
                    41.5403769
                ]
            },
            "properties": {
                "name": "Varandas do C\u00e1vado"
            }
        },
        {
            "type": "Feature",
            "geometry": {
                "type": "Point",
                "coordinates": [
                    -8.7861013,
                    41.5449946
                ]
            },
            "properties": {
                "name": "Carioca"
            }
        },
        {
            "type": "Feature",
            "geometry": {
                "type": "Point",
                "coordinates": [
                    -9.1899463,
                    39.4178509
                ]
            },
            "properties": {
                "name": "Vip"
            }
        },
        {
            "type": "Feature",
            "geometry": {
                "type": "Point",
                "coordinates": [
                    -9.1685907,
                    39.4173419
                ]
            },
            "properties": {
                "name": "Borga"
            }
        },
        {
            "type": "Feature",
            "geometry": {
                "type": "Point",
                "coordinates": [
                    -8.9445895,
                    39.3645567
                ]
            },
            "properties": {
                "name": "Adega Ti Artur"
            }
        },
        {
            "type": "Feature",
            "geometry": {
                "type": "Point",
                "coordinates": [
                    -8.9158334,
                    39.4230399
                ]
            },
            "properties": {
                "name": "Safari"
            }
        },
        {
            "type": "Feature",
            "geometry": {
                "type": "Point",
                "coordinates": [
                    -8.5990794,
                    39.5721437
                ]
            }
        },
        {
            "type": "Feature",
            "geometry": {
                "type": "Point",
                "coordinates": [
                    -8.6010282,
                    39.5720033
                ]
            },
            "properties": {
                "name": "Churrasquerira O Isidro"
            }
        },
        {
            "type": "Feature",
            "geometry": {
                "type": "Point",
                "coordinates": [
                    -8.6046522,
                    39.5731816
                ]
            },
            "properties": {
                "name": "Solero"
            }
        },
        {
            "type": "Feature",
            "geometry": {
                "type": "Point",
                "coordinates": [
                    -7.3832937,
                    39.3830841
                ]
            },
            "properties": {
                "name": "Restaurante Z\u00e9 Calha"
            }
        },
        {
            "type": "Feature",
            "geometry": {
                "type": "Point",
                "coordinates": [
                    -16.9117841,
                    32.6482608
                ]
            },
            "properties": {
                "name": "Jardim das Flores"
            }
        },
        {
            "type": "Feature",
            "geometry": {
                "type": "Point",
                "coordinates": [
                    -16.9112181,
                    32.6484338
                ]
            },
            "properties": {
                "name": "Restaurante dos Combatentes"
            }
        },
        {
            "type": "Feature",
            "geometry": {
                "type": "Point",
                "coordinates": [
                    -8.468234,
                    41.2938404
                ]
            },
            "properties": {
                "name": "Ponto Final"
            }
        },
        {
            "type": "Feature",
            "geometry": {
                "type": "Point",
                "coordinates": [
                    -8.4696258,
                    41.31406
                ]
            },
            "properties": {
                "name": "Cara\u00edbas"
            }
        },
        {
            "type": "Feature",
            "geometry": {
                "type": "Point",
                "coordinates": [
                    -9.3786218,
                    39.3565429
                ]
            },
            "properties": {
                "name": "il boccone"
            }
        },
        {
            "type": "Feature",
            "geometry": {
                "type": "Point",
                "coordinates": [
                    -9.3793661,
                    39.3537904
                ]
            },
            "properties": {
                "name": "Restaurante Marisquer\u00eda Ocean\u00e1rio"
            }
        },
        {
            "type": "Feature",
            "geometry": {
                "type": "Point",
                "coordinates": [
                    -9.3789458,
                    39.3549104
                ]
            },
            "properties": {
                "name": "Restaurante Canhoto II"
            }
        },
        {
            "type": "Feature",
            "geometry": {
                "type": "Point",
                "coordinates": [
                    -9.3787231,
                    39.3555404
                ]
            },
            "properties": {
                "name": "Restaurante O Marinheiro"
            }
        },
        {
            "type": "Feature",
            "geometry": {
                "type": "Point",
                "coordinates": [
                    -8.529471,
                    40.5664656
                ]
            },
            "properties": {
                "name": "O Lampi\u00e3o"
            }
        },
        {
            "type": "Feature",
            "geometry": {
                "type": "Point",
                "coordinates": [
                    -8.5294545,
                    40.5663316
                ]
            },
            "properties": {
                "name": "Pizzaria Stadium"
            }
        },
        {
            "type": "Feature",
            "geometry": {
                "type": "Point",
                "coordinates": [
                    -8.3672014,
                    41.6271756
                ]
            },
            "properties": {
                "name": "Restaurante Milho Rei"
            }
        },
        {
            "type": "Feature",
            "geometry": {
                "type": "Point",
                "coordinates": [
                    -8.3158724,
                    41.6572627
                ]
            },
            "properties": {
                "name": "Restaurante Carias"
            }
        },
        {
            "type": "Feature",
            "geometry": {
                "type": "Point",
                "coordinates": [
                    -8.392896,
                    41.5626595
                ]
            },
            "properties": {
                "name": "O Beir\u00e3o"
            }
        },
        {
            "type": "Feature",
            "geometry": {
                "type": "Point",
                "coordinates": [
                    -8.3925857,
                    41.5627816
                ]
            },
            "properties": {
                "name": "Speedy"
            }
        },
        {
            "type": "Feature",
            "geometry": {
                "type": "Point",
                "coordinates": [
                    -8.4318912,
                    41.593343
                ]
            },
            "properties": {
                "name": "Restaurante S.Francisco"
            }
        },
        {
            "type": "Feature",
            "geometry": {
                "type": "Point",
                "coordinates": [
                    -8.4286165,
                    41.5823067
                ]
            },
            "properties": {
                "name": "Segredos"
            }
        },
        {
            "type": "Feature",
            "geometry": {
                "type": "Point",
                "coordinates": [
                    -8.654554,
                    40.639717
                ]
            },
            "properties": {
                "name": "O Barril"
            }
        },
        {
            "type": "Feature",
            "geometry": {
                "type": "Point",
                "coordinates": [
                    -8.6548664,
                    40.6396464
                ]
            },
            "properties": {
                "name": "O Adriano"
            }
        },
        {
            "type": "Feature",
            "geometry": {
                "type": "Point",
                "coordinates": [
                    -8.6543169,
                    40.6398992
                ]
            },
            "properties": {
                "name": "Adega do Evaristo"
            }
        },
        {
            "type": "Feature",
            "geometry": {
                "type": "Point",
                "coordinates": [
                    -9.286124,
                    38.7531901
                ]
            },
            "properties": {
                "name": "100 Sabores"
            }
        },
        {
            "type": "Feature",
            "geometry": {
                "type": "Point",
                "coordinates": [
                    -9.2843063,
                    38.7525001
                ]
            },
            "properties": {
                "name": "Manjuba"
            }
        },
        {
            "type": "Feature",
            "geometry": {
                "type": "Point",
                "coordinates": [
                    -8.4016594,
                    40.1908772
                ]
            },
            "properties": {
                "name": "Dona Elvira"
            }
        },
        {
            "type": "Feature",
            "geometry": {
                "type": "Point",
                "coordinates": [
                    -8.4024777,
                    40.1942855
                ]
            },
            "properties": {
                "name": "Napolitano"
            }
        },
        {
            "type": "Feature",
            "geometry": {
                "type": "Point",
                "coordinates": [
                    -8.4079876,
                    40.1831261
                ]
            },
            "properties": {
                "name": "Sol do Mondego"
            }
        },
        {
            "type": "Feature",
            "geometry": {
                "type": "Point",
                "coordinates": [
                    -8.4593844,
                    40.16399
                ]
            },
            "properties": {
                "name": "Pato Real"
            }
        },
        {
            "type": "Feature",
            "geometry": {
                "type": "Point",
                "coordinates": [
                    -8.4336225,
                    40.198276
                ]
            },
            "properties": {
                "name": "Arcadas Restaurante"
            }
        },
        {
            "type": "Feature",
            "geometry": {
                "type": "Point",
                "coordinates": [
                    -9.3288782,
                    38.6862259
                ]
            },
            "properties": {
                "name": "A Tasquinha"
            }
        },
        {
            "type": "Feature",
            "geometry": {
                "type": "Point",
                "coordinates": [
                    -9.2300616,
                    38.6956797
                ]
            },
            "properties": {
                "name": "La Siesta"
            }
        },
        {
            "type": "Feature",
            "geometry": {
                "type": "Point",
                "coordinates": [
                    -8.4311582,
                    40.1955262
                ]
            },
            "properties": {
                "name": "Os Prazeres da Carne"
            }
        },
        {
            "type": "Feature",
            "geometry": {
                "type": "Point",
                "coordinates": [
                    -8.4019192,
                    40.2060087
                ]
            },
            "properties": {
                "name": "Churrasqueira da Solum"
            }
        },
        {
            "type": "Feature",
            "geometry": {
                "type": "Point",
                "coordinates": [
                    -8.5158003,
                    40.2684316
                ]
            },
            "properties": {
                "name": "Farinha de Milho"
            }
        },
        {
            "type": "Feature",
            "geometry": {
                "type": "Point",
                "coordinates": [
                    -8.43103,
                    40.1954955
                ]
            },
            "properties": {
                "name": "Restaurante Churrasqueira da V\u00e1rzea"
            }
        },
        {
            "type": "Feature",
            "geometry": {
                "type": "Point",
                "coordinates": [
                    -8.430115,
                    40.2520045
                ]
            }
        },
        {
            "type": "Feature",
            "geometry": {
                "type": "Point",
                "coordinates": [
                    -9.2409805,
                    38.7264536
                ]
            }
        },
        {
            "type": "Feature",
            "geometry": {
                "type": "Point",
                "coordinates": [
                    -9.2381266,
                    38.7267215
                ]
            },
            "properties": {
                "name": "Baga-Baga"
            }
        },
        {
            "type": "Feature",
            "geometry": {
                "type": "Point",
                "coordinates": [
                    -8.399843,
                    40.1889179
                ]
            }
        },
        {
            "type": "Feature",
            "geometry": {
                "type": "Point",
                "coordinates": [
                    -7.8749888,
                    38.021853
                ]
            },
            "properties": {
                "name": "Espelho de \u00c1gua"
            }
        },
        {
            "type": "Feature",
            "geometry": {
                "type": "Point",
                "coordinates": [
                    -7.8622019,
                    38.0142055
                ]
            },
            "properties": {
                "name": "O Alem\u00e3o"
            }
        },
        {
            "type": "Feature",
            "geometry": {
                "type": "Point",
                "coordinates": [
                    -25.6678123,
                    37.7435037
                ]
            },
            "properties": {
                "name": "Restaurante O Museu"
            }
        },
        {
            "type": "Feature",
            "geometry": {
                "type": "Point",
                "coordinates": [
                    -25.6702683,
                    37.7389976
                ]
            },
            "properties": {
                "name": "Arriba"
            }
        },
        {
            "type": "Feature",
            "geometry": {
                "type": "Point",
                "coordinates": [
                    -25.6688382,
                    37.7387827
                ]
            },
            "properties": {
                "name": "O Roberto"
            }
        },
        {
            "type": "Feature",
            "geometry": {
                "type": "Point",
                "coordinates": [
                    -25.6671109,
                    37.7397329
                ]
            },
            "properties": {
                "name": "Mercado do Peixe"
            }
        },
        {
            "type": "Feature",
            "geometry": {
                "type": "Point",
                "coordinates": [
                    -9.352665,
                    38.8232978
                ]
            },
            "properties": {
                "name": "Solar do Bitoque"
            }
        },
        {
            "type": "Feature",
            "geometry": {
                "type": "Point",
                "coordinates": [
                    -25.6635004,
                    37.7396555
                ]
            },
            "properties": {
                "name": "Yacht Club Restaurante"
            }
        },
        {
            "type": "Feature",
            "geometry": {
                "type": "Point",
                "coordinates": [
                    -25.6652719,
                    37.7416952
                ]
            },
            "properties": {
                "name": "Boca de Cena"
            }
        },
        {
            "type": "Feature",
            "geometry": {
                "type": "Point",
                "coordinates": [
                    -25.6670422,
                    37.7434083
                ]
            },
            "properties": {
                "name": "Super Prato"
            }
        },
        {
            "type": "Feature",
            "geometry": {
                "type": "Point",
                "coordinates": [
                    -7.8557646,
                    38.0083374
                ]
            },
            "properties": {
                "name": "O Belga"
            }
        },
        {
            "type": "Feature",
            "geometry": {
                "type": "Point",
                "coordinates": [
                    -8.4104763,
                    40.1946942
                ]
            },
            "properties": {
                "name": "Kyoto House"
            }
        },
        {
            "type": "Feature",
            "geometry": {
                "type": "Point",
                "coordinates": [
                    -25.4876088,
                    37.7978027
                ]
            },
            "properties": {
                "name": "Restaurante Caldeiras"
            }
        },
        {
            "type": "Feature",
            "geometry": {
                "type": "Point",
                "coordinates": [
                    -25.6662852,
                    37.7407023
                ]
            }
        },
        {
            "type": "Feature",
            "geometry": {
                "type": "Point",
                "coordinates": [
                    -8.4276739,
                    40.1983352
                ]
            },