{
    "type": "FeatureCollection",
    "features": [
        {
            "type": "Feature",
            "geometry": {
                "type": "Point",
                "coordinates": [
                    20.769334,
                    52.3084017
                ]
            },
            "properties": {
                "name": "Dziupla"
            }
        },
        {
            "type": "Feature",
            "geometry": {
                "type": "Point",
                "coordinates": [
                    20.9459496,
                    52.1769081
                ]
            }
        },
        {
            "type": "Feature",
            "geometry": {
                "type": "Point",
                "coordinates": [
                    20.0352214,
                    53.6712874
                ]
            },
            "properties": {
                "name": "M\u0142yn pod Mariaszkiem"
            }
        },
        {
            "type": "Feature",
            "geometry": {
                "type": "Point",
                "coordinates": [
                    20.983059,
                    52.2092987
                ]
            },
            "properties": {
                "name": "KEBAB"
            }
        },
        {
            "type": "Feature",
            "geometry": {
                "type": "Point",
                "coordinates": [
                    20.974339,
                    52.2189849
                ]
            },
            "properties": {
                "name": "Pizzeria na Barskiej"
            }
        },
        {
            "type": "Feature",
            "geometry": {
                "type": "Point",
                "coordinates": [
                    17.5822924,
                    53.7108121
                ]
            },
            "properties": {
                "name": "Mistral"
            }
        },
        {
            "type": "Feature",
            "geometry": {
                "type": "Point",
                "coordinates": [
                    17.5612332,
                    53.6942699
                ]
            },
            "properties": {
                "name": "Sukiennice"
            }
        },
        {
            "type": "Feature",
            "geometry": {
                "type": "Point",
                "coordinates": [
                    17.8148323,
                    54.0981511
                ]
            }
        },
        {
            "type": "Feature",
            "geometry": {
                "type": "Point",
                "coordinates": [
                    21.0085155,
                    52.2232512
                ]
            }
        },
        {
            "type": "Feature",
            "geometry": {
                "type": "Point",
                "coordinates": [
                    20.5123415,
                    51.9745231
                ]
            },
            "properties": {
                "name": "Kaskada"
            }
        },
        {
            "type": "Feature",
            "geometry": {
                "type": "Point",
                "coordinates": [
                    21.0619767,
                    52.2399471
                ]
            },
            "properties": {
                "name": "Chicago's Pizza"
            }
        },
        {
            "type": "Feature",
            "geometry": {
                "type": "Point",
                "coordinates": [
                    21.0176975,
                    52.2330793
                ]
            },
            "properties": {
                "name": "Pizzeria Mela Verde"
            }
        },
        {
            "type": "Feature",
            "geometry": {
                "type": "Point",
                "coordinates": [
                    21.023535,
                    52.2341687
                ]
            },
            "properties": {
                "name": "Villa Foksal"
            }
        },
        {
            "type": "Feature",
            "geometry": {
                "type": "Point",
                "coordinates": [
                    21.0239461,
                    52.2343722
                ]
            },
            "properties": {
                "name": "Endorfina Foksal"
            }
        },
        {
            "type": "Feature",
            "geometry": {
                "type": "Point",
                "coordinates": [
                    21.0096603,
                    52.2237246
                ]
            },
            "properties": {
                "name": "Pizzeria Napoli"
            }
        },
        {
            "type": "Feature",
            "geometry": {
                "type": "Point",
                "coordinates": [
                    20.4310828,
                    49.9698436
                ]
            },
            "properties": {
                "name": "Torino"
            }
        },
        {
            "type": "Feature",
            "geometry": {
                "type": "Point",
                "coordinates": [
                    20.4310787,
                    49.9702082
                ]
            },
            "properties": {
                "name": "Grota"
            }
        },
        {
            "type": "Feature",
            "geometry": {
                "type": "Point",
                "coordinates": [
                    20.4245058,
                    49.9673894
                ]
            },
            "properties": {
                "name": "Pizza"
            }
        },
        {
            "type": "Feature",
            "geometry": {
                "type": "Point",
                "coordinates": [
                    21.0058674,
                    52.2070123
                ]
            },
            "properties": {
                "name": "Gospoda Pod Kogutem"
            }
        },
        {
            "type": "Feature",
            "geometry": {
                "type": "Point",
                "coordinates": [
                    21.0071988,
                    52.207253
                ]
            },
            "properties": {
                "name": "Pizzeria Dominium"
            }
        },
        {
            "type": "Feature",
            "geometry": {
                "type": "Point",
                "coordinates": [
                    21.0283082,
                    52.2060889
                ]
            },
            "properties": {
                "name": "Blue Cactus"
            }
        },
        {
            "type": "Feature",
            "geometry": {
                "type": "Point",
                "coordinates": [
                    21.0031544,
                    52.2273614
                ]
            },
            "properties": {
                "name": "Wook"
            }
        },
        {
            "type": "Feature",
            "geometry": {
                "type": "Point",
                "coordinates": [
                    21.0062033,
                    52.2070802
                ]
            },
            "properties": {
                "name": "Kebab Dubaj"
            }
        },
        {
            "type": "Feature",
            "geometry": {
                "type": "Point",
                "coordinates": [
                    21.0424625,
                    52.1473059
                ]
            },
            "properties": {
                "name": "Karpiel\u00f3wka"
            }
        },
        {
            "type": "Feature",
            "geometry": {
                "type": "Point",
                "coordinates": [
                    19.6581435,
                    50.4671732
                ]
            },
            "properties": {
                "name": "U Ry\u015bka"
            }
        },
        {
            "type": "Feature",
            "geometry": {
                "type": "Point",
                "coordinates": [
                    21.0561834,
                    52.1482397
                ]
            },
            "properties": {
                "name": "Ming Wok"
            }
        },
        {
            "type": "Feature",
            "geometry": {
                "type": "Point",
                "coordinates": [
                    21.0324404,
                    52.1489478
                ]
            },
            "properties": {
                "name": "Pizzeria Rimini"
            }
        },
        {
            "type": "Feature",
            "geometry": {
                "type": "Point",
                "coordinates": [
                    21.08621,
                    52.1670994
                ]
            },
            "properties": {
                "name": "Sushi Akiyama"
            }
        },
        {
            "type": "Feature",
            "geometry": {
                "type": "Point",
                "coordinates": [
                    21.0861761,
                    52.1661244
                ]
            },
            "properties": {
                "name": "Z\u0142oty Kr\u00f3l"
            }
        },
        {
            "type": "Feature",
            "geometry": {
                "type": "Point",
                "coordinates": [
                    21.0853249,
                    52.1656419
                ]
            },
            "properties": {
                "name": "Pod Karabel\u0105"
            }
        },
        {
            "type": "Feature",
            "geometry": {
                "type": "Point",
                "coordinates": [
                    21.0305771,
                    52.1533329
                ]
            },
            "properties": {
                "name": "Quattro"
            }
        },
        {
            "type": "Feature",
            "geometry": {
                "type": "Point",
                "coordinates": [
                    21.0461964,
                    52.1498769
                ]
            },
            "properties": {
                "name": "Sphinx"
            }
        },
        {
            "type": "Feature",
            "geometry": {
                "type": "Point",
                "coordinates": [
                    21.0532612,
                    52.144968
                ]
            },
            "properties": {
                "name": "Pizzeria Dominium"
            }
        },
        {
            "type": "Feature",
            "geometry": {
                "type": "Point",
                "coordinates": [
                    21.0533124,
                    52.1450932
                ]
            },
            "properties": {
                "name": "Restauracja Staro\u015bwiecka"
            }
        },
        {
            "type": "Feature",
            "geometry": {
                "type": "Point",
                "coordinates": [
                    21.457883,
                    50.3851693
                ]
            },
            "properties": {
                "name": "Zajazd \"Przy lesie\""
            }
        },
        {
            "type": "Feature",
            "geometry": {
                "type": "Point",
                "coordinates": [
                    21.4108809,
                    49.8703539
                ]
            }
        },
        {
            "type": "Feature",
            "geometry": {
                "type": "Point",
                "coordinates": [
                    21.0699436,
                    52.1702021
                ]
            },
            "properties": {
                "name": "Rauta"
            }
        },
        {
            "type": "Feature",
            "geometry": {
                "type": "Point",
                "coordinates": [
                    21.0157847,
                    52.2409089
                ]
            },
            "properties": {
                "name": "Restauracja Polska"
            }
        },
        {
            "type": "Feature",
            "geometry": {
                "type": "Point",
                "coordinates": [
                    17.0129029,
                    51.1207642
                ]
            },
            "properties": {
                "name": "Art Of Sushi"
            }
        },
        {
            "type": "Feature",
            "geometry": {
                "type": "Point",
                "coordinates": [
                    16.1786761,
                    51.2066865
                ]
            },
            "properties": {
                "name": "Carte Blanche"
            }
        },
        {
            "type": "Feature",
            "geometry": {
                "type": "Point",
                "coordinates": [
                    16.1674709,
                    51.207094
                ]
            },
            "properties": {
                "name": "Wenecja"
            }
        },
        {
            "type": "Feature",
            "geometry": {
                "type": "Point",
                "coordinates": [
                    21.1192722,
                    52.2371151
                ]
            },
            "properties": {
                "name": "Pizza Dominium"
            }
        },
        {
            "type": "Feature",
            "geometry": {
                "type": "Point",
                "coordinates": [
                    14.5563296,
                    53.4287256
                ]
            },
            "properties": {
                "name": "Spi\u017carnia Szczeci\u0144ska"
            }
        },
        {
            "type": "Feature",
            "geometry": {
                "type": "Point",
                "coordinates": [
                    14.5504114,
                    53.4296474
                ]
            },
            "properties": {
                "name": "El Tapatio"
            }
        },
        {
            "type": "Feature",
            "geometry": {
                "type": "Point",
                "coordinates": [
                    14.5469306,
                    53.4324116
                ]
            },
            "properties": {
                "name": "Nowy Chief"
            }
        },
        {
            "type": "Feature",
            "geometry": {
                "type": "Point",
                "coordinates": [
                    21.0520443,
                    52.1563123
                ]
            },
            "properties": {
                "name": "Telepizza"
            }
        },
        {
            "type": "Feature",
            "geometry": {
                "type": "Point",
                "coordinates": [
                    21.0071616,
                    52.2434436
                ]
            },
            "properties": {
                "name": "Pekin"
            }
        },
        {
            "type": "Feature",
            "geometry": {
                "type": "Point",
                "coordinates": [
                    20.9680572,
                    52.2342669
                ]
            },
            "properties": {
                "name": "Pizzeria \"U Dziadka\""
            }
        },
        {
            "type": "Feature",
            "geometry": {
                "type": "Point",
                "coordinates": [
                    21.4986191,
                    50.1854836
                ]
            },
            "properties": {
                "name": "Bar DEZAKO Sp. Z o.o. Tuszyna"
            }
        },
        {
            "type": "Feature",
            "geometry": {
                "type": "Point",
                "coordinates": [
                    21.1163473,
                    52.2754119
                ]
            },
            "properties": {
                "name": "Karczma Praska"
            }
        },
        {
            "type": "Feature",
            "geometry": {
                "type": "Point",
                "coordinates": [
                    21.1142407,
                    52.279368
                ]
            },
            "properties": {
                "name": "Fanaberia"
            }
        },
        {
            "type": "Feature",
            "geometry": {
                "type": "Point",
                "coordinates": [
                    14.9697339,
                    51.7863689
                ]
            },
            "properties": {
                "name": "Duet"
            }
        },
        {
            "type": "Feature",
            "geometry": {
                "type": "Point",
                "coordinates": [
                    18.7215098,
                    50.2227202
                ]
            },
            "properties": {
                "name": "Szmaragdowa"
            }
        },
        {
            "type": "Feature",
            "geometry": {
                "type": "Point",
                "coordinates": [
                    23.1186885,
                    52.0350709
                ]
            },
            "properties": {
                "name": "Verona"
            }
        },
        {
            "type": "Feature",
            "geometry": {
                "type": "Point",
                "coordinates": [
                    20.9880885,
                    52.2475451
                ]
            },
            "properties": {
                "name": "Marc et Bella"
            }
        },
        {
            "type": "Feature",
            "geometry": {
                "type": "Point",
                "coordinates": [
                    19.9476572,
                    52.1040769
                ]
            },
            "properties": {
                "name": "Polonia w Zaciszu"
            }
        },
        {
            "type": "Feature",
            "geometry": {
                "type": "Point",
                "coordinates": [
                    20.9850057,
                    52.2468861
                ]
            },
            "properties": {
                "name": "Bao Long"
            }
        },
        {
            "type": "Feature",
            "geometry": {
                "type": "Point",
                "coordinates": [
                    19.9367079,
                    52.1103719
                ]
            },
            "properties": {
                "name": "Szkie\u0142ka"
            }
        },
        {
            "type": "Feature",
            "geometry": {
                "type": "Point",
                "coordinates": [
                    21.0591411,
                    52.1518077
                ]
            },
            "properties": {
                "name": "Pizzeria Nowoursynowska"
            }
        },
        {
            "type": "Feature",
            "geometry": {
                "type": "Point",
                "coordinates": [
                    21.0393268,
                    52.1624403
                ]
            },
            "properties": {
                "name": "Pizzeria Limba"
            }
        },
        {
            "type": "Feature",
            "geometry": {
                "type": "Point",
                "coordinates": [
                    21.0591262,
                    52.1927664
                ]
            },
            "properties": {
                "name": "Pizzeria Primavera"
            }
        },
        {
            "type": "Feature",
            "geometry": {
                "type": "Point",
                "coordinates": [
                    17.0314141,
                    51.1119831
                ]
            },
            "properties": {
                "name": "Chatka przy Jatkach"
            }
        },
        {
            "type": "Feature",
            "geometry": {
                "type": "Point",
                "coordinates": [
                    20.9937487,
                    52.2384387
                ]
            },
            "properties": {
                "name": "Florian"
            }
        },
        {
            "type": "Feature",
            "geometry": {
                "type": "Point",
                "coordinates": [
                    21.0014401,
                    52.1778612
                ]
            },
            "properties": {
                "name": "Jazz Bistro"
            }
        },
        {
            "type": "Feature",
            "geometry": {
                "type": "Point",
                "coordinates": [
                    21.167438,
                    50.5643368
                ]
            },
            "properties": {
                "name": "Pod Zegarem"
            }
        },
        {
            "type": "Feature",
            "geometry": {
                "type": "Point",
                "coordinates": [
                    19.7488508,
                    53.5044233
                ]
            },
            "properties": {
                "name": "Las Vegas"
            }
        },
        {
            "type": "Feature",
            "geometry": {
                "type": "Point",
                "coordinates": [
                    19.7310801,
                    53.909899
                ]
            },
            "properties": {
                "name": "Zajazd pod Klobukiem"
            }
        },
        {
            "type": "Feature",
            "geometry": {
                "type": "Point",
                "coordinates": [
                    21.0336035,
                    52.1561303
                ]
            },
            "properties": {
                "name": "KenWok"
            }
        },
        {
            "type": "Feature",
            "geometry": {
                "type": "Point",
                "coordinates": [
                    14.8079493,
                    53.5234462
                ]
            },
            "properties": {
                "name": "Szasz\u0142yki"
            }
        },
        {
            "type": "Feature",
            "geometry": {
                "type": "Point",
                "coordinates": [
                    23.4945116,
                    53.4046132
                ]
            },
            "properties": {
                "name": "Cichy K\u0105cik"
            }
        },
        {
            "type": "Feature",
            "geometry": {
                "type": "Point",
                "coordinates": [
                    20.1473071,
                    51.9603304
                ]
            },
            "properties": {
                "name": "Alhambra"
            }
        },
        {
            "type": "Feature",
            "geometry": {
                "type": "Point",
                "coordinates": [
                    18.6226698,
                    50.3912869
                ]
            },
            "properties": {
                "name": "Umami Pi\u0105ty Smak"
            }
        },
        {
            "type": "Feature",
            "geometry": {
                "type": "Point",
                "coordinates": [
                    14.6421361,
                    52.6867308
                ]
            },
            "properties": {
                "name": "Ober\u017ca Templum"
            }
        },
        {
            "type": "Feature",
            "geometry": {
                "type": "Point",
                "coordinates": [
                    17.8710761,
                    53.0844165
                ]
            },
            "properties": {
                "name": "Zajazd Biskupinek"
            }
        },
        {
            "type": "Feature",
            "geometry": {
                "type": "Point",
                "coordinates": [
                    14.7884243,
                    53.4555799
                ]
            },
            "properties": {
                "name": "Pod Borem"
            }
        },
        {
            "type": "Feature",
            "geometry": {
                "type": "Point",
                "coordinates": [
                    21.054761,
                    52.1433631
                ]
            },
            "properties": {
                "name": "Horapa"
            }
        },
        {
            "type": "Feature",
            "geometry": {
                "type": "Point",
                "coordinates": [
                    21.0326972,
                    52.1560881
                ]
            },
            "properties": {
                "name": "Pizzeria Parma"
            }
        },
        {
            "type": "Feature",
            "geometry": {
                "type": "Point",
                "coordinates": [
                    17.0322039,
                    51.1120505
                ]
            },
            "properties": {
                "name": "Galeria Italiana"
            }
        },
        {
            "type": "Feature",
            "geometry": {
                "type": "Point",
                "coordinates": [
                    17.0322107,
                    51.1114546
                ]
            },
            "properties": {
                "name": "Pattie's"
            }
        },
        {
            "type": "Feature",
            "geometry": {
                "type": "Point",
                "coordinates": [
                    17.0323721,
                    51.1120895
                ]
            },
            "properties": {
                "name": "Pha Tha Thai "
            }
        },
        {
            "type": "Feature",
            "geometry": {
                "type": "Point",
                "coordinates": [
                    17.0323996,
                    51.1121699
                ]
            },
            "properties": {
                "name": "Casa Italiana"
            }
        },
        {
            "type": "Feature",
            "geometry": {
                "type": "Point",
                "coordinates": [
                    17.0322691,
                    51.1084751
                ]
            },
            "properties": {
                "name": "Cegielnia"
            }
        },
        {
            "type": "Feature",
            "geometry": {
                "type": "Point",
                "coordinates": [
                    17.0332885,
                    51.1126757
                ]
            },
            "properties": {
                "name": "Iguana"
            }
        },
        {
            "type": "Feature",
            "geometry": {
                "type": "Point",
                "coordinates": [
                    17.0336027,
                    51.1125533
                ]
            },
            "properties": {
                "name": "Misz Masz"
            }
        },
        {
            "type": "Feature",
            "geometry": {
                "type": "Point",
                "coordinates": [
                    17.0344004,
                    51.1129193
                ]
            },
            "properties": {
                "name": "Sushi Darea"
            }
        },
        {
            "type": "Feature",
            "geometry": {
                "type": "Point",
                "coordinates": [
                    17.0334811,
                    51.1115553
                ]
            },
            "properties": {
                "name": "Trattoria Pesto"
            }
        },
        {
            "type": "Feature",
            "geometry": {
                "type": "Point",
                "coordinates": [
                    17.0326813,
                    51.1119594
                ]
            },
            "properties": {
                "name": "Pekin"
            }
        },
        {
            "type": "Feature",
            "geometry": {
                "type": "Point",
                "coordinates": [
                    16.857132,
                    52.4045328
                ]
            }
        },
        {
            "type": "Feature",
            "geometry": {
                "type": "Point",
                "coordinates": [
                    21.0064856,
                    52.2361758
                ]
            },
            "properties": {
                "name": "Galil"
            }
        },
        {
            "type": "Feature",
            "geometry": {
                "type": "Point",
                "coordinates": [
                    20.9921896,
                    52.2252512
                ]
            },
            "properties": {
                "name": "Amigos - American Steakhouse"
            }
        },
        {
            "type": "Feature",
            "geometry": {
                "type": "Point",
                "coordinates": [
                    20.9928195,
                    52.2253607
                ]
            },
            "properties": {
                "name": "Shoku-yoku"
            }
        },
        {
            "type": "Feature",
            "geometry": {
                "type": "Point",
                "coordinates": [
                    20.9930786,
                    52.2254083
                ]
            },
            "properties": {
                "name": "Telepizza"
            }
        },
        {
            "type": "Feature",
            "geometry": {
                "type": "Point",
                "coordinates": [
                    20.9940071,
                    52.225789
                ]
            },
            "properties": {
                "name": "Grand Kredens"
            }
        },
        {
            "type": "Feature",
            "geometry": {
                "type": "Point",
                "coordinates": [
                    23.467316,
                    54.1458152
                ]
            },
            "properties": {
                "name": "Morena"
            }
        },
        {
            "type": "Feature",
            "geometry": {
                "type": "Point",
                "coordinates": [
                    18.4153915,
                    54.7220821
                ]
            },
            "properties": {
                "name": "Bistro Gacek"
            }
        },
        {
            "type": "Feature",
            "geometry": {
                "type": "Point",
                "coordinates": [
                    20.9859671,
                    52.2223142
                ]
            },
            "properties": {
                "name": "Non Solo Pizza"
            }
        },
        {
            "type": "Feature",
            "geometry": {
                "type": "Point",
                "coordinates": [
                    16.8799034,
                    52.376789
                ]
            },
            "properties": {
                "name": "Batory"
            }
        },
        {
            "type": "Feature",
            "geometry": {
                "type": "Point",
                "coordinates": [
                    16.972076,
                    51.0435646
                ]
            },
            "properties": {
                "name": "Soprano"
            }
        },
        {
            "type": "Feature",
            "geometry": {
                "type": "Point",
                "coordinates": [
                    21.0113807,
                    52.1995156
                ]
            },
            "properties": {
                "name": "Pizzeria Da Grasso"
            }
        },
        {
            "type": "Feature",
            "geometry": {
                "type": "Point",
                "coordinates": [
                    21.0155774,
                    52.2330875
                ]
            },
            "properties": {
                "name": "Mediterano"
            }
        },
        {
            "type": "Feature",
            "geometry": {
                "type": "Point",
                "coordinates": [
                    21.0194443,
                    52.231682
                ]
            },
            "properties": {
                "name": "Pierogarnia Zapiecek"
            }
        },
        {
            "type": "Feature",
            "geometry": {
                "type": "Point",
                "coordinates": [
                    21.0324176,
                    52.1568776
                ]
            },
            "properties": {
                "name": "Pizzeria La Torre"
            }
        },
        {
            "type": "Feature",
            "geometry": {
                "type": "Point",
                "coordinates": [
                    21.1223558,
                    52.2367166
                ]
            },
            "properties": {
                "name": "Telepizza"
            }
        },
        {
            "type": "Feature",
            "geometry": {
                "type": "Point",
                "coordinates": [
                    21.0142205,
                    52.1701405
                ]
            },
            "properties": {
                "name": "Sodexo"
            }
        },
        {
            "type": "Feature",
            "geometry": {
                "type": "Point",
                "coordinates": [
                    21.0130661,
                    52.2467287
                ]
            },
            "properties": {
                "name": "Literatka"
            }
        },
        {
            "type": "Feature",
            "geometry": {
                "type": "Point",
                "coordinates": [
                    18.1024923,
                    54.2574901
                ]
            },
            "properties": {
                "name": "Hellena"
            }
        },
        {
            "type": "Feature",
            "geometry": {
                "type": "Point",
                "coordinates": [
                    21.0000467,
                    52.2271187
                ]
            },
            "properties": {
                "name": "China Town"
            }
        },
        {
            "type": "Feature",
            "geometry": {
                "type": "Point",
                "coordinates": [
                    21.0902738,
                    52.2471344
                ]
            },
            "properties": {
                "name": "Pizzeria Incanto"
            }
        },
        {
            "type": "Feature",
            "geometry": {
                "type": "Point",
                "coordinates": [
                    21.1147321,
                    52.2401816
                ]
            },
            "properties": {
                "name": "Orient Express"
            }
        },
        {
            "type": "Feature",
            "geometry": {
                "type": "Point",
                "coordinates": [
                    21.0595155,
                    52.0529051
                ]
            },
            "properties": {
                "name": "La Musica"
            }
        },
        {
            "type": "Feature",
            "geometry": {
                "type": "Point",
                "coordinates": [
                    21.0149456,
                    52.2326241
                ]
            },
            "properties": {
                "name": "Sphinx"
            }
        },
        {
            "type": "Feature",
            "geometry": {
                "type": "Point",
                "coordinates": [
                    21.0170634,
                    52.2196114
                ]
            },
            "properties": {
                "name": "Qu\u00ea H\u01b0\u01a1ng"
            }
        },
        {
            "type": "Feature",
            "geometry": {
                "type": "Point",
                "coordinates": [
                    21.0168653,
                    52.2208892
                ]
            },
            "properties": {
                "name": "Dong Nam"
            }
        },
        {
            "type": "Feature",
            "geometry": {
                "type": "Point",
                "coordinates": [
                    21.0166859,
                    52.2323903
                ]
            },
            "properties": {
                "name": "Porta 13 - Restauracja BIO"
            }
        },
        {
            "type": "Feature",
            "geometry": {
                "type": "Point",
                "coordinates": [
                    21.017841,
                    52.2325201
                ]
            },
            "properties": {
                "name": "Uprzejmie donosz\u0119"
            }
        },
        {
            "type": "Feature",
            "geometry": {
                "type": "Point",
                "coordinates": [
                    21.0221112,
                    52.2063804
                ]
            },
            "properties": {
                "name": "Dziki Ry\u017c"
            }
        },
        {
            "type": "Feature",
            "geometry": {
                "type": "Point",
                "coordinates": [
                    21.0235608,
                    52.1989363
                ]
            },
            "properties": {
                "name": "Pizzeria Prima"
            }
        },
        {
            "type": "Feature",
            "geometry": {
                "type": "Point",
                "coordinates": [
                    21.0173186,
                    52.2213773
                ]
            },
            "properties": {
                "name": "Maharaja"
            }
        },
        {
            "type": "Feature",
            "geometry": {
                "type": "Point",
                "coordinates": [
                    21.0152518,
                    52.2248972
                ]
            },
            "properties": {
                "name": "Secado"
            }
        },
        {
            "type": "Feature",
            "geometry": {
                "type": "Point",
                "coordinates": [
                    21.0191127,
                    52.2343908
                ]
            },
            "properties": {
                "name": "Pizza Eataliano"
            }
        },
        {
            "type": "Feature",
            "geometry": {
                "type": "Point",
                "coordinates": [
                    21.0178254,
                    52.238762
                ]
            },
            "properties": {
                "name": "Rooster"
            }
        },
        {
            "type": "Feature",
            "geometry": {
                "type": "Point",
                "coordinates": [
                    21.0159011,
                    52.2309618
                ]
            },
            "properties": {
                "name": "British Bulldog Pub"
            }
        },
        {
            "type": "Feature",
            "geometry": {
                "type": "Point",
                "coordinates": [
                    21.0113594,
                    52.2360354
                ]
            },
            "properties": {
                "name": "Aioli"
            }
        },
        {
            "type": "Feature",
            "geometry": {
                "type": "Point",
                "coordinates": [
                    21.0192579,
                    52.2341181
                ]
            },
            "properties": {
                "name": "Ristorante Corleone"
            }
        },
        {
            "type": "Feature",
            "geometry": {
                "type": "Point",
                "coordinates": [
                    21.0194229,
                    52.2344712
                ]
            },
            "properties": {
                "name": "Binh Minh"
            }
        },
        {
            "type": "Feature",
            "geometry": {
                "type": "Point",
                "coordinates": [
                    21.0193992,
                    52.2337845
                ]
            },
            "properties": {
                "name": "Green Bar"
            }
        },
        {
            "type": "Feature",
            "geometry": {
                "type": "Point",
                "coordinates": [
                    20.9952929,
                    52.2412338
                ]
            },
            "properties": {
                "name": "Vega"
            }
        },
        {
            "type": "Feature",
            "geometry": {
                "type": "Point",
                "coordinates": [
                    21.02053,
                    52.2331152
                ]
            },
            "properties": {
                "name": "Co Tu"
            }
        },
        {
            "type": "Feature",
            "geometry": {
                "type": "Point",
                "coordinates": [
                    21.0200907,
                    52.2331697
                ]
            },
            "properties": {
                "name": "Besuto Sushi Bar"
            }
        },
        {
            "type": "Feature",
            "geometry": {
                "type": "Point",
                "coordinates": [
                    21.0840528,
                    52.245746
                ]
            },
            "properties": {
                "name": "Loco Mexicano"
            }
        },
        {
            "type": "Feature",
            "geometry": {
                "type": "Point",
                "coordinates": [
                    21.0548846,
                    52.2335832
                ]
            },
            "properties": {
                "name": "Tekeda"
            }
        },
        {
            "type": "Feature",
            "geometry": {
                "type": "Point",
                "coordinates": [
                    21.055574,
                    52.2324671
                ]
            },
            "properties": {
                "name": "Pizza Dominium"
            }
        },
        {
            "type": "Feature",
            "geometry": {
                "type": "Point",
                "coordinates": [
                    21.0191483,
                    52.2259607
                ]
            },
            "properties": {
                "name": "Pizza Dominium"
            }
        },
        {
            "type": "Feature",
            "geometry": {
                "type": "Point",
                "coordinates": [
                    21.0243599,
                    52.2243747
                ]
            },
            "properties": {
                "name": "Ujazdowska"
            }
        },
        {
            "type": "Feature",
            "geometry": {
                "type": "Point",
                "coordinates": [
                    21.0231162,
                    52.2266522
                ]
            },
            "properties": {
                "name": "U Aktor\u00f3w"
            }
        },
        {
            "type": "Feature",
            "geometry": {
                "type": "Point",
                "coordinates": [
                    21.0135414,
                    52.2305214
                ]
            },
            "properties": {
                "name": "Sphinx"
            }
        },
        {
            "type": "Feature",
            "geometry": {
                "type": "Point",
                "coordinates": [
                    21.0221658,
                    52.2344986
                ]
            },
            "properties": {
                "name": "The Mexican"
            }
        },
        {
            "type": "Feature",
            "geometry": {
                "type": "Point",
                "coordinates": [
                    21.0153598,
                    52.23086
                ]
            },
            "properties": {
                "name": "Bistro Ale'je"
            }
        },
        {
            "type": "Feature",
            "geometry": {
                "type": "Point",
                "coordinates": [
                    20.9854338,
                    52.2216614
                ]
            },
            "properties": {
                "name": "Pizza Dominium"
            }
        },
        {
            "type": "Feature",
            "geometry": {
                "type": "Point",
                "coordinates": [
                    20.9919869,
                    52.225205
                ]
            },
            "properties": {
                "name": "Arti"
            }
        },
        {
            "type": "Feature",
            "geometry": {
                "type": "Point",
                "coordinates": [
                    14.5596827,
                    53.4260743
                ]
            },
            "properties": {
                "name": "Restauracja Opera"
            }
        },
        {
            "type": "Feature",
            "geometry": {
                "type": "Point",
                "coordinates": [
                    14.5502536,
                    53.4237997
                ]
            },
            "properties": {
                "name": "Bombay"
            }
        },
        {
            "type": "Feature",
            "geometry": {
                "type": "Point",
                "coordinates": [
                    21.016066,
                    52.2212657
                ]
            },
            "properties": {
                "name": "U Szwejka"
            }
        },
        {
            "type": "Feature",
            "geometry": {
                "type": "Point",
                "coordinates": [
                    21.0105741,
                    52.2285173
                ]
            },
            "properties": {
                "name": "Ma\u0142a Gruzja"
            }
        },
        {
            "type": "Feature",
            "geometry": {
                "type": "Point",
                "coordinates": [
                    21.0110878,
                    52.2289047
                ]
            },
            "properties": {
                "name": "Metro Jazz Cafe"
            }
        },
        {
            "type": "Feature",
            "geometry": {
                "type": "Point",
                "coordinates": [
                    21.0100208,
                    52.2291343
                ]
            },
            "properties": {
                "name": "Strauss"
            }
        },
        {
            "type": "Feature",
            "geometry": {
                "type": "Point",
                "coordinates": [
                    21.016456,
                    52.2287498
                ]
            },
            "properties": {
                "name": "Trattoria da Antonio"
            }
        },
        {
            "type": "Feature",
            "geometry": {
                "type": "Point",
                "coordinates": [
                    21.0161875,
                    52.2286984
                ]
            },
            "properties": {
                "name": "Hubertus and Elio"
            }
        },
        {
            "type": "Feature",
            "geometry": {
                "type": "Point",
                "coordinates": [
                    21.0145192,
                    52.2326639
                ]
            },
            "properties": {
                "name": "Grill Bar Zgoda"
            }
        },
        {
            "type": "Feature",
            "geometry": {
                "type": "Point",
                "coordinates": [
                    21.0139849,
                    52.2325731
                ]
            },
            "properties": {
                "name": "Bu\u0142k\u0119 przez Bibu\u0142k\u0119"
            }
        },
        {
            "type": "Feature",
            "geometry": {
                "type": "Point",
                "coordinates": [
                    21.0132826,
                    52.2327929
                ]
            },
            "properties": {
                "name": "Gusto Dominium"
            }
        },
        {
            "type": "Feature",
            "geometry": {
                "type": "Point",
                "coordinates": [
                    21.013087,
                    52.2328488
                ]
            },
            "properties": {
                "name": "Ry\u017cowe Pole"
            }
        },
        {
            "type": "Feature",
            "geometry": {
                "type": "Point",
                "coordinates": [
                    21.0141252,
                    52.2325596
                ]
            },
            "properties": {
                "name": "Borpince"
            }
        },
        {
            "type": "Feature",
            "geometry": {
                "type": "Point",
                "coordinates": [
                    21.0232432,
                    52.2329571
                ]
            },
            "properties": {
                "name": "Trattoria Capri"
            }
        },
        {
            "type": "Feature",
            "geometry": {
                "type": "Point",
                "coordinates": [
                    21.0134333,
                    52.2341869
                ]
            },
            "properties": {
                "name": "Sofia"
            }
        },
        {
            "type": "Feature",
            "geometry": {
                "type": "Point",
                "coordinates": [
                    20.9785768,
                    52.2206935
                ]
            },
            "properties": {
                "name": "Cha\u0142upa Smak\u00f3w"
            }
        },
        {
            "type": "Feature",
            "geometry": {
                "type": "Point",
                "coordinates": [
                    20.9752803,
                    52.2119204
                ]
            },
            "properties": {
                "name": "Iriori"
            }
        },
        {
            "type": "Feature",
            "geometry": {
                "type": "Point",
                "coordinates": [
                    21.0550582,
                    52.2473337
                ]
            },
            "properties": {
                "name": "Boretti"
            }
        },
        {
            "type": "Feature",
            "geometry": {
                "type": "Point",
                "coordinates": [
                    20.9942935,
                    52.2258275
                ]
            },
            "properties": {
                "name": "Sushi bar"
            }
        },
        {
            "type": "Feature",
            "geometry": {
                "type": "Point",
                "coordinates": [
                    21.012823,
                    52.2322978
                ]
            },
            "properties": {
                "name": "Ciao Bella"
            }
        },
        {
            "type": "Feature",
            "geometry": {
                "type": "Point",
                "coordinates": [
                    21.0121102,
                    52.2319542
                ]
            },
            "properties": {
                "name": "Bistro Bordo"
            }
        },
        {
            "type": "Feature",
            "geometry": {
                "type": "Point",
                "coordinates": [
                    21.0197218,
                    52.2342679
                ]
            },
            "properties": {
                "name": "Pizzeria Pub \"Da Nando\""
            }
        },
        {
            "type": "Feature",
            "geometry": {
                "type": "Point",
                "coordinates": [
                    21.0096487,
                    52.23526
                ]
            },
            "properties": {
                "name": "Sphinx"
            }
        },
        {
            "type": "Feature",
            "geometry": {
                "type": "Point",
                "coordinates": [
                    21.0114578,
                    52.233638
                ]
            },
            "properties": {
                "name": "Ginger"
            }
        },
        {
            "type": "Feature",
            "geometry": {
                "type": "Point",
                "coordinates": [
                    21.0187749,
                    52.2351315
                ]
            },
            "properties": {
                "name": "Tapas Bar - Casa to tu"
            }
        },
        {
            "type": "Feature",
            "geometry": {
                "type": "Point",
                "coordinates": [
                    21.0184621,
                    52.2360069
                ]
            },
            "properties": {
                "name": "Espa\u00f1a to tu"
            }
        },
        {
            "type": "Feature",
            "geometry": {
                "type": "Point",
                "coordinates": [
                    21.0192031,
                    52.2342304
                ]
            },
            "properties": {
                "name": "Sphinx"
            }
        },
        {
            "type": "Feature",
            "geometry": {
                "type": "Point",
                "coordinates": [
                    21.017491,
                    52.0629905
                ]
            },
            "properties": {
                "name": "Corner"
            }
        },
        {
            "type": "Feature",
            "geometry": {
                "type": "Point",
                "coordinates": [
                    18.5456889,
                    52.9763872
                ]
            }
        },
        {
            "type": "Feature",
            "geometry": {
                "type": "Point",
                "coordinates": [
                    20.9986197,
                    52.2057054
                ]
            },
            "properties": {
                "name": "Bia\u0142y Domek"
            }
        },
        {
            "type": "Feature",
            "geometry": {
                "type": "Point",
                "coordinates": [
                    21.017036,
                    52.1349798
                ]
            },
            "properties": {
                "name": "Siwy Dym"
            }
        },
        {
            "type": "Feature",
            "geometry": {
                "type": "Point",
                "coordinates": [
                    21.052211,
                    52.1440946
                ]
            },
            "properties": {
                "name": "Sushi 77"
            }
        },
        {
            "type": "Feature",
            "geometry": {
                "type": "Point",
                "coordinates": [
                    21.0632459,
                    52.1457956
                ]
            },
            "properties": {
                "name": "Jin-ren"
            }
        },
        {
            "type": "Feature",
            "geometry": {
                "type": "Point",
                "coordinates": [
                    21.0633747,
                    52.1456503
                ]
            },
            "properties": {
                "name": "Niebo w G\u0119bie"
            }
        },
        {
            "type": "Feature",
            "geometry": {
                "type": "Point",
                "coordinates": [
                    14.7828491,
                    53.2513851
                ]
            },
            "properties": {
                "name": "Czarny Baw\u00f3\u0142"
            }
        },
        {
            "type": "Feature",
            "geometry": {
                "type": "Point",
                "coordinates": [
                    21.0033886,
                    52.2419685
                ]
            }
        },
        {
            "type": "Feature",
            "geometry": {
                "type": "Point",
                "coordinates": [
                    20.9801305,
                    52.2156847
                ]
            },
            "properties": {
                "name": "Pamukkale"
            }
        },
        {
            "type": "Feature",
            "geometry": {
                "type": "Point",
                "coordinates": [
                    15.810945,
                    53.5309715
                ]
            },
            "properties": {
                "name": "Pizzeria Vendetta"
            }
        },
        {
            "type": "Feature",
            "geometry": {
                "type": "Point",
                "coordinates": [
                    21.0192875,
                    52.2356516
                ]
            },
            "properties": {
                "name": "Dom Faraona"
            }
        },
        {
            "type": "Feature",
            "geometry": {
                "type": "Point",
                "coordinates": [
                    20.9638995,
                    52.2146837
                ]
            },
            "properties": {
                "name": "Questo e Quello"
            }
        },
        {
            "type": "Feature",
            "geometry": {
                "type": "Point",
                "coordinates": [
                    21.0133197,
                    52.2321726
                ]
            },
            "properties": {
                "name": "C.K. Ober\u017ca"
            }
        },
        {
            "type": "Feature",
            "geometry": {
                "type": "Point",
                "coordinates": [
                    21.0351235,
                    52.2209412
                ]
            },
            "properties": {
                "name": "Agrykola"
            }
        },
        {
            "type": "Feature",
            "geometry": {
                "type": "Point",
                "coordinates": [
                    20.9837047,
                    52.2199436
                ]
            },
            "properties": {
                "name": "Vinam"
            }
        },
        {
            "type": "Feature",
            "geometry": {
                "type": "Point",
                "coordinates": [
                    19.1781773,
                    52.1815023
                ]
            },
            "properties": {
                "name": "Chlopska Karczma"
            }
        },
        {
            "type": "Feature",
            "geometry": {
                "type": "Point",
                "coordinates": [
                    21.0586839,
                    52.3182488
                ]
            },
            "properties": {
                "name": "Da Vinci"
            }
        },
        {
            "type": "Feature",
            "geometry": {
                "type": "Point",
                "coordinates": [
                    16.9845542,
                    51.1125788
                ]
            },
            "properties": {
                "name": "Spichlerz"
            }
        },
        {
            "type": "Feature",
            "geometry": {
                "type": "Point",
                "coordinates": [
                    21.0189062,
                    52.2386961
                ]
            },
            "properties": {
                "name": "Harenda"
            }
        },
        {
            "type": "Feature",
            "geometry": {
                "type": "Point",
                "coordinates": [
                    21.0186906,
                    52.2174823
                ]
            },
            "properties": {
                "name": "Tandoori"
            }
        },
        {
            "type": "Feature",
            "geometry": {
                "type": "Point",
                "coordinates": [
                    21.0172772,
                    52.2195197
                ]
            },
            "properties": {
                "name": "Izumi Sushi"
            }
        },
        {
            "type": "Feature",
            "geometry": {
                "type": "Point",
                "coordinates": [
                    21.0152624,
                    52.221714
                ]
            },
            "properties": {
                "name": "Sexy duck"
            }
        },
        {
            "type": "Feature",
            "geometry": {
                "type": "Point",
                "coordinates": [
                    21.0160511,
                    52.2211251
                ]
            },
            "properties": {
                "name": "Ch\u0142opskie Jad\u0142o"
            }
        },
        {
            "type": "Feature",
            "geometry": {
                "type": "Point",
                "coordinates": [
                    21.0199237,
                    52.2230749
                ]
            },
            "properties": {
                "name": "S\u0142odki S\u0142ony"
            }
        },
        {
            "type": "Feature",
            "geometry": {
                "type": "Point",
                "coordinates": [
                    19.9323874,
                    52.1188733
                ]
            },
            "properties": {
                "name": "Zajazd \u0141owicki"
            }
        },
        {
            "type": "Feature",
            "geometry": {
                "type": "Point",
                "coordinates": [
                    21.0034479,
                    52.2418301
                ]
            },
            "properties": {
                "name": "Der Elefant"
            }
        },
        {
            "type": "Feature",
            "geometry": {
                "type": "Point",
                "coordinates": [
                    21.0125481,
                    52.2471039
                ]
            },
            "properties": {
                "name": "Maestria"
            }
        },
        {
            "type": "Feature",
            "geometry": {
                "type": "Point",
                "coordinates": [
                    21.0311137,
                    52.2528376
                ]
            },
            "properties": {
                "name": "Le Cedre"
            }
        },
        {
            "type": "Feature",
            "geometry": {
                "type": "Point",
                "coordinates": [
                    21.0177912,
                    52.2366719
                ]
            },
            "properties": {
                "name": "Hammurabi"
            }
        },
        {
            "type": "Feature",
            "geometry": {
                "type": "Point",
                "coordinates": [
                    21.0163383,
                    52.2402405
                ]
            },
            "properties": {
                "name": "Ceprownia"
            }
        },
        {
            "type": "Feature",
            "geometry": {
                "type": "Point",
                "coordinates": [
                    15.0405321,
                    53.3387615
                ]
            },
            "properties": {
                "name": "Pizzeria u Jana"
            }
        },
        {
            "type": "Feature",
            "geometry": {
                "type": "Point",
                "coordinates": [
                    20.90029,
                    52.2175585
                ]
            },
            "properties": {
                "name": "Pizzeria"
            }
        },
        {
            "type": "Feature",
            "geometry": {
                "type": "Point",
                "coordinates": [
                    21.0191994,
                    52.2316255
                ]
            },
            "properties": {
                "name": "Lanczowisko"
            }
        },
        {
            "type": "Feature",
            "geometry": {
                "type": "Point",
                "coordinates": [
                    21.0169884,
                    52.2317917
                ]
            },
            "properties": {
                "name": "DOOZO Sushi & Sticks"
            }
        },
        {
            "type": "Feature",
            "geometry": {
                "type": "Point",
                "coordinates": [
                    20.8217177,
                    52.2988044
                ]
            },
            "properties": {
                "name": "Restauracja Kampin\u00f3wka"
            }
        },
        {
            "type": "Feature",
            "geometry": {
                "type": "Point",
                "coordinates": [
                    20.8456828,
                    52.2658133
                ]
            },
            "properties": {
                "name": "Karczma w Janowie"
            }
        },
        {
            "type": "Feature",
            "geometry": {
                "type": "Point",
                "coordinates": [
                    18.7798317,
                    50.2310687
                ]
            },
            "properties": {
                "name": "Verona"
            }
        },
        {
            "type": "Feature",
            "geometry": {
                "type": "Point",
                "coordinates": [
                    21.0207062,
                    52.0755759
                ]
            },
            "properties": {
                "name": "Pesto"
            }
        },
        {
            "type": "Feature",
            "geometry": {
                "type": "Point",
                "coordinates": [
                    21.0239566,
                    52.0708936
                ]
            },
            "properties": {
                "name": "Odjazd"
            }
        },
        {
            "type": "Feature",
            "geometry": {
                "type": "Point",
                "coordinates": [
                    21.0100566,
                    52.2042447
                ]
            },
            "properties": {
                "name": "Papu"
            }
        },
        {
            "type": "Feature",
            "geometry": {
                "type": "Point",
                "coordinates": [
                    21.0140267,
                    52.2330242
                ]
            },
            "properties": {
                "name": "Orchidea"
            }
        },
        {
            "type": "Feature",
            "geometry": {
                "type": "Point",
                "coordinates": [
                    19.0236214,
                    49.6947636
                ]
            },
            "properties": {
                "name": "Bar Jaworzyna"
            }
        },
        {
            "type": "Feature",
            "geometry": {
                "type": "Point",
                "coordinates": [
                    21.0146738,
                    52.2240327
                ]
            },
            "properties": {
                "name": "Dekanta"
            }
        },
        {
            "type": "Feature",
            "geometry": {
                "type": "Point",
                "coordinates": [
                    21.0209351,
                    52.2296493
                ]
            },
            "properties": {
                "name": "Ole"
            }
        },
        {
            "type": "Feature",
            "geometry": {
                "type": "Point",
                "coordinates": [
                    21.0016685,
                    52.2341273
                ]
            },
            "properties": {
                "name": "Ti Amo"
            }
        },
        {
            "type": "Feature",
            "geometry": {
                "type": "Point",
                "coordinates": [
                    21.0012241,
                    52.2340387
                ]
            },
            "properties": {
                "name": "Hektor"
            }
        },
        {
            "type": "Feature",
            "geometry": {
                "type": "Point",
                "coordinates": [
                    18.6109882,
                    53.0111758
                ]
            },
            "properties": {
                "name": "Gospoda Pod Modrym Fartuchem & Krajina Piva"
            }
        },
        {
            "type": "Feature",
            "geometry": {
                "type": "Point",
                "coordinates": [
                    18.6321163,
                    53.0408651
                ]
            },
            "properties": {
                "name": "Fort IV"
            }
        },
        {
            "type": "Feature",
            "geometry": {
                "type": "Point",
                "coordinates": [
                    21.034523,
                    52.1441184
                ]
            },
            "properties": {
                "name": "Dolce Far Niente"
            }
        },
        {
            "type": "Feature",
            "geometry": {
                "type": "Point",
                "coordinates": [
                    15.8136862,
                    50.8752236
                ]
            }
        },
        {
            "type": "Feature",
            "geometry": {
                "type": "Point",
                "coordinates": [
                    18.7363289,
                    50.4120222
                ]
            }
        },
        {
            "type": "Feature",
            "geometry": {
                "type": "Point",
                "coordinates": [
                    21.55323,
                    52.17624
                ]
            },
            "properties": {
                "name": "Pizzeria Quattro"
            }
        },
        {
            "type": "Feature",
            "geometry": {
                "type": "Point",
                "coordinates": [
                    21.5540924,
                    52.176343
                ]
            },
            "properties": {
                "name": "Kebab"
            }
        },
        {
            "type": "Feature",
            "geometry": {
                "type": "Point",
                "coordinates": [
                    21.0132405,
                    52.2464598
                ]
            },
            "properties": {
                "name": "S\u0142owia\u0144ska"
            }
        },
        {
            "type": "Feature",
            "geometry": {
                "type": "Point",
                "coordinates": [
                    14.662683,
                    53.370548
                ]
            },
            "properties": {
                "name": "D\u0105bska"
            }
        },
        {
            "type": "Feature",
            "geometry": {
                "type": "Point",
                "coordinates": [
                    17.0865902,
                    51.0751425
                ]
            },
            "properties": {
                "name": "Pod Kogutem"
            }
        },
        {
            "type": "Feature",
            "geometry": {
                "type": "Point",
                "coordinates": [
                    22.3681762,
                    51.3434535
                ]
            },
            "properties": {
                "name": "Dw\u00f3r Lwowski"
            }
        },
        {
            "type": "Feature",
            "geometry": {
                "type": "Point",
                "coordinates": [
                    21.97162,
                    51.40391
                ]
            },
            "properties": {
                "name": "Desperado"
            }
        },
        {
            "type": "Feature",
            "geometry": {
                "type": "Point",
                "coordinates": [
                    21.9760617,
                    51.4174718
                ]
            },
            "properties": {
                "name": "Atmosfera"
            }
        },
        {
            "type": "Feature",
            "geometry": {
                "type": "Point",
                "coordinates": [
                    21.98911,
                    51.41425
                ]
            },
            "properties": {
                "name": "Smazalnia ryb"
            }
        },
        {
            "type": "Feature",
            "geometry": {
                "type": "Point",
                "coordinates": [
                    21.957139,
                    51.4207453
                ]
            },
            "properties": {
                "name": "Ro\u017cen"
            }
        },
        {
            "type": "Feature",
            "geometry": {
                "type": "Point",
                "coordinates": [
                    21.9758474,
                    51.4175633
                ]
            },
            "properties": {
                "name": "Buono"
            }
        },
        {
            "type": "Feature",
            "geometry": {
                "type": "Point",
                "coordinates": [
                    21.95247,
                    51.42227
                ]
            },
            "properties": {
                "name": "Quattro"
            }
        },
        {
            "type": "Feature",
            "geometry": {
                "type": "Point",
                "coordinates": [
                    21.97323,
                    51.41667
                ]
            },
            "properties": {
                "name": "Bufet (w Urzedzie Miasta)"
            }
        },
        {
            "type": "Feature",
            "geometry": {
                "type": "Point",
                "coordinates": [
                    21.9625984,
                    51.4178706
                ]
            },
            "properties": {
                "name": "Tawerna Grecka"
            }
        },
        {
            "type": "Feature",
            "geometry": {
                "type": "Point",
                "coordinates": [
                    21.9549167,
                    51.4168398
                ]
            },
            "properties": {
                "name": "Garma\u017cerka S\u0142oneczko"
            }
        },
        {
            "type": "Feature",
            "geometry": {
                "type": "Point",
                "coordinates": [
                    21.97073,
                    51.41748
                ]
            },
            "properties": {
                "name": "Kebab"
            }
        },
        {
            "type": "Feature",
            "geometry": {
                "type": "Point",
                "coordinates": [
                    22.3629,
                    51.3452574
                ]
            },
            "properties": {
                "name": "Podolanka"
            }
        },
        {
            "type": "Feature",
            "geometry": {
                "type": "Point",
                "coordinates": [
                    18.4837609,
                    50.3827141
                ]
            },
            "properties": {
                "name": "Elefant"
            }
        },
        {
            "type": "Feature",
            "geometry": {
                "type": "Point",
                "coordinates": [
                    18.5754243,
                    50.3863792
                ]
            },
            "properties": {
                "name": "\u0141ab\u0119d\u017a"
            }
        },
        {
            "type": "Feature",
            "geometry": {
                "type": "Point",
                "coordinates": [
                    18.6125227,
                    50.4001492
                ]
            },
            "properties": {
                "name": "Zajazd Staropolski"
            }
        },
        {
            "type": "Feature",
            "geometry": {
                "type": "Point",
                "coordinates": [
                    18.7417484,
                    50.4146189
                ]
            },
            "properties": {
                "name": "Apollo"
            }
        },
        {
            "type": "Feature",
            "geometry": {
                "type": "Point",
                "coordinates": [
                    18.7801919,
                    50.306885
                ]
            }
        },
        {
            "type": "Feature",
            "geometry": {
                "type": "Point",
                "coordinates": [
                    19.9342495,
                    49.3070028
                ]
            },
            "properties": {
                "name": "Guba\u0142zzeria"
            }
        },
        {
            "type": "Feature",
            "geometry": {
                "type": "Point",
                "coordinates": [
                    18.6159735,
                    50.5090794
                ]
            },
            "properties": {
                "name": "Oaza"
            }
        },
        {
            "type": "Feature",
            "geometry": {
                "type": "Point",
                "coordinates": [
                    18.7253783,
                    50.409197
                ]
            },
            "properties": {
                "name": "Pod Prosiakiem"
            }
        },
        {
            "type": "Feature",
            "geometry": {
                "type": "Point",
                "coordinates": [
                    18.7288767,
                    50.4098626
                ]
            },
            "properties": {
                "name": "Stodo\u0142a"
            }
        },
        {
            "type": "Feature",
            "geometry": {
                "type": "Point",
                "coordinates": [
                    18.8085002,
                    50.4357821
                ]
            },
            "properties": {
                "name": "Le\u015bnicz\u00f3wka"
            }
        },
        {
            "type": "Feature",
            "geometry": {
                "type": "Point",
                "coordinates": [
                    18.8109999,
                    50.4405007
                ]
            },
            "properties": {
                "name": "Gospoda u Wrochema"
            }
        },
        {
            "type": "Feature",
            "geometry": {
                "type": "Point",
                "coordinates": [
                    20.8621927,
                    51.2268977
                ]
            },
            "properties": {
                "name": "Primagor"
            }
        },
        {
            "type": "Feature",
            "geometry": {
                "type": "Point",
                "coordinates": [
                    21.4938765,
                    51.6162329
                ]
            },
            "properties": {
                "name": "Zajazd Texas"
            }
        },
        {
            "type": "Feature",
            "geometry": {
                "type": "Point",
                "coordinates": [
                    21.6130041,
                    51.4801799
                ]
            },
            "properties": {
                "name": "Zajazd Przy Go\u015bci\u0144cu"
            }
        },
        {
            "type": "Feature",
            "geometry": {
                "type": "Point",
                "coordinates": [
                    18.819223,
                    50.2938838
                ]
            },
            "properties": {
                "name": "Valdi Classic"
            }
        },
        {
            "type": "Feature",
            "geometry": {
                "type": "Point",
                "coordinates": [
                    18.7964598,
                    50.2868239
                ]
            },
            "properties": {
                "name": "Hotel Diament"
            }
        },
        {
            "type": "Feature",
            "geometry": {
                "type": "Point",
                "coordinates": [
                    17.0096722,
                    51.0751883
                ]
            },
            "properties": {
                "name": "Agawa"
            }
        },
        {
            "type": "Feature",
            "geometry": {
                "type": "Point",
                "coordinates": [
                    21.0726335,
                    52.2457301
                ]
            },
            "properties": {
                "name": "Sami Swoi"
            }
        },
        {
            "type": "Feature",
            "geometry": {
                "type": "Point",
                "coordinates": [
                    21.0142157,
                    52.2420844
                ]
            },
            "properties": {
                "name": "U Kucharzy"
            }
        },
        {
            "type": "Feature",
            "geometry": {
                "type": "Point",
                "coordinates": [
                    21.0138824,
                    52.2443073
                ]
            },
            "properties": {
                "name": "Giovanni Rubino"
            }
        },
        {
            "type": "Feature",
            "geometry": {
                "type": "Point",
                "coordinates": [
                    23.252098,
                    50.7176614
                ]
            },
            "properties": {
                "name": "Victoria"
            }
        },
        {
            "type": "Feature",
            "geometry": {
                "type": "Point",
                "coordinates": [
                    22.9672779,
                    51.1599729
                ]
            },
            "properties": {
                "name": "Zajazd Regionalny"
            }
        },
        {
            "type": "Feature",
            "geometry": {
                "type": "Point",
                "coordinates": [
                    23.4668613,
                    51.1341601
                ]
            },
            "properties": {
                "name": "Toscania"
            }
        },
        {
            "type": "Feature",
            "geometry": {
                "type": "Point",
                "coordinates": [
                    23.4711836,
                    51.1321007
                ]
            },
            "properties": {
                "name": "Kozak"
            }
        },
        {
            "type": "Feature",
            "geometry": {
                "type": "Point",
                "coordinates": [
                    23.41461,
                    50.45115
                ]
            },
            "properties": {
                "name": "Pizzeria"
            }
        },
        {
            "type": "Feature",
            "geometry": {
                "type": "Point",
                "coordinates": [
                    22.2677731,
                    50.5744646
                ]
            },
            "properties": {
                "name": "Zajazd \"Las Vegas\""
            }
        },
        {
            "type": "Feature",
            "geometry": {
                "type": "Point",
                "coordinates": [
                    23.4691939,
                    51.1251431
                ]
            },
            "properties": {
                "name": "Telepizza"
            }
        },
        {
            "type": "Feature",
            "geometry": {
                "type": "Point",
                "coordinates": [
                    23.4129543,
                    50.4514485
                ]
            },
            "properties": {
                "name": "Pizzeria Diavolo"
            }
        },
        {
            "type": "Feature",
            "geometry": {
                "type": "Point",
                "coordinates": [
                    18.5902134,
                    50.3167368
                ]
            },
            "properties": {
                "name": "Chata Polaka"
            }
        },
        {
            "type": "Feature",
            "geometry": {
                "type": "Point",
                "coordinates": [
                    18.6230072,
                    50.3080929
                ]
            },
            "properties": {
                "name": "Trattoria Castello"
            }
        },
        {
            "type": "Feature",
            "geometry": {
                "type": "Point",
                "coordinates": [
                    18.5283586,
                    50.3498014
                ]
            },
            "properties": {
                "name": "Tawerna"
            }
        },
        {
            "type": "Feature",
            "geometry": {
                "type": "Point",
                "coordinates": [
                    18.4617508,
                    50.3484245
                ]
            },
            "properties": {
                "name": "U Karola"
            }
        },
        {
            "type": "Feature",
            "geometry": {
                "type": "Point",
                "coordinates": [
                    18.5635213,
                    50.2692073
                ]
            }
        },
        {
            "type": "Feature",
            "geometry": {
                "type": "Point",
                "coordinates": [
                    18.6478138,
                    50.2878154
                ]
            },
            "properties": {
                "name": "Gospoda Pod Wi\u0105zem"
            }
        },
        {
            "type": "Feature",
            "geometry": {
                "type": "Point",
                "coordinates": [
                    18.6702537,
                    50.275886
                ]
            },
            "properties": {
                "name": "Trzy \u015awiaty"
            }
        },
        {
            "type": "Feature",
            "geometry": {
                "type": "Point",
                "coordinates": [
                    21.0393428,
                    52.0233121
                ]
            },
            "properties": {
                "name": "Stara Chata"
            }
        },
        {
            "type": "Feature",
            "geometry": {
                "type": "Point",
                "coordinates": [
                    21.0963081,
                    52.0452756
                ]
            },
            "properties": {
                "name": "Le Carrousel"
            }
        },
        {
            "type": "Feature",
            "geometry": {
                "type": "Point",
                "coordinates": [
                    21.0154118,
                    52.2295713
                ]
            },
            "properties": {
                "name": "Kasztelan"
            }
        },
        {
            "type": "Feature",
            "geometry": {
                "type": "Point",
                "coordinates": [
                    21.021022,
                    52.2228798
                ]
            },
            "properties": {
                "name": "Flaming & Co"
            }
        },
        {
            "type": "Feature",
            "geometry": {
                "type": "Point",
                "coordinates": [
                    21.0225746,
                    52.2266714
                ]
            },
            "properties": {
                "name": "Bar Za Piecem"
            }
        },
        {
            "type": "Feature",
            "geometry": {
                "type": "Point",
                "coordinates": [
                    21.0189423,
                    52.2262919
                ]
            },
            "properties": {
                "name": "Sunanta"
            }
        },
        {
            "type": "Feature",
            "geometry": {
                "type": "Point",
                "coordinates": [
                    21.0192033,
                    52.2258467
                ]
            },
            "properties": {
                "name": "Restauracja Endorfina"
            }
        },
        {
            "type": "Feature",
            "geometry": {
                "type": "Point",
                "coordinates": [
                    21.0190234,
                    52.2261914
                ]
            },
            "properties": {
                "name": "Tomo Sushi"
            }
        },
        {
            "type": "Feature",
            "geometry": {
                "type": "Point",
                "coordinates": [
                    21.0157841,
                    52.224782
                ]
            },
            "properties": {
                "name": "Kwai"
            }
        },
        {
            "type": "Feature",
            "geometry": {
                "type": "Point",
                "coordinates": [
                    21.0174935,
                    52.2291338
                ]
            },
            "properties": {
                "name": "Nocca House"
            }
        },
        {
            "type": "Feature",
            "geometry": {
                "type": "Point",
                "coordinates": [
                    21.0182133,
                    52.2255603
                ]
            },
            "properties": {
                "name": "Maguro"
            }
        },
        {
            "type": "Feature",
            "geometry": {
                "type": "Point",
                "coordinates": [
                    20.9755436,
                    52.2108584
                ]
            },
            "properties": {
                "name": "Van Binh"
            }
        },
        {
            "type": "Feature",
            "geometry": {
                "type": "Point",
                "coordinates": [
                    20.9739194,
                    52.2088585
                ]
            },
            "properties": {
                "name": "A Modo Mio"
            }
        },
        {
            "type": "Feature",
            "geometry": {
                "type": "Point",
                "coordinates": [
                    20.9722101,
                    52.2069372
                ]
            },
            "properties": {
                "name": "Dominium"
            }
        },
        {
            "type": "Feature",
            "geometry": {
                "type": "Point",
                "coordinates": [
                    21.0193302,
                    52.2253589
                ]
            },
            "properties": {
                "name": "Orange Klub"
            }
        },
        {
            "type": "Feature",
            "geometry": {
                "type": "Point",
                "coordinates": [
                    17.5695183,
                    53.6983793
                ]
            },
            "properties": {
                "name": "S\u0142oneczna"
            }
        },
        {
            "type": "Feature",
            "geometry": {
                "type": "Point",
                "coordinates": [
                    15.3085122,
                    51.0999424
                ]
            },
            "properties": {
                "name": "Eureka"
            }
        },
        {
            "type": "Feature",
            "geometry": {
                "type": "Point",
                "coordinates": [
                    15.4875279,
                    50.9807183
                ]
            },
            "properties": {
                "name": "Le Petit France"
            }
        },
        {
            "type": "Feature",
            "geometry": {
                "type": "Point",
                "coordinates": [
                    15.7748826,
                    50.8575923
                ]
            }
        },
        {
            "type": "Feature",
            "geometry": {
                "type": "Point",
                "coordinates": [
                    15.7745201,
                    50.8461175
                ]
            },
            "properties": {
                "name": "Dom Tyrolski"
            }
        },
        {
            "type": "Feature",
            "geometry": {
                "type": "Point",
                "coordinates": [
                    21.0853906,
                    52.2424636
                ]
            },
            "properties": {
                "name": "Akademia Smak\u00f3w Ryszarda Majewskiego"
            }
        },
        {
            "type": "Feature",
            "geometry": {
                "type": "Point",
                "coordinates": [
                    21.0163615,
                    52.2464878
                ]
            },
            "properties": {
                "name": "The Bliss"
            }
        },
        {
            "type": "Feature",
            "geometry": {
                "type": "Point",
                "coordinates": [
                    21.0139642,
                    52.2463221
                ]
            },
            "properties": {
                "name": "Pizzeria pod Wie\u017c\u0105"
            }
        },
        {
            "type": "Feature",
            "geometry": {
                "type": "Point",
                "coordinates": [
                    21.0175403,
                    52.2392833
                ]
            },
            "properties": {
                "name": "Pod Messalk\u0105"
            }
        },
        {
            "type": "Feature",
            "geometry": {
                "type": "Point",
                "coordinates": [
                    21.0197802,
                    52.2234681
                ]
            },
            "properties": {
                "name": "Salad Story"
            }
        },
        {
            "type": "Feature",
            "geometry": {
                "type": "Point",
                "coordinates": [
                    18.7584639,
                    50.3115821
                ]
            },
            "properties": {
                "name": "Trattoria"
            }
        },
        {
            "type": "Feature",
            "geometry": {
                "type": "Point",
                "coordinates": [
                    19.4033513,
                    50.6757636
                ]
            },
            "properties": {
                "name": "Bar pod Ostr\u0119\u017cnikiem"
            }
        },
        {
            "type": "Feature",
            "geometry": {
                "type": "Point",
                "coordinates": [
                    21.178107,
                    52.4149952
                ]
            },
            "properties": {
                "name": "Meta"
            }
        },
        {
            "type": "Feature",
            "geometry": {
                "type": "Point",
                "coordinates": [
                    19.2937032,
                    50.5783066
                ]
            }
        },
        {
            "type": "Feature",
            "geometry": {
                "type": "Point",
                "coordinates": [
                    16.2996982,
                    52.1574681
                ]
            },
            "properties": {
                "name": "U Micha\u0142a"
            }
        },
        {
            "type": "Feature",
            "geometry": {
                "type": "Point",
                "coordinates": [
                    19.0670677,
                    50.2221554
                ]
            },
            "properties": {
                "name": "Dworek Pod Lipami"
            }
        },
        {
            "type": "Feature",
            "geometry": {
                "type": "Point",
                "coordinates": [
                    21.0334563,
                    52.2344518
                ]
            },
            "properties": {
                "name": "Bar Verde I"
            }
        },
        {
            "type": "Feature",
            "geometry": {
                "type": "Point",
                "coordinates": [
                    21.0313968,
                    52.2339156
                ]
            },
            "properties": {
                "name": "Da Grasso"
            }
        },
        {
            "type": "Feature",
            "geometry": {
                "type": "Point",
                "coordinates": [
                    21.0324591,
                    52.2342033
                ]
            },
            "properties": {
                "name": "Dobre Jedzenie"
            }
        },
        {
            "type": "Feature",
            "geometry": {
                "type": "Point",
                "coordinates": [
                    21.0329344,
                    52.2342999
                ]
            },
            "properties": {
                "name": "Grando Pierogi"
            }
        },
        {
            "type": "Feature",
            "geometry": {
                "type": "Point",
                "coordinates": [
                    21.0853215,
                    52.2434374
                ]
            },
            "properties": {
                "name": "Satori"
            }
        },
        {
            "type": "Feature",
            "geometry": {
                "type": "Point",
                "coordinates": [
                    20.9348484,
                    52.1707451
                ]
            }
        },
        {
            "type": "Feature",
            "geometry": {
                "type": "Point",
                "coordinates": [
                    20.9352123,
                    52.1706879
                ]
            }
        },
        {
            "type": "Feature",
            "geometry": {
                "type": "Point",
                "coordinates": [
                    21.0495027,
                    52.2534447
                ]
            },
            "properties": {
                "name": "Peron 8"
            }
        },
        {
            "type": "Feature",
            "geometry": {
                "type": "Point",
                "coordinates": [
                    21.0009567,
                    52.1780158
                ]
            },
            "properties": {
                "name": "UPSS"
            }
        },
        {
            "type": "Feature",
            "geometry": {
                "type": "Point",
                "coordinates": [
                    21.0008894,
                    52.2013914
                ]
            },
            "properties": {
                "name": "Carrefour Express"
            }
        },
        {
            "type": "Feature",
            "geometry": {
                "type": "Point",
                "coordinates": [
                    21.0073996,
                    52.2435497
                ]
            },
            "properties": {
                "name": "El Popo"
            }
        },
        {
            "type": "Feature",
            "geometry": {
                "type": "Point",
                "coordinates": [
                    21.0077678,
                    52.2435886
                ]
            },
            "properties": {
                "name": "Tshingis Chan - Cesarski Pa\u0142ac"
            }
        },
        {
            "type": "Feature",
            "geometry": {
                "type": "Point",
                "coordinates": [
                    21.0114531,
                    52.2444663
                ]
            },