{
    "type": "FeatureCollection",
    "features": [
        {
            "type": "Feature",
            "geometry": {
                "type": "Point",
                "coordinates": [
                    24.7132261,
                    57.1794207
                ]
            },
            "properties": {
                "name": "Raganas \u0137\u0113\u0137is"
            }
        },
        {
            "type": "Feature",
            "geometry": {
                "type": "Point",
                "coordinates": [
                    21.5637065,
                    57.3940529
                ]
            },
            "properties": {
                "name": "Kupfernams"
            }
        },
        {
            "type": "Feature",
            "geometry": {
                "type": "Point",
                "coordinates": [
                    21.5487851,
                    57.3923841
                ]
            },
            "properties": {
                "name": "Baltika"
            }
        },
        {
            "type": "Feature",
            "geometry": {
                "type": "Point",
                "coordinates": [
                    21.5798591,
                    57.4033996
                ]
            },
            "properties": {
                "name": "J\u016brniec\u012bbas darbinieku sporta un atp\u016btas centrs"
            }
        },
        {
            "type": "Feature",
            "geometry": {
                "type": "Point",
                "coordinates": [
                    21.5628729,
                    57.3910516
                ]
            },
            "properties": {
                "name": "Tex Mex"
            }
        },
        {
            "type": "Feature",
            "geometry": {
                "type": "Point",
                "coordinates": [
                    21.5667485,
                    57.3950561
                ]
            },
            "properties": {
                "name": "Don Basil"
            }
        },
        {
            "type": "Feature",
            "geometry": {
                "type": "Point",
                "coordinates": [
                    23.2025135,
                    56.9331133
                ]
            },
            "properties": {
                "name": "Valdai\u0161i"
            }
        },
        {
            "type": "Feature",
            "geometry": {
                "type": "Point",
                "coordinates": [
                    24.3421342,
                    56.9732195
                ]
            },
            "properties": {
                "name": "Briezes"
            }
        },
        {
            "type": "Feature",
            "geometry": {
                "type": "Point",
                "coordinates": [
                    24.5605536,
                    57.091131
                ]
            },
            "properties": {
                "name": "Pie br\u0101\u013ca"
            }
        },
        {
            "type": "Feature",
            "geometry": {
                "type": "Point",
                "coordinates": [
                    24.2845832,
                    56.3598352
                ]
            },
            "properties": {
                "name": "Ro\u017emalas"
            }
        },
        {
            "type": "Feature",
            "geometry": {
                "type": "Point",
                "coordinates": [
                    24.1061102,
                    56.9484951
                ]
            },
            "properties": {
                "name": "Rozengr\u0101ls"
            }
        },
        {
            "type": "Feature",
            "geometry": {
                "type": "Point",
                "coordinates": [
                    24.3148401,
                    57.0421561
                ]
            },
            "properties": {
                "name": "Vanaga ligzda"
            }
        },
        {
            "type": "Feature",
            "geometry": {
                "type": "Point",
                "coordinates": [
                    24.1253193,
                    56.9557759
                ]
            },
            "properties": {
                "name": "Steiku haoss"
            }
        },
        {
            "type": "Feature",
            "geometry": {
                "type": "Point",
                "coordinates": [
                    24.1225728,
                    56.9548667
                ]
            },
            "properties": {
                "name": "Chaihana Sato"
            }
        },
        {
            "type": "Feature",
            "geometry": {
                "type": "Point",
                "coordinates": [
                    24.1237609,
                    56.9539256
                ]
            },
            "properties": {
                "name": "Terra"
            }
        },
        {
            "type": "Feature",
            "geometry": {
                "type": "Point",
                "coordinates": [
                    24.1170509,
                    56.9465743
                ]
            },
            "properties": {
                "name": "Cili Pica"
            }
        },
        {
            "type": "Feature",
            "geometry": {
                "type": "Point",
                "coordinates": [
                    24.1073634,
                    56.9471768
                ]
            },
            "properties": {
                "name": "Salve"
            }
        },
        {
            "type": "Feature",
            "geometry": {
                "type": "Point",
                "coordinates": [
                    24.1084491,
                    56.94852
                ]
            },
            "properties": {
                "name": "TGI Fridays"
            }
        },
        {
            "type": "Feature",
            "geometry": {
                "type": "Point",
                "coordinates": [
                    24.1088525,
                    56.9490806
                ]
            },
            "properties": {
                "name": "Steiku haoss"
            }
        },
        {
            "type": "Feature",
            "geometry": {
                "type": "Point",
                "coordinates": [
                    24.1086028,
                    56.9485957
                ]
            },
            "properties": {
                "name": "Il Patio Pizza"
            }
        },
        {
            "type": "Feature",
            "geometry": {
                "type": "Point",
                "coordinates": [
                    24.10561,
                    56.9500311
                ]
            },
            "properties": {
                "name": "Key to Riga"
            }
        },
        {
            "type": "Feature",
            "geometry": {
                "type": "Point",
                "coordinates": [
                    24.1057545,
                    56.950214
                ]
            },
            "properties": {
                "name": "Per s\u00e9"
            }
        },
        {
            "type": "Feature",
            "geometry": {
                "type": "Point",
                "coordinates": [
                    24.1116897,
                    56.9493107
                ]
            },
            "properties": {
                "name": "Sl\u0101vu restor\u0101ns"
            }
        },
        {
            "type": "Feature",
            "geometry": {
                "type": "Point",
                "coordinates": [
                    24.1238027,
                    56.9575634
                ]
            },
            "properties": {
                "name": "Gotlande"
            }
        },
        {
            "type": "Feature",
            "geometry": {
                "type": "Point",
                "coordinates": [
                    24.799954,
                    56.7168441
                ]
            }
        },
        {
            "type": "Feature",
            "geometry": {
                "type": "Point",
                "coordinates": [
                    24.4119168,
                    57.2672402
                ]
            },
            "properties": {
                "name": "Mare"
            }
        },
        {
            "type": "Feature",
            "geometry": {
                "type": "Point",
                "coordinates": [
                    24.1066056,
                    56.9495425
                ]
            },
            "properties": {
                "name": "Meat Hunters"
            }
        },
        {
            "type": "Feature",
            "geometry": {
                "type": "Point",
                "coordinates": [
                    24.102426,
                    56.9499088
                ]
            },
            "properties": {
                "name": "L\u0101s\u012bte"
            }
        },
        {
            "type": "Feature",
            "geometry": {
                "type": "Point",
                "coordinates": [
                    24.1025666,
                    56.9493961
                ]
            },
            "properties": {
                "name": "Soraksans"
            }
        },
        {
            "type": "Feature",
            "geometry": {
                "type": "Point",
                "coordinates": [
                    24.1105204,
                    56.9473456
                ]
            },
            "properties": {
                "name": "P\u0113tergailis"
            }
        },
        {
            "type": "Feature",
            "geometry": {
                "type": "Point",
                "coordinates": [
                    24.1037103,
                    56.9492595
                ]
            },
            "properties": {
                "name": "B b\u0101rs"
            }
        },
        {
            "type": "Feature",
            "geometry": {
                "type": "Point",
                "coordinates": [
                    24.1104264,
                    56.9469333
                ]
            },
            "properties": {
                "name": "Nikl\u0101vs"
            }
        },
        {
            "type": "Feature",
            "geometry": {
                "type": "Point",
                "coordinates": [
                    21.971174,
                    56.9684301
                ]
            },
            "properties": {
                "name": "Metropole"
            }
        },
        {
            "type": "Feature",
            "geometry": {
                "type": "Point",
                "coordinates": [
                    23.797367,
                    56.976105
                ]
            },
            "properties": {
                "name": "Caviar Club"
            }
        },
        {
            "type": "Feature",
            "geometry": {
                "type": "Point",
                "coordinates": [
                    24.1147882,
                    56.9513721
                ]
            },
            "properties": {
                "name": "\u010cili Pizza"
            }
        },
        {
            "type": "Feature",
            "geometry": {
                "type": "Point",
                "coordinates": [
                    24.1022109,
                    56.9506374
                ]
            },
            "properties": {
                "name": "Vecmeita ar ka\u0137i"
            }
        },
        {
            "type": "Feature",
            "geometry": {
                "type": "Point",
                "coordinates": [
                    24.6026384,
                    56.8254929
                ]
            },
            "properties": {
                "name": "Ogres presti\u017es"
            }
        },
        {
            "type": "Feature",
            "geometry": {
                "type": "Point",
                "coordinates": [
                    24.1192734,
                    56.9487562
                ]
            },
            "properties": {
                "name": "Akhtamar"
            }
        },
        {
            "type": "Feature",
            "geometry": {
                "type": "Point",
                "coordinates": [
                    24.1191083,
                    56.9489016
                ]
            },
            "properties": {
                "name": "Alibaba - Restor\u0101ns pic\u0113rija"
            }
        },
        {
            "type": "Feature",
            "geometry": {
                "type": "Point",
                "coordinates": [
                    24.6022202,
                    56.8148236
                ]
            },
            "properties": {
                "name": "Policijas akad\u0113mija '98"
            }
        },
        {
            "type": "Feature",
            "geometry": {
                "type": "Point",
                "coordinates": [
                    24.6059114,
                    56.8186034
                ]
            },
            "properties": {
                "name": "Ilze"
            }
        },
        {
            "type": "Feature",
            "geometry": {
                "type": "Point",
                "coordinates": [
                    24.6057285,
                    56.8183015
                ]
            },
            "properties": {
                "name": "Niko"
            }
        },
        {
            "type": "Feature",
            "geometry": {
                "type": "Point",
                "coordinates": [
                    24.1105961,
                    56.958114
                ]
            },
            "properties": {
                "name": "Lidojo\u0161\u0101 varde"
            }
        },
        {
            "type": "Feature",
            "geometry": {
                "type": "Point",
                "coordinates": [
                    24.1112707,
                    56.9575394
                ]
            },
            "properties": {
                "name": "Casa Nostra"
            }
        },
        {
            "type": "Feature",
            "geometry": {
                "type": "Point",
                "coordinates": [
                    24.1045599,
                    56.9588452
                ]
            },
            "properties": {
                "name": "Vincents"
            }
        },
        {
            "type": "Feature",
            "geometry": {
                "type": "Point",
                "coordinates": [
                    24.0846537,
                    56.9579971
                ]
            },
            "properties": {
                "name": "Fabrikas restor\u0101ns"
            }
        },
        {
            "type": "Feature",
            "geometry": {
                "type": "Point",
                "coordinates": [
                    24.1108132,
                    56.9577654
                ]
            },
            "properties": {
                "name": "Yakuza Sushi & Asian Fusion"
            }
        },
        {
            "type": "Feature",
            "geometry": {
                "type": "Point",
                "coordinates": [
                    24.1100461,
                    56.9562794
                ]
            },
            "properties": {
                "name": "Aragats"
            }
        },
        {
            "type": "Feature",
            "geometry": {
                "type": "Point",
                "coordinates": [
                    24.1052332,
                    56.9587926
                ]
            },
            "properties": {
                "name": "Sokr\u0101ts"
            }
        },
        {
            "type": "Feature",
            "geometry": {
                "type": "Point",
                "coordinates": [
                    24.1301484,
                    56.9672898
                ]
            },
            "properties": {
                "name": "Old Shanghai"
            }
        },
        {
            "type": "Feature",
            "geometry": {
                "type": "Point",
                "coordinates": [
                    24.1252547,
                    56.9583571
                ]
            },
            "properties": {
                "name": "\u010cili pica"
            }
        },
        {
            "type": "Feature",
            "geometry": {
                "type": "Point",
                "coordinates": [
                    24.1270391,
                    56.9548353
                ]
            },
            "properties": {
                "name": "Tiramisu"
            }
        },
        {
            "type": "Feature",
            "geometry": {
                "type": "Point",
                "coordinates": [
                    24.1199078,
                    56.952793
                ]
            },
            "properties": {
                "name": "Lido V\u0113rman\u012btis"
            }
        },
        {
            "type": "Feature",
            "geometry": {
                "type": "Point",
                "coordinates": [
                    24.2173383,
                    56.9507006
                ]
            },
            "properties": {
                "name": "Sunny"
            }
        },
        {
            "type": "Feature",
            "geometry": {
                "type": "Point",
                "coordinates": [
                    23.0543772,
                    56.9815885
                ]
            },
            "properties": {
                "name": "Jaunmoku pils"
            }
        },
        {
            "type": "Feature",
            "geometry": {
                "type": "Point",
                "coordinates": [
                    24.2062869,
                    56.941878
                ]
            },
            "properties": {
                "name": "Cancan Pizza"
            }
        },
        {
            "type": "Feature",
            "geometry": {
                "type": "Point",
                "coordinates": [
                    23.668242,
                    56.9590594
                ]
            },
            "properties": {
                "name": "K\u0101pa"
            }
        },
        {
            "type": "Feature",
            "geometry": {
                "type": "Point",
                "coordinates": [
                    24.1090494,
                    56.9488082
                ]
            },
            "properties": {
                "name": "Moonshine"
            }
        },
        {
            "type": "Feature",
            "geometry": {
                "type": "Point",
                "coordinates": [
                    24.1109949,
                    56.9489106
                ]
            },
            "properties": {
                "name": "Austrumu robe\u017ea"
            }
        },
        {
            "type": "Feature",
            "geometry": {
                "type": "Point",
                "coordinates": [
                    24.1113454,
                    56.9491178
                ]
            },
            "properties": {
                "name": "Palete"
            }
        },
        {
            "type": "Feature",
            "geometry": {
                "type": "Point",
                "coordinates": [
                    24.106825,
                    56.9492014
                ]
            },
            "properties": {
                "name": "Planeta Sushi"
            }
        },
        {
            "type": "Feature",
            "geometry": {
                "type": "Point",
                "coordinates": [
                    25.4225675,
                    57.5481461
                ]
            },
            "properties": {
                "name": "ZET \u0113dnica"
            }
        },
        {
            "type": "Feature",
            "geometry": {
                "type": "Point",
                "coordinates": [
                    21.6381529,
                    56.6982005
                ]
            },
            "properties": {
                "name": "Lejas Ra\u0137i"
            }
        },
        {
            "type": "Feature",
            "geometry": {
                "type": "Point",
                "coordinates": [
                    24.6590681,
                    57.1249818
                ]
            },
            "properties": {
                "name": "R\u0101mkalni"
            }
        },
        {
            "type": "Feature",
            "geometry": {
                "type": "Point",
                "coordinates": [
                    25.4177936,
                    57.5415709
                ]
            },
            "properties": {
                "name": "Chilli Pica"
            }
        },
        {
            "type": "Feature",
            "geometry": {
                "type": "Point",
                "coordinates": [
                    25.2750073,
                    57.3160383
                ]
            },
            "properties": {
                "name": "Province"
            }
        },
        {
            "type": "Feature",
            "geometry": {
                "type": "Point",
                "coordinates": [
                    24.1501217,
                    56.9816204
                ]
            }
        },
        {
            "type": "Feature",
            "geometry": {
                "type": "Point",
                "coordinates": [
                    24.1364858,
                    56.9757076
                ]
            },
            "properties": {
                "name": "Ez\u012b\u0161a virtuve"
            }
        },
        {
            "type": "Feature",
            "geometry": {
                "type": "Point",
                "coordinates": [
                    24.1118696,
                    56.9465161
                ]
            },
            "properties": {
                "name": "Pomodoro"
            }
        },
        {
            "type": "Feature",
            "geometry": {
                "type": "Point",
                "coordinates": [
                    24.4246892,
                    57.4052488
                ]
            }
        },
        {
            "type": "Feature",
            "geometry": {
                "type": "Point",
                "coordinates": [
                    24.3582278,
                    57.7531814
                ]
            }
        },
        {
            "type": "Feature",
            "geometry": {
                "type": "Point",
                "coordinates": [
                    25.275132,
                    57.3126621
                ]
            },
            "properties": {
                "name": "Ailanda"
            }
        },
        {
            "type": "Feature",
            "geometry": {
                "type": "Point",
                "coordinates": [
                    24.1140764,
                    56.956854
                ]
            },
            "properties": {
                "name": "Lielais \u0136\u012bnas m\u016bris"
            }
        },
        {
            "type": "Feature",
            "geometry": {
                "type": "Point",
                "coordinates": [
                    25.3053182,
                    57.2963388
                ]
            },
            "properties": {
                "name": "Saules v\u0101rti"
            }
        },
        {
            "type": "Feature",
            "geometry": {
                "type": "Point",
                "coordinates": [
                    24.8444759,
                    57.1431221
                ]
            },
            "properties": {
                "name": "\u010cilli pica"
            }
        },
        {
            "type": "Feature",
            "geometry": {
                "type": "Point",
                "coordinates": [
                    21.0084236,
                    56.5075646
                ]
            },
            "properties": {
                "name": "Pastnieka m\u0101ja"
            }
        },
        {
            "type": "Feature",
            "geometry": {
                "type": "Point",
                "coordinates": [
                    24.1100271,
                    56.9478063
                ]
            },
            "properties": {
                "name": "Felicita"
            }
        },
        {
            "type": "Feature",
            "geometry": {
                "type": "Point",
                "coordinates": [
                    25.086327,
                    56.6250051
                ]
            }
        },
        {
            "type": "Feature",
            "geometry": {
                "type": "Point",
                "coordinates": [
                    24.8200024,
                    56.7176743
                ]
            },
            "properties": {
                "name": "Kante"
            }
        },
        {
            "type": "Feature",
            "geometry": {
                "type": "Point",
                "coordinates": [
                    21.0074937,
                    56.5108736
                ]
            },
            "properties": {
                "name": "Vecais kapteinis"
            }
        },
        {
            "type": "Feature",
            "geometry": {
                "type": "Point",
                "coordinates": [
                    21.0096247,
                    56.5096462
                ]
            },
            "properties": {
                "name": "Doka pica"
            }
        },
        {
            "type": "Feature",
            "geometry": {
                "type": "Point",
                "coordinates": [
                    24.0138893,
                    56.9694497
                ]
            }
        },
        {
            "type": "Feature",
            "geometry": {
                "type": "Point",
                "coordinates": [
                    24.0313196,
                    56.9710065
                ]
            }
        },
        {
            "type": "Feature",
            "geometry": {
                "type": "Point",
                "coordinates": [
                    24.151498,
                    56.9814064
                ]
            },
            "properties": {
                "name": "Zem sp\u0101rna"
            }
        },
        {
            "type": "Feature",
            "geometry": {
                "type": "Point",
                "coordinates": [
                    24.125132,
                    56.9558942
                ]
            },
            "properties": {
                "name": "K.I.D"
            }
        },
        {
            "type": "Feature",
            "geometry": {
                "type": "Point",
                "coordinates": [
                    24.008421,
                    56.9533457
                ]
            }
        },
        {
            "type": "Feature",
            "geometry": {
                "type": "Point",
                "coordinates": [
                    24.0638667,
                    56.9452802
                ]
            },
            "properties": {
                "name": "Fei-Fei"
            }
        },
        {
            "type": "Feature",
            "geometry": {
                "type": "Point",
                "coordinates": [
                    24.1200109,
                    56.9606848
                ]
            },
            "properties": {
                "name": "Madride"
            }
        },
        {
            "type": "Feature",
            "geometry": {
                "type": "Point",
                "coordinates": [
                    24.1091906,
                    56.9602468
                ]
            },
            "properties": {
                "name": "Piranija"
            }
        },
        {
            "type": "Feature",
            "geometry": {
                "type": "Point",
                "coordinates": [
                    24.1053837,
                    56.9601748
                ]
            },
            "properties": {
                "name": "Da Antonio"
            }
        },
        {
            "type": "Feature",
            "geometry": {
                "type": "Point",
                "coordinates": [
                    24.1054367,
                    56.9606151
                ]
            },
            "properties": {
                "name": "Pekinas Restor\u0101ns"
            }
        },
        {
            "type": "Feature",
            "geometry": {
                "type": "Point",
                "coordinates": [
                    24.1349018,
                    56.9839536
                ]
            }
        },
        {
            "type": "Feature",
            "geometry": {
                "type": "Point",
                "coordinates": [
                    23.9791093,
                    56.922004
                ]
            },
            "properties": {
                "name": "Lido"
            }
        },
        {
            "type": "Feature",
            "geometry": {
                "type": "Point",
                "coordinates": [
                    24.2210896,
                    56.9536083
                ]
            },
            "properties": {
                "name": "Kafejn\u012bca"
            }
        },
        {
            "type": "Feature",
            "geometry": {
                "type": "Point",
                "coordinates": [
                    24.1080122,
                    56.9593621
                ]
            },
            "properties": {
                "name": "Alberta 13"
            }
        },
        {
            "type": "Feature",
            "geometry": {
                "type": "Point",
                "coordinates": [
                    23.7422875,
                    56.9651933
                ]
            },
            "properties": {
                "name": "Laiks"
            }
        },
        {
            "type": "Feature",
            "geometry": {
                "type": "Point",
                "coordinates": [
                    23.6013788,
                    56.9638757
                ]
            },
            "properties": {
                "name": "Ripo pica"
            }
        },
        {
            "type": "Feature",
            "geometry": {
                "type": "Point",
                "coordinates": [
                    24.100542,
                    56.9592798
                ]
            },
            "properties": {
                "name": "Ap\u0161eron"
            }
        },
        {
            "type": "Feature",
            "geometry": {
                "type": "Point",
                "coordinates": [
                    24.0376016,
                    56.9543067
                ]
            },
            "properties": {
                "name": "\u010cili pica"
            }
        },
        {
            "type": "Feature",
            "geometry": {
                "type": "Point",
                "coordinates": [
                    24.087945,
                    57.0387759
                ]
            },
            "properties": {
                "name": "Gr\u012bvas krogs"
            }
        },
        {
            "type": "Feature",
            "geometry": {
                "type": "Point",
                "coordinates": [
                    24.1184338,
                    57.0355754
                ]
            },
            "properties": {
                "name": "Nika"
            }
        },
        {
            "type": "Feature",
            "geometry": {
                "type": "Point",
                "coordinates": [
                    24.2715767,
                    56.870758
                ]
            },
            "properties": {
                "name": "D\u016bmu krogs"
            }
        },
        {
            "type": "Feature",
            "geometry": {
                "type": "Point",
                "coordinates": [
                    24.2747988,
                    56.8707355
                ]
            },
            "properties": {
                "name": "Visdari"
            }
        },
        {
            "type": "Feature",
            "geometry": {
                "type": "Point",
                "coordinates": [
                    24.1104179,
                    57.0784523
                ]
            },
            "properties": {
                "name": "Bilera"
            }
        },
        {
            "type": "Feature",
            "geometry": {
                "type": "Point",
                "coordinates": [
                    24.1090088,
                    57.0815776
                ]
            },
            "properties": {
                "name": "Saules mednieks"
            }
        },
        {
            "type": "Feature",
            "geometry": {
                "type": "Point",
                "coordinates": [
                    24.1515137,
                    56.9704991
                ]
            }
        },
        {
            "type": "Feature",
            "geometry": {
                "type": "Point",
                "coordinates": [
                    24.1591402,
                    56.9698655
                ]
            },
            "properties": {
                "name": "Pils\u0113tnieks"
            }
        },
        {
            "type": "Feature",
            "geometry": {
                "type": "Point",
                "coordinates": [
                    24.1016716,
                    56.9593154
                ]
            },
            "properties": {
                "name": "Namaste India"
            }
        },
        {
            "type": "Feature",
            "geometry": {
                "type": "Point",
                "coordinates": [
                    24.1342744,
                    56.9547538
                ]
            },
            "properties": {
                "name": "Da Roberta"
            }
        },
        {
            "type": "Feature",
            "geometry": {
                "type": "Point",
                "coordinates": [
                    24.8590374,
                    57.1453594
                ]
            },
            "properties": {
                "name": "Fazenda"
            }
        },
        {
            "type": "Feature",
            "geometry": {
                "type": "Point",
                "coordinates": [
                    24.0896158,
                    56.9488062
                ]
            },
            "properties": {
                "name": "Food and Beverages"
            }
        },
        {
            "type": "Feature",
            "geometry": {
                "type": "Point",
                "coordinates": [
                    24.1204174,
                    56.9604324
                ]
            },
            "properties": {
                "name": "\u0136\u012bnie\u0161u \u0113dieni"
            }
        },
        {
            "type": "Feature",
            "geometry": {
                "type": "Point",
                "coordinates": [
                    23.0389157,
                    56.6647866
                ]
            }
        },
        {
            "type": "Feature",
            "geometry": {
                "type": "Point",
                "coordinates": [
                    24.1103615,
                    56.9502451
                ]
            },
            "properties": {
                "name": "Monterosso"
            }
        },
        {
            "type": "Feature",
            "geometry": {
                "type": "Point",
                "coordinates": [
                    24.181874,
                    56.9776272
                ]
            },
            "properties": {
                "name": "\u0112lande"
            }
        },
        {
            "type": "Feature",
            "geometry": {
                "type": "Point",
                "coordinates": [
                    24.1274612,
                    56.9591645
                ]
            },
            "properties": {
                "name": "Lauvas Nams"
            }
        },
        {
            "type": "Feature",
            "geometry": {
                "type": "Point",
                "coordinates": [
                    24.1807168,
                    56.9777338
                ]
            },
            "properties": {
                "name": "\u0112lande"
            }
        },
        {
            "type": "Feature",
            "geometry": {
                "type": "Point",
                "coordinates": [
                    24.127237,
                    56.9945365
                ]
            },
            "properties": {
                "name": "Bistro"
            }
        },
        {
            "type": "Feature",
            "geometry": {
                "type": "Point",
                "coordinates": [
                    24.1317839,
                    56.9873299
                ]
            },
            "properties": {
                "name": "Gan bei"
            }
        },
        {
            "type": "Feature",
            "geometry": {
                "type": "Point",
                "coordinates": [
                    24.1175592,
                    56.9943649
                ]
            }
        },
        {
            "type": "Feature",
            "geometry": {
                "type": "Point",
                "coordinates": [
                    24.1316755,
                    56.9522316
                ]
            },
            "properties": {
                "name": "Lido \u0122ertr\u016bde"
            }
        },
        {
            "type": "Feature",
            "geometry": {
                "type": "Point",
                "coordinates": [
                    25.040018,
                    57.2336559
                ]
            },
            "properties": {
                "name": "Vilhelm\u012bnes dzirnavas"
            }
        },
        {
            "type": "Feature",
            "geometry": {
                "type": "Point",
                "coordinates": [
                    24.1213444,
                    56.9600201
                ]
            },
            "properties": {
                "name": "Vest"
            }
        },
        {
            "type": "Feature",
            "geometry": {
                "type": "Point",
                "coordinates": [
                    24.1200171,
                    56.956863
                ]
            },
            "properties": {
                "name": "Fazenda"
            }
        },
        {
            "type": "Feature",
            "geometry": {
                "type": "Point",
                "coordinates": [
                    24.8480198,
                    57.1530786
                ]
            },
            "properties": {
                "name": "\u0146amma"
            }
        },
        {
            "type": "Feature",
            "geometry": {
                "type": "Point",
                "coordinates": [
                    21.0029519,
                    56.5052565
                ]
            },
            "properties": {
                "name": "Jugend"
            }
        },
        {
            "type": "Feature",
            "geometry": {
                "type": "Point",
                "coordinates": [
                    24.1272766,
                    56.9583184
                ]
            },
            "properties": {
                "name": "Kokanda"
            }
        },
        {
            "type": "Feature",
            "geometry": {
                "type": "Point",
                "coordinates": [
                    24.1077242,
                    57.0810877
                ]
            },
            "properties": {
                "name": "Vejins"
            }
        },
        {
            "type": "Feature",
            "geometry": {
                "type": "Point",
                "coordinates": [
                    25.2767033,
                    57.3133368
                ]
            },
            "properties": {
                "name": "MoMo"
            }
        },
        {
            "type": "Feature",
            "geometry": {
                "type": "Point",
                "coordinates": [
                    26.2197737,
                    56.8539049
                ]
            }
        },
        {
            "type": "Feature",
            "geometry": {
                "type": "Point",
                "coordinates": [
                    24.8508565,
                    57.157319
                ]
            },
            "properties": {
                "name": "Bistro Za\u013cumnieku piest\u0101tne"
            }
        },
        {
            "type": "Feature",
            "geometry": {
                "type": "Point",
                "coordinates": [
                    24.1095315,
                    56.9490545
                ]
            },
            "properties": {
                "name": "Amplua"
            }
        },
        {
            "type": "Feature",
            "geometry": {
                "type": "Point",
                "coordinates": [
                    24.1062923,
                    56.9510577
                ]
            },
            "properties": {
                "name": "101. stacija"
            }
        },
        {
            "type": "Feature",
            "geometry": {
                "type": "Point",
                "coordinates": [
                    26.5130204,
                    55.8778284
                ]
            },
            "properties": {
                "name": "\u010cili pica"
            }
        },
        {
            "type": "Feature",
            "geometry": {
                "type": "Point",
                "coordinates": [
                    21.9394359,
                    56.9707244
                ]
            }
        },
        {
            "type": "Feature",
            "geometry": {
                "type": "Point",
                "coordinates": [
                    22.6453439,
                    57.0206945
                ]
            }
        },
        {
            "type": "Feature",
            "geometry": {
                "type": "Point",
                "coordinates": [
                    24.118956,
                    56.9556658
                ]
            },
            "properties": {
                "name": "Klondaika"
            }
        },
        {
            "type": "Feature",
            "geometry": {
                "type": "Point",
                "coordinates": [
                    24.1186264,
                    56.9555295
                ]
            },
            "properties": {
                "name": "Shogun"
            }
        },
        {
            "type": "Feature",
            "geometry": {
                "type": "Point",
                "coordinates": [
                    24.1096864,
                    56.9479306
                ]
            },
            "properties": {
                "name": "Domini Canes"
            }
        },
        {
            "type": "Feature",
            "geometry": {
                "type": "Point",
                "coordinates": [
                    24.133557,
                    56.9480725
                ]
            },
            "properties": {
                "name": "Julieta"
            }
        },
        {
            "type": "Feature",
            "geometry": {
                "type": "Point",
                "coordinates": [
                    24.1767478,
                    56.9507214
                ]
            },
            "properties": {
                "name": "Erebuni"
            }
        },
        {
            "type": "Feature",
            "geometry": {
                "type": "Point",
                "coordinates": [
                    24.165208,
                    56.9590283
                ]
            },
            "properties": {
                "name": "\u0112dn\u012bca"
            }
        },
        {
            "type": "Feature",
            "geometry": {
                "type": "Point",
                "coordinates": [
                    23.3732784,
                    56.4875845
                ]
            },
            "properties": {
                "name": "Manadaba"
            }
        },
        {
            "type": "Feature",
            "geometry": {
                "type": "Point",
                "coordinates": [
                    21.3852587,
                    57.0074762
                ]
            },
            "properties": {
                "name": "Pilsber\u0123u krogs"
            }
        },
        {
            "type": "Feature",
            "geometry": {
                "type": "Point",
                "coordinates": [
                    24.6042683,
                    56.8170563
                ]
            },
            "properties": {
                "name": "Elvi Cafe"
            }
        },
        {
            "type": "Feature",
            "geometry": {
                "type": "Point",
                "coordinates": [
                    24.1306619,
                    56.9581924
                ]
            },
            "properties": {
                "name": "Da Sergio"
            }
        },
        {
            "type": "Feature",
            "geometry": {
                "type": "Point",
                "coordinates": [
                    24.1026978,
                    56.9508934
                ]
            },
            "properties": {
                "name": "Alus arsen\u0101ls"
            }
        },
        {
            "type": "Feature",
            "geometry": {
                "type": "Point",
                "coordinates": [
                    24.1025859,
                    56.9510043
                ]
            },
            "properties": {
                "name": "Olive Oil"
            }
        },
        {
            "type": "Feature",
            "geometry": {
                "type": "Point",
                "coordinates": [
                    26.3761192,
                    55.9033513
                ]
            },
            "properties": {
                "name": "Sventes mui\u017ea"
            }
        },
        {
            "type": "Feature",
            "geometry": {
                "type": "Point",
                "coordinates": [
                    24.3463003,
                    57.1850295
                ]
            },
            "properties": {
                "name": "Medz\u0101baki"
            }
        },
        {
            "type": "Feature",
            "geometry": {
                "type": "Point",
                "coordinates": [
                    24.0430052,
                    56.951487
                ]
            },
            "properties": {
                "name": "Iberija"
            }
        },
        {
            "type": "Feature",
            "geometry": {
                "type": "Point",
                "coordinates": [
                    24.1118717,
                    56.9575743
                ]
            },
            "properties": {
                "name": "Jautrais maiznieks"
            }
        },
        {
            "type": "Feature",
            "geometry": {
                "type": "Point",
                "coordinates": [
                    24.1083802,
                    56.9503917
                ]
            },
            "properties": {
                "name": "Tincture Sincere"
            }
        },
        {
            "type": "Feature",
            "geometry": {
                "type": "Point",
                "coordinates": [
                    24.1396088,
                    56.9511417
                ]
            }
        },
        {
            "type": "Feature",
            "geometry": {
                "type": "Point",
                "coordinates": [
                    24.1307421,
                    56.9651752
                ]
            },
            "properties": {
                "name": "Klubs \"Piens\""
            }
        },
        {
            "type": "Feature",
            "geometry": {
                "type": "Point",
                "coordinates": [
                    24.1259153,
                    56.9537043
                ]
            },
            "properties": {
                "name": "N\u0101c un \u0113d"
            }
        },
        {
            "type": "Feature",
            "geometry": {
                "type": "Point",
                "coordinates": [
                    24.1376276,
                    56.9610052
                ]
            }
        },
        {
            "type": "Feature",
            "geometry": {
                "type": "Point",
                "coordinates": [
                    24.1010708,
                    56.9553395
                ]
            },
            "properties": {
                "name": "Ave Luna"
            }
        },
        {
            "type": "Feature",
            "geometry": {
                "type": "Point",
                "coordinates": [
                    24.1065717,
                    56.9479305
                ]
            },
            "properties": {
                "name": "Daily Special"
            }
        },
        {
            "type": "Feature",
            "geometry": {
                "type": "Point",
                "coordinates": [
                    24.1087035,
                    56.949225
                ]
            },
            "properties": {
                "name": "Colonel"
            }
        },
        {
            "type": "Feature",
            "geometry": {
                "type": "Point",
                "coordinates": [
                    24.1086504,
                    56.9492964
                ]
            },
            "properties": {
                "name": "Zil\u0101 govs"
            }
        },
        {
            "type": "Feature",
            "geometry": {
                "type": "Point",
                "coordinates": [
                    24.1133203,
                    56.9480613
                ]
            },
            "properties": {
                "name": "Planeta Sushi / Il Patio"
            }
        },
        {
            "type": "Feature",
            "geometry": {
                "type": "Point",
                "coordinates": [
                    24.0309041,
                    56.943821
                ]
            }
        },
        {
            "type": "Feature",
            "geometry": {
                "type": "Point",
                "coordinates": [
                    24.018447,
                    56.9448301
                ]
            },
            "properties": {
                "name": "Pizza Italiano"
            }
        },
        {
            "type": "Feature",
            "geometry": {
                "type": "Point",
                "coordinates": [
                    26.5183358,
                    55.8719065
                ]
            },
            "properties": {
                "name": "\u010cili pica"
            }
        },
        {
            "type": "Feature",
            "geometry": {
                "type": "Point",
                "coordinates": [
                    24.0945818,
                    57.0352798
                ]
            },
            "properties": {
                "name": "\u0122imenes kafejn\u012bca"
            }
        },
        {
            "type": "Feature",
            "geometry": {
                "type": "Point",
                "coordinates": [
                    24.1063583,
                    56.9588524
                ]
            },
            "properties": {
                "name": "Provansa"
            }
        },
        {
            "type": "Feature",
            "geometry": {
                "type": "Point",
                "coordinates": [
                    24.158612,
                    56.8816675
                ]
            }
        },
        {
            "type": "Feature",
            "geometry": {
                "type": "Point",
                "coordinates": [
                    24.1064456,
                    56.9509727
                ]
            },
            "properties": {
                "name": "Gar\u0101\u017ea"
            }
        },
        {
            "type": "Feature",
            "geometry": {
                "type": "Point",
                "coordinates": [
                    24.10753,
                    56.9507111
                ]
            },
            "properties": {
                "name": "T\u0113vocis Va\u0146a"
            }
        },
        {
            "type": "Feature",
            "geometry": {
                "type": "Point",
                "coordinates": [
                    24.1126865,
                    56.9591819
                ]
            },
            "properties": {
                "name": "Riviera"
            }
        },
        {
            "type": "Feature",
            "geometry": {
                "type": "Point",
                "coordinates": [
                    24.3195752,
                    57.033953
                ]
            },
            "properties": {
                "name": "Route 786"
            }
        },
        {
            "type": "Feature",
            "geometry": {
                "type": "Point",
                "coordinates": [
                    23.7162896,
                    56.8970874
                ]
            },
            "properties": {
                "name": "L\u0101\u010di"
            }
        },
        {
            "type": "Feature",
            "geometry": {
                "type": "Point",
                "coordinates": [
                    24.1018968,
                    56.9722484
                ]
            },
            "properties": {
                "name": "Fifty Six\u00b0N Twenty Four\u00b0E"
            }
        },
        {
            "type": "Feature",
            "geometry": {
                "type": "Point",
                "coordinates": [
                    24.1254603,
                    56.9548849
                ]
            },
            "properties": {
                "name": "Te\u0101tra b\u0101ra restor\u0101ns"
            }
        },
        {
            "type": "Feature",
            "geometry": {
                "type": "Point",
                "coordinates": [
                    24.1134256,
                    56.9586263
                ]
            },
            "properties": {
                "name": "Bestsellers"
            }
        },
        {
            "type": "Feature",
            "geometry": {
                "type": "Point",
                "coordinates": [
                    24.0801494,
                    56.9544164
                ]
            },
            "properties": {
                "name": "Expo cafe"
            }
        },
        {
            "type": "Feature",
            "geometry": {
                "type": "Point",
                "coordinates": [
                    24.1468278,
                    56.9090995
                ]
            },
            "properties": {
                "name": "Mielastu centrs"
            }
        },
        {
            "type": "Feature",
            "geometry": {
                "type": "Point",
                "coordinates": [
                    24.1279725,
                    56.9563453
                ]
            },
            "properties": {
                "name": "l'Aperitivo"
            }
        },
        {
            "type": "Feature",
            "geometry": {
                "type": "Point",
                "coordinates": [
                    24.1276834,
                    56.9564827
                ]
            },
            "properties": {
                "name": "V\u012bna studija"
            }
        },
        {
            "type": "Feature",
            "geometry": {
                "type": "Point",
                "coordinates": [
                    24.4148073,
                    57.2633098
                ]
            },
            "properties": {
                "name": "10 Balles"
            }
        },
        {
            "type": "Feature",
            "geometry": {
                "type": "Point",
                "coordinates": [
                    24.1197646,
                    56.9585158
                ]
            },
            "properties": {
                "name": "Aleksandrs"
            }
        },
        {
            "type": "Feature",
            "geometry": {
                "type": "Point",
                "coordinates": [
                    24.3166307,
                    57.0444893
                ]
            },
            "properties": {
                "name": "Visti\u0146as, Karbon\u0101des un Steiki"
            }
        },
        {
            "type": "Feature",
            "geometry": {
                "type": "Point",
                "coordinates": [
                    24.3187819,
                    57.0421488
                ]
            }
        },
        {
            "type": "Feature",
            "geometry": {
                "type": "Point",
                "coordinates": [
                    24.1260606,
                    56.9514717
                ]
            },
            "properties": {
                "name": "El \u010carlito"
            }
        },
        {
            "type": "Feature",
            "geometry": {
                "type": "Point",
                "coordinates": [
                    24.1260634,
                    56.9515905
                ]
            },
            "properties": {
                "name": "restor\u0101ns \u010carlstons"
            }
        },
        {
            "type": "Feature",
            "geometry": {
                "type": "Point",
                "coordinates": [
                    24.1038001,
                    56.9493002
                ]
            },
            "properties": {
                "name": "Daily"
            }
        },
        {
            "type": "Feature",
            "geometry": {
                "type": "Point",
                "coordinates": [
                    24.3899507,
                    57.4891608
                ]
            },
            "properties": {
                "name": "Liedags L"
            }
        },
        {
            "type": "Feature",
            "geometry": {
                "type": "Point",
                "coordinates": [
                    24.1192429,
                    56.9916328
                ]
            }
        },
        {
            "type": "Feature",
            "geometry": {
                "type": "Point",
                "coordinates": [
                    24.1090972,
                    56.9502515
                ]
            },
            "properties": {
                "name": "Carpe Diem"
            }
        },
        {
            "type": "Feature",
            "geometry": {
                "type": "Point",
                "coordinates": [
                    24.1075546,
                    56.9482897
                ]
            },
            "properties": {
                "name": "Desiderata"
            }
        },
        {
            "type": "Feature",
            "geometry": {
                "type": "Point",
                "coordinates": [
                    24.1077337,
                    56.9487527
                ]
            },
            "properties": {
                "name": "\u0160efpav\u0101rs Vilhelms"
            }
        },
        {
            "type": "Feature",
            "geometry": {
                "type": "Point",
                "coordinates": [
                    24.1031523,
                    56.9496385
                ]
            },
            "properties": {
                "name": "Valtera restor\u0101ns"
            }
        },
        {
            "type": "Feature",
            "geometry": {
                "type": "Point",
                "coordinates": [
                    24.0997556,
                    56.9543244
                ]
            },
            "properties": {
                "name": "Al Kanna"
            }
        },
        {
            "type": "Feature",
            "geometry": {
                "type": "Point",
                "coordinates": [
                    24.119561,
                    56.9467182
                ]
            },
            "properties": {
                "name": "Lage kafejn\u012bca"
            }
        },
        {
            "type": "Feature",
            "geometry": {
                "type": "Point",
                "coordinates": [
                    23.7232641,
                    56.6528626
                ]
            },
            "properties": {
                "name": "Bistrob\u0101rs & restor\u0101ns PARKS"
            }
        },
        {
            "type": "Feature",
            "geometry": {
                "type": "Point",
                "coordinates": [
                    23.3904327,
                    56.7353578
                ]
            },
            "properties": {
                "name": "Kapr\u012bze"
            }
        },
        {
            "type": "Feature",
            "geometry": {
                "type": "Point",
                "coordinates": [
                    23.7777542,
                    56.640002
                ]
            },
            "properties": {
                "name": "Zemnieka cienasts"
            }
        },
        {
            "type": "Feature",
            "geometry": {
                "type": "Point",
                "coordinates": [
                    24.852352,
                    57.1554186
                ]
            },
            "properties": {
                "name": "Kropotkins"
            }
        },
        {
            "type": "Feature",
            "geometry": {
                "type": "Point",
                "coordinates": [
                    24.1204928,
                    56.9566538
                ]
            },
            "properties": {
                "name": "MiiT"
            }
        },
        {
            "type": "Feature",
            "geometry": {
                "type": "Point",
                "coordinates": [
                    24.0949459,
                    57.047543
                ]
            }
        },
        {
            "type": "Feature",
            "geometry": {
                "type": "Point",
                "coordinates": [
                    24.1093606,
                    57.0793706
                ]
            }
        },
        {
            "type": "Feature",
            "geometry": {
                "type": "Point",
                "coordinates": [
                    23.5569896,
                    56.9754049
                ]
            },
            "properties": {
                "name": "Nept\u016bns"
            }
        },
        {
            "type": "Feature",
            "geometry": {
                "type": "Point",
                "coordinates": [
                    22.4946491,
                    56.6643622
                ]
            }
        },
        {
            "type": "Feature",
            "geometry": {
                "type": "Point",
                "coordinates": [
                    24.1890683,
                    56.9798151
                ]
            },
            "properties": {
                "name": "Shangri-la"
            }
        },
        {
            "type": "Feature",
            "geometry": {
                "type": "Point",
                "coordinates": [
                    24.136198,
                    56.9514979
                ]
            },
            "properties": {
                "name": "Tr\u012bs v\u012bri laiv\u0101"
            }
        },
        {
            "type": "Feature",
            "geometry": {
                "type": "Point",
                "coordinates": [
                    24.333183,
                    56.3135816
                ]
            }
        },
        {
            "type": "Feature",
            "geometry": {
                "type": "Point",
                "coordinates": [
                    24.2096078,
                    56.8978825
                ]
            },
            "properties": {
                "name": "V\u012bnoga"
            }
        },
        {
            "type": "Feature",
            "geometry": {
                "type": "Point",
                "coordinates": [
                    24.1223869,
                    56.9502478
                ]
            },
            "properties": {
                "name": "Gar\u0101\u017ea"
            }
        },
        {
            "type": "Feature",
            "geometry": {
                "type": "Point",
                "coordinates": [
                    24.1191398,
                    56.9537136
                ]
            },
            "properties": {
                "name": "Tinto"
            }
        },
        {
            "type": "Feature",
            "geometry": {
                "type": "Point",
                "coordinates": [
                    23.4426683,
                    56.4964515
                ]
            },
            "properties": {
                "name": "Puteli"
            }
        },
        {
            "type": "Feature",
            "geometry": {
                "type": "Point",
                "coordinates": [
                    24.1093673,
                    56.9560192
                ]
            },
            "properties": {
                "name": "Otella"
            }
        },
        {
            "type": "Feature",
            "geometry": {
                "type": "Point",
                "coordinates": [
                    23.3491531,
                    56.6247564
                ]
            },
            "properties": {
                "name": "Milti\u0146krogs"
            }
        },
        {
            "type": "Feature",
            "geometry": {
                "type": "Point",
                "coordinates": [
                    24.3674545,
                    57.6869202
                ]
            },
            "properties": {
                "name": "Rakari"
            }
        },
        {
            "type": "Feature",
            "geometry": {
                "type": "Point",
                "coordinates": [
                    24.1286373,
                    56.9547148
                ]
            },
            "properties": {
                "name": "R\u0101ma"
            }
        },
        {
            "type": "Feature",
            "geometry": {
                "type": "Point",
                "coordinates": [
                    24.8096616,
                    56.717079
                ]
            },
            "properties": {
                "name": "Elvi"
            }
        },
        {
            "type": "Feature",
            "geometry": {
                "type": "Point",
                "coordinates": [
                    24.6336794,
                    56.9737649
                ]
            }
        },
        {
            "type": "Feature",
            "geometry": {
                "type": "Point",
                "coordinates": [
                    24.712775,
                    57.1800082
                ]
            },
            "properties": {
                "name": "Raganas ligzda"
            }
        },
        {
            "type": "Feature",
            "geometry": {
                "type": "Point",
                "coordinates": [
                    26.7220012,
                    56.901769
                ]
            }
        },
        {
            "type": "Feature",
            "geometry": {
                "type": "Point",
                "coordinates": [
                    24.3133756,
                    57.0216897
                ]
            },
            "properties": {
                "name": "Baltvila"
            }
        },
        {
            "type": "Feature",
            "geometry": {
                "type": "Point",
                "coordinates": [
                    23.7628,
                    56.6606718
                ]
            },
            "properties": {
                "name": "OTTO Bistro"
            }
        },
        {
            "type": "Feature",
            "geometry": {
                "type": "Point",
                "coordinates": [
                    24.1502189,
                    56.9647244
                ]
            },
            "properties": {
                "name": "Mikado"
            }
        },
        {
            "type": "Feature",
            "geometry": {
                "type": "Point",
                "coordinates": [
                    24.1541757,
                    56.9654448
                ]
            },
            "properties": {
                "name": "Tre\u0161\u0101 br\u012bvdiena"
            }
        },
        {
            "type": "Feature",
            "geometry": {
                "type": "Point",
                "coordinates": [
                    24.1131015,
                    56.9472574
                ]
            },
            "properties": {
                "name": "Pipars"
            }
        },
        {
            "type": "Feature",
            "geometry": {
                "type": "Point",
                "coordinates": [
                    24.1182978,
                    56.9646117
                ]
            }
        },
        {
            "type": "Feature",
            "geometry": {
                "type": "Point",
                "coordinates": [
                    24.1079949,
                    56.9460538
                ]
            },
            "properties": {
                "name": "Trompete"
            }
        },
        {
            "type": "Feature",
            "geometry": {
                "type": "Point",
                "coordinates": [
                    24.1096813,
                    56.9469503
                ]
            },
            "properties": {
                "name": "Ribs & Rock"
            }
        },
        {
            "type": "Feature",
            "geometry": {
                "type": "Point",
                "coordinates": [
                    24.1619936,
                    56.9715278
                ]
            },
            "properties": {
                "name": "Hartvik"
            }
        },
        {
            "type": "Feature",
            "geometry": {
                "type": "Point",
                "coordinates": [
                    24.1600242,
                    56.9717012
                ]
            },
            "properties": {
                "name": "Sunny"
            }
        },
        {
            "type": "Feature",
            "geometry": {
                "type": "Point",
                "coordinates": [
                    24.1497504,
                    56.965789
                ]
            },
            "properties": {
                "name": "\u0112dn\u012bca"
            }
        },
        {
            "type": "Feature",
            "geometry": {
                "type": "Point",
                "coordinates": [
                    24.1435511,
                    56.9674556
                ]
            },
            "properties": {
                "name": "Puncis"
            }
        },
        {
            "type": "Feature",
            "geometry": {
                "type": "Point",
                "coordinates": [
                    24.8598048,
                    57.1442845
                ]
            },
            "properties": {
                "name": "\u0146amma"
            }
        },
        {
            "type": "Feature",
            "geometry": {
                "type": "Point",
                "coordinates": [
                    24.4695818,
                    57.4625716
                ]
            }
        },
        {
            "type": "Feature",
            "geometry": {
                "type": "Point",
                "coordinates": [
                    24.471808,
                    57.4630708
                ]
            }
        },
        {
            "type": "Feature",
            "geometry": {
                "type": "Point",
                "coordinates": [
                    24.0564939,
                    56.9051641
                ]
            }
        },
        {
            "type": "Feature",
            "geometry": {
                "type": "Point",
                "coordinates": [
                    24.1785856,
                    57.0032585
                ]
            },
            "properties": {
                "name": "Green island"
            }
        },
        {
            "type": "Feature",
            "geometry": {
                "type": "Point",
                "coordinates": [
                    24.1353209,
                    56.968844
                ]
            },
            "properties": {
                "name": "International"
            }
        },
        {
            "type": "Feature",
            "geometry": {
                "type": "Point",
                "coordinates": [
                    24.1422553,
                    56.9674307
                ]
            },
            "properties": {
                "name": "Cafe 31"
            }
        },
        {
            "type": "Feature",
            "geometry": {
                "type": "Point",
                "coordinates": [
                    24.3496565,
                    56.8601553
                ]
            }
        },
        {
            "type": "Feature",
            "geometry": {
                "type": "Point",
                "coordinates": [
                    24.3505135,
                    56.8581675
                ]
            },
            "properties": {
                "name": "Ance"
            }
        },
        {
            "type": "Feature",
            "geometry": {
                "type": "Point",
                "coordinates": [
                    24.8316163,
                    57.1841652
                ]
            },
            "properties": {
                "name": "Kungu rija"
            }
        },
        {
            "type": "Feature",
            "geometry": {
                "type": "Point",
                "coordinates": [
                    22.8581422,
                    56.9775513
                ]
            }
        },
        {
            "type": "Feature",
            "geometry": {
                "type": "Point",
                "coordinates": [
                    24.123458,
                    56.9504141
                ]
            },
            "properties": {
                "name": "Fellini"
            }
        },
        {
            "type": "Feature",
            "geometry": {
                "type": "Point",
                "coordinates": [
                    24.0621106,
                    56.926936
                ]
            }
        },
        {
            "type": "Feature",
            "geometry": {
                "type": "Point",
                "coordinates": [
                    24.1054051,
                    56.9254237
                ]
            },
            "properties": {
                "name": "Gan Bei"
            }
        },
        {
            "type": "Feature",
            "geometry": {
                "type": "Point",
                "coordinates": [
                    24.102702,
                    56.9259623
                ]
            },
            "properties": {
                "name": "\u010cili Pica"
            }
        },
        {
            "type": "Feature",
            "geometry": {
                "type": "Point",
                "coordinates": [
                    24.1023718,
                    56.9270841
                ]
            },
            "properties": {
                "name": "Double Coffee"
            }
        },
        {
            "type": "Feature",
            "geometry": {
                "type": "Point",
                "coordinates": [
                    24.1067403,
                    56.9230256
                ]
            },
            "properties": {
                "name": "\u010cili Pica"
            }
        },
        {
            "type": "Feature",
            "geometry": {
                "type": "Point",
                "coordinates": [
                    23.2700335,
                    56.6209502
                ]
            }
        },
        {
            "type": "Feature",
            "geometry": {
                "type": "Point",
                "coordinates": [
                    23.2605547,
                    56.7983781
                ]
            }
        },
        {
            "type": "Feature",
            "geometry": {
                "type": "Point",
                "coordinates": [
                    23.2284195,
                    57.1624861
                ]
            },
            "properties": {
                "name": "Elvi kafejn\u012bca"
            }
        },
        {
            "type": "Feature",
            "geometry": {
                "type": "Point",
                "coordinates": [
                    24.1458676,
                    56.9537294
                ]
            },
            "properties": {
                "name": "Ugunsdz\u0113s\u0113js"
            }
        },
        {
            "type": "Feature",
            "geometry": {
                "type": "Point",
                "coordinates": [
                    24.117705,
                    56.9570616
                ]
            },
            "properties": {
                "name": "Raw Garden"
            }
        },
        {
            "type": "Feature",
            "geometry": {
                "type": "Point",
                "coordinates": [
                    22.9692525,
                    56.6640829
                ]
            },
            "properties": {
                "name": "Dzirnavi\u0146as"
            }
        },
        {
            "type": "Feature",
            "geometry": {
                "type": "Point",
                "coordinates": [
                    24.3920543,
                    56.742503
                ]
            },
            "properties": {
                "name": "Burgers 66"
            }
        },
        {
            "type": "Feature",
            "geometry": {
                "type": "Point",
                "coordinates": [
                    24.2517593,
                    56.9437975
                ]
            },
            "properties": {
                "name": "J\u0101n\u012btis"
            }
        },
        {
            "type": "Feature",
            "geometry": {
                "type": "Point",
                "coordinates": [
                    24.8987542,
                    57.1535845
                ]
            },
            "properties": {
                "name": "Bucef\u0101ls"
            }
        },
        {
            "type": "Feature",
            "geometry": {
                "type": "Point",
                "coordinates": [
                    24.032698,
                    56.8965304
                ]
            }
        },
        {
            "type": "Feature",
            "geometry": {
                "type": "Point",
                "coordinates": [
                    24.0819361,
                    56.9663082
                ]
            },
            "properties": {
                "name": "Restor\u0101ns Osta"
            }
        },
        {
            "type": "Feature",
            "geometry": {
                "type": "Point",
                "coordinates": [
                    23.9010034,
                    56.9978694
                ]
            },
            "properties": {
                "name": "36 l\u012bnija"
            }
        },
        {
            "type": "Feature",
            "geometry": {
                "type": "Point",
                "coordinates": [
                    24.1213905,
                    56.9406184
                ]
            },
            "properties": {
                "name": "Livonija"
            }
        },
        {
            "type": "Feature",
            "geometry": {
                "type": "Point",
                "coordinates": [
                    23.2621818,
                    56.9202945
                ]
            }
        },
        {
            "type": "Feature",
            "geometry": {
                "type": "Point",
                "coordinates": [
                    23.2143663,
                    56.9297259
                ]
            }
        },
        {
            "type": "Feature",
            "geometry": {
                "type": "Point",
                "coordinates": [
                    24.0781292,
                    56.9433809
                ]
            },
            "properties": {
                "name": "Fazenda"
            }
        },
        {
            "type": "Feature",
            "geometry": {
                "type": "Point",
                "coordinates": [
                    24.3432982,
                    57.1498799
                ]
            }
        },
        {
            "type": "Feature",
            "geometry": {
                "type": "Point",
                "coordinates": [
                    24.2573276,
                    56.9435925
                ]
            },
            "properties": {
                "name": "Baku restorans"
            }
        },
        {
            "type": "Feature",
            "geometry": {
                "type": "Point",
                "coordinates": [
                    23.8005653,
                    56.9766728
                ]
            },
            "properties": {
                "name": "Romantika"
            }
        },
        {
            "type": "Feature",
            "geometry": {
                "type": "Point",
                "coordinates": [
                    24.0840346,
                    56.9513098
                ]
            }
        },
        {
            "type": "Feature",
            "geometry": {
                "type": "Point",
                "coordinates": [
                    24.1584481,
                    56.9691288
                ]
            },
            "properties": {
                "name": "Pamatskolas \"Harmonija\" edn\u012bca"
            }
        },
        {
            "type": "Feature",
            "geometry": {
                "type": "Point",
                "coordinates": [
                    24.1237638,
                    56.9566594
                ]
            },
            "properties": {
                "name": "Hong Hu"
            }
        },
        {
            "type": "Feature",
            "geometry": {
                "type": "Point",
                "coordinates": [
                    24.0394201,
                    56.918889
                ]
            },
            "properties": {
                "name": "Hercogs"
            }
        },
        {
            "type": "Feature",
            "geometry": {
                "type": "Point",
                "coordinates": [
                    24.2447291,
                    56.8241193
                ]
            }
        },
        {
            "type": "Feature",
            "geometry": {
                "type": "Point",
                "coordinates": [
                    24.8533799,
                    57.1544957
                ]
            },
            "properties": {
                "name": "B\u0101rs Ritters"
            }
        },
        {
            "type": "Feature",
            "geometry": {
                "type": "Point",
                "coordinates": [
                    21.9700313,
                    56.9684424
                ]
            },
            "properties": {
                "name": "Stenders"
            }
        },
        {
            "type": "Feature",
            "geometry": {
                "type": "Point",
                "coordinates": [
                    21.9710771,
                    56.967745
                ]
            },
            "properties": {
                "name": "Pagrabi\u0146\u0161"
            }
        },
        {
            "type": "Feature",
            "geometry": {
                "type": "Point",
                "coordinates": [
                    27.050465,
                    57.4237484
                ]
            },
            "properties": {
                "name": "Pajumte"
            }
        },
        {
            "type": "Feature",
            "geometry": {
                "type": "Point",
                "coordinates": [
                    26.2184265,
                    56.8531732
                ]
            },
            "properties": {
                "name": "\u0160l\u0101geris"
            }
        },
        {
            "type": "Feature",
            "geometry": {
                "type": "Point",
                "coordinates": [
                    23.9616066,
                    56.9489556
                ]
            },
            "properties": {
                "name": "V\u0113rdi\u0146\u0161"
            }
        },
        {
            "type": "Feature",
            "geometry": {
                "type": "Point",
                "coordinates": [
                    24.1638396,
                    56.9660505
                ]
            },
            "properties": {
                "name": "Charlie pizza"
            }
        },
        {
            "type": "Feature",
            "geometry": {
                "type": "Point",
                "coordinates": [
                    24.1648569,
                    56.9661616
                ]
            },
            "properties": {
                "name": "\u010cili pica"
            }
        },
        {
            "type": "Feature",
            "geometry": {
                "type": "Point",
                "coordinates": [
                    24.1619631,
                    56.9665184
                ]
            },
            "properties": {
                "name": "Vair\u0101k saules"
            }
        },
        {
            "type": "Feature",
            "geometry": {
                "type": "Point",
                "coordinates": [
                    24.1202367,
                    56.9542735
                ]
            },
            "properties": {
                "name": "Armenia"
            }
        },
        {
            "type": "Feature",
            "geometry": {
                "type": "Point",
                "coordinates": [
                    24.1200833,
                    56.9544354
                ]
            },
            "properties": {
                "name": "Vair\u0101k saules"
            }
        },
        {
            "type": "Feature",
            "geometry": {
                "type": "Point",
                "coordinates": [
                    26.5158871,
                    55.8682374
                ]
            },
            "properties": {
                "name": "Gubernators"
            }
        },
        {
            "type": "Feature",
            "geometry": {
                "type": "Point",
                "coordinates": [
                    24.1371253,
                    56.9742332
                ]
            },
            "properties": {
                "name": "Vair\u0101k saules"
            }
        },
        {
            "type": "Feature",
            "geometry": {
                "type": "Point",
                "coordinates": [
                    24.2279546,
                    56.9542574
                ]
            }
        },
        {
            "type": "Feature",
            "geometry": {
                "type": "Point",
                "coordinates": [
                    21.9806834,
                    56.970711
                ]
            },
            "properties": {
                "name": "P\u012bl\u0101dz\u012btis"
            }
        },
        {
            "type": "Feature",
            "geometry": {
                "type": "Point",
                "coordinates": [
                    23.3577314,
                    56.9126688
                ]
            }
        },
        {
            "type": "Feature",
            "geometry": {
                "type": "Point",
                "coordinates": [
                    25.8676908,
                    56.497691
                ]
            },
            "properties": {
                "name": "Su\u0161i b\u0101rs \"Sakura\""
            }
        },
        {
            "type": "Feature",
            "geometry": {
                "type": "Point",
                "coordinates": [
                    24.1509981,
                    56.959422
                ]
            },
            "properties": {
                "name": "DragonBox"
            }
        },
        {
            "type": "Feature",
            "geometry": {
                "type": "Point",
                "coordinates": [
                    25.4285696,
                    57.5390969
                ]
            },
            "properties": {
                "name": "Pils \u0136\u0113kis"
            }
        },
        {
            "type": "Feature",
            "geometry": {
                "type": "Point",
                "coordinates": [
                    22.9186009,
                    57.0364077
                ]
            },
            "properties": {
                "name": "Pie J\u0101\u0146a"
            }
        },
        {
            "type": "Feature",
            "geometry": {
                "type": "Point",
                "coordinates": [
                    22.574876,
                    57.0449406
                ]
            }
        },
        {
            "type": "Feature",
            "geometry": {
                "type": "Point",
                "coordinates": [
                    24.1167175,
                    56.9553061
                ]
            },
            "properties": {
                "name": "Brown Sugar"
            }
        },
        {
            "type": "Feature",
            "geometry": {
                "type": "Point",
                "coordinates": [
                    24.1658129,
                    56.942111
                ]
            },
            "properties": {
                "name": "\u0112dn\u012bca Busi\u0146\u0161"
            }
        },
        {
            "type": "Feature",
            "geometry": {
                "type": "Point",
                "coordinates": [
                    24.1150209,
                    56.9423558
                ]
            },
            "properties": {
                "name": "Pirosmani"
            }
        },
        {
            "type": "Feature",
            "geometry": {
                "type": "Point",
                "coordinates": [
                    24.1489714,
                    56.9304354
                ]
            },
            "properties": {
                "name": "Riverside House"
            }
        },
        {
            "type": "Feature",
            "geometry": {
                "type": "Point",
                "coordinates": [
                    24.1186194,
                    56.9558295
                ]
            },
            "properties": {
                "name": "Onegin"
            }
        },
        {
            "type": "Feature",
            "geometry": {
                "type": "Point",
                "coordinates": [
                    25.4937923,
                    57.2793079
                ]
            },
            "properties": {
                "name": "B\u0113rzkroga Bistro"
            }
        },
        {
            "type": "Feature",
            "geometry": {
                "type": "Point",
                "coordinates": [
                    24.1619249,
                    56.9668695
                ]
            },
            "properties": {
                "name": "Lido Domina"
            }
        },
        {
            "type": "Feature",
            "geometry": {
                "type": "Point",
                "coordinates": [
                    21.0075065,
                    56.501485
                ]
            }
        },
        {
            "type": "Feature",
            "geometry": {
                "type": "Point",
                "coordinates": [
                    24.1689775,
                    56.9173181
                ]
            },
            "properties": {
                "name": "Banketu z\u0101le / Restor\u0101ns EIROPA"
            }
        },
        {
            "type": "Feature",
            "geometry": {
                "type": "Point",
                "coordinates": [
                    24.1159902,
                    56.9523228
                ]
            },
            "properties": {
                "name": "Tokyo City"
            }
        },
        {
            "type": "Feature",
            "geometry": {
                "type": "Point",
                "coordinates": [
                    26.2206537,
                    56.8520336
                ]
            },
            "properties": {
                "name": "Rudzons"
            }
        },
        {
            "type": "Feature",
            "geometry": {
                "type": "Point",
                "coordinates": [
                    24.1183764,
                    56.9559524
                ]
            },
            "properties": {
                "name": "Silk"
            }
        },
        {
            "type": "Feature",
            "geometry": {
                "type": "Point",
                "coordinates": [
                    23.8083652,
                    56.9743808
                ]
            },
            "properties": {
                "name": "Il Pato"
            }
        },
        {
            "type": "Feature",
            "geometry": {
                "type": "Point",
                "coordinates": [
                    24.1123279,
                    56.9472412
                ]
            },
            "properties": {
                "name": "V\u0113j\u0161 v\u012btolos"
            }
        },
        {
            "type": "Feature",
            "geometry": {
                "type": "Point",
                "coordinates": [
                    23.2248382,
                    57.1656477
                ]
            },
            "properties": {
                "name": "Kapteinis & Grants"
            }
        },
        {
            "type": "Feature",
            "geometry": {
                "type": "Point",
                "coordinates": [
                    25.3589577,
                    57.3135204
                ]
            }
        },
        {
            "type": "Feature",
            "geometry": {
                "type": "Point",
                "coordinates": [
                    23.1621803,
                    56.9667164
                ]
            },
            "properties": {
                "name": "Care"
            }
        },
        {
            "type": "Feature",
            "geometry": {
                "type": "Point",
                "coordinates": [
                    24.1170489,
                    56.9655554
                ]
            },
            "properties": {
                "name": "Hesburger"
            }
        },
        {
            "type": "Feature",
            "geometry": {
                "type": "Point",
                "coordinates": [
                    24.1276018,
                    56.9910964
                ]
            },
            "properties": {
                "name": "Cheese Moon"
            }
        },
        {
            "type": "Feature",
            "geometry": {
                "type": "Point",
                "coordinates": [
                    24.0959464,
                    56.9423044
                ]
            },
            "properties": {
                "name": "Picas meistars"
            }
        },
        {
            "type": "Feature",
            "geometry": {
                "type": "Point",
                "coordinates": [
                    24.1717591,
                    56.972146
                ]
            },
            "properties": {
                "name": "Pie lodzi\u0146a"
            }
        },
        {
            "type": "Feature",
            "geometry": {
                "type": "Point",
                "coordinates": [
                    24.1746325,
                    56.9715484
                ]
            },
            "properties": {
                "name": "Priedmalas"
            }
        },
        {
            "type": "Feature",
            "geometry": {
                "type": "Point",
                "coordinates": [
                    24.1792061,
                    56.9708692
                ]
            },
            "properties": {
                "name": "Miranda"
            }
        },
        {
            "type": "Feature",
            "geometry": {
                "type": "Point",
                "coordinates": [
                    24.1054819,
                    56.9484503
                ]
            },
            "properties": {
                "name": "Neiburgs"
            }
        },
        {
            "type": "Feature",
            "geometry": {
                "type": "Point",
                "coordinates": [
                    24.1055905,
                    56.9487056
                ]
            },
            "properties": {
                "name": "1221"
            }
        },
        {
            "type": "Feature",
            "geometry": {
                "type": "Point",
                "coordinates": [
                    24.8456075,
                    57.1859758
                ]
            }
        },
        {
            "type": "Feature",
            "geometry": {
                "type": "Point",
                "coordinates": [
                    24.1342528,
                    56.9568492
                ]
            },
            "properties": {
                "name": "\u010cilli Pica"
            }
        },
        {
            "type": "Feature",
            "geometry": {
                "type": "Point",
                "coordinates": [
                    24.1287424,
                    56.9541762
                ]
            },
            "properties": {
                "name": "\u010cemod\u0101ns"
            }
        },
        {
            "type": "Feature",
            "geometry": {
                "type": "Point",
                "coordinates": [
                    24.1087602,
                    56.9486527
                ]
            },
            "properties": {
                "name": "Ribs & Rock"
            }
        },