{
    "type": "FeatureCollection",
    "features": [
        {
            "type": "Feature",
            "geometry": {
                "type": "Point",
                "coordinates": [
                    17.2566131,
                    48.1881554
                ]
            },
            "properties": {
                "name": "Pizzeria Emilia"
            }
        },
        {
            "type": "Feature",
            "geometry": {
                "type": "Point",
                "coordinates": [
                    17.1627315,
                    48.2017662
                ]
            },
            "properties": {
                "name": "Demar"
            }
        },
        {
            "type": "Feature",
            "geometry": {
                "type": "Point",
                "coordinates": [
                    17.249705,
                    48.1865124
                ]
            },
            "properties": {
                "name": "Paf\u00e1rska re\u0161taur\u00e1cia"
            }
        },
        {
            "type": "Feature",
            "geometry": {
                "type": "Point",
                "coordinates": [
                    20.3093757,
                    49.0606724
                ]
            },
            "properties": {
                "name": "Koliba"
            }
        },
        {
            "type": "Feature",
            "geometry": {
                "type": "Point",
                "coordinates": [
                    21.2375606,
                    48.7067689
                ]
            },
            "properties": {
                "name": "Le\u017eiaca Bosorka"
            }
        },
        {
            "type": "Feature",
            "geometry": {
                "type": "Point",
                "coordinates": [
                    21.2500139,
                    48.6961097
                ]
            },
            "properties": {
                "name": "Olive Pizza Restaurant"
            }
        },
        {
            "type": "Feature",
            "geometry": {
                "type": "Point",
                "coordinates": [
                    21.2064871,
                    48.7096052
                ]
            },
            "properties": {
                "name": "Koliba"
            }
        },
        {
            "type": "Feature",
            "geometry": {
                "type": "Point",
                "coordinates": [
                    21.261776,
                    48.7134839
                ]
            },
            "properties": {
                "name": "U hasi\u010da"
            }
        },
        {
            "type": "Feature",
            "geometry": {
                "type": "Point",
                "coordinates": [
                    21.2594139,
                    48.7157963
                ]
            },
            "properties": {
                "name": "Star\u00e1 s\u00fdpka"
            }
        },
        {
            "type": "Feature",
            "geometry": {
                "type": "Point",
                "coordinates": [
                    21.2605059,
                    48.7161005
                ]
            },
            "properties": {
                "name": "Mavisa"
            }
        },
        {
            "type": "Feature",
            "geometry": {
                "type": "Point",
                "coordinates": [
                    21.2776099,
                    48.7269227
                ]
            },
            "properties": {
                "name": "Pizza Marin"
            }
        },
        {
            "type": "Feature",
            "geometry": {
                "type": "Point",
                "coordinates": [
                    18.1923257,
                    47.8732683
                ]
            },
            "properties": {
                "name": "Ka\u0161tie\u013e"
            }
        },
        {
            "type": "Feature",
            "geometry": {
                "type": "Point",
                "coordinates": [
                    18.1873236,
                    47.8663045
                ]
            },
            "properties": {
                "name": "Twins"
            }
        },
        {
            "type": "Feature",
            "geometry": {
                "type": "Point",
                "coordinates": [
                    17.3627025,
                    48.3959861
                ]
            },
            "properties": {
                "name": "\u0160tadi\u00f3n"
            }
        },
        {
            "type": "Feature",
            "geometry": {
                "type": "Point",
                "coordinates": [
                    21.2557315,
                    48.7183675
                ]
            },
            "properties": {
                "name": "Grill Pub"
            }
        },
        {
            "type": "Feature",
            "geometry": {
                "type": "Point",
                "coordinates": [
                    21.2596941,
                    48.7248919
                ]
            },
            "properties": {
                "name": "Golden Royal"
            }
        },
        {
            "type": "Feature",
            "geometry": {
                "type": "Point",
                "coordinates": [
                    21.2612489,
                    48.6888817
                ]
            },
            "properties": {
                "name": "Tempus"
            }
        },
        {
            "type": "Feature",
            "geometry": {
                "type": "Point",
                "coordinates": [
                    21.1151525,
                    48.6094272
                ]
            }
        },
        {
            "type": "Feature",
            "geometry": {
                "type": "Point",
                "coordinates": [
                    20.9792437,
                    48.6092648
                ]
            },
            "properties": {
                "name": "Orgov\u00e1n"
            }
        },
        {
            "type": "Feature",
            "geometry": {
                "type": "Point",
                "coordinates": [
                    20.8720506,
                    48.606798
                ]
            },
            "properties": {
                "name": "Re\u0161taur\u00e1cia pod Hradom"
            }
        },
        {
            "type": "Feature",
            "geometry": {
                "type": "Point",
                "coordinates": [
                    20.6296525,
                    48.6190333
                ]
            },
            "properties": {
                "name": "Koliba Soro\u0161ka"
            }
        },
        {
            "type": "Feature",
            "geometry": {
                "type": "Point",
                "coordinates": [
                    20.2647471,
                    48.3960046
                ]
            },
            "properties": {
                "name": "Motorest Eva"
            }
        },
        {
            "type": "Feature",
            "geometry": {
                "type": "Point",
                "coordinates": [
                    19.9506473,
                    48.3904988
                ]
            },
            "properties": {
                "name": "Motorest Cie\u013e"
            }
        },
        {
            "type": "Feature",
            "geometry": {
                "type": "Point",
                "coordinates": [
                    19.6277185,
                    48.3906745
                ]
            },
            "properties": {
                "name": "Halier"
            }
        },
        {
            "type": "Feature",
            "geometry": {
                "type": "Point",
                "coordinates": [
                    19.4459442,
                    48.5295385
                ]
            },
            "properties": {
                "name": "Culinaire"
            }
        },
        {
            "type": "Feature",
            "geometry": {
                "type": "Point",
                "coordinates": [
                    19.4135062,
                    48.5350501
                ]
            },
            "properties": {
                "name": "Sala\u0161 Detvan"
            }
        },
        {
            "type": "Feature",
            "geometry": {
                "type": "Point",
                "coordinates": [
                    19.2872314,
                    48.55529
                ]
            },
            "properties": {
                "name": "Motorest na Ro\u017eku"
            }
        },
        {
            "type": "Feature",
            "geometry": {
                "type": "Point",
                "coordinates": [
                    19.2927921,
                    48.5550288
                ]
            },
            "properties": {
                "name": "Pod Z\u00e1mkom"
            }
        },
        {
            "type": "Feature",
            "geometry": {
                "type": "Point",
                "coordinates": [
                    19.2604149,
                    48.5601846
                ]
            },
            "properties": {
                "name": "Penzi\u00f3n Zlat\u00fd Duk\u00e1t"
            }
        },
        {
            "type": "Feature",
            "geometry": {
                "type": "Point",
                "coordinates": [
                    17.3101711,
                    48.3353095
                ]
            },
            "properties": {
                "name": "Vin\u00e1re\u0148 u Ludvika"
            }
        },
        {
            "type": "Feature",
            "geometry": {
                "type": "Point",
                "coordinates": [
                    17.2683005,
                    48.2876116
                ]
            },
            "properties": {
                "name": "Lalia"
            }
        },
        {
            "type": "Feature",
            "geometry": {
                "type": "Point",
                "coordinates": [
                    18.5210279,
                    48.2436183
                ]
            },
            "properties": {
                "name": "Ran\u010d u Bobiho"
            }
        },
        {
            "type": "Feature",
            "geometry": {
                "type": "Point",
                "coordinates": [
                    21.5944065,
                    49.3262679
                ]
            },
            "properties": {
                "name": "Motorest Alpinka"
            }
        },
        {
            "type": "Feature",
            "geometry": {
                "type": "Point",
                "coordinates": [
                    18.0969494,
                    48.3293283
                ]
            },
            "properties": {
                "name": "Zlat\u00fd K\u013e\u00fa\u010dik"
            }
        },
        {
            "type": "Feature",
            "geometry": {
                "type": "Point",
                "coordinates": [
                    17.3349631,
                    48.3938846
                ]
            },
            "properties": {
                "name": "Taverna"
            }
        },
        {
            "type": "Feature",
            "geometry": {
                "type": "Point",
                "coordinates": [
                    17.1473227,
                    48.1475348
                ]
            },
            "properties": {
                "name": "Mlyn"
            }
        },
        {
            "type": "Feature",
            "geometry": {
                "type": "Point",
                "coordinates": [
                    17.5854532,
                    48.374097
                ]
            }
        },
        {
            "type": "Feature",
            "geometry": {
                "type": "Point",
                "coordinates": [
                    17.5878994,
                    48.3748171
                ]
            },
            "properties": {
                "name": "Slovensk\u00e1 re\u0161taur\u00e1cia u Michala"
            }
        },
        {
            "type": "Feature",
            "geometry": {
                "type": "Point",
                "coordinates": [
                    17.1588002,
                    48.1462845
                ]
            },
            "properties": {
                "name": "Brit"
            }
        },
        {
            "type": "Feature",
            "geometry": {
                "type": "Point",
                "coordinates": [
                    17.2639507,
                    48.2567239
                ]
            },
            "properties": {
                "name": "Pivnica u Zlatej husi"
            }
        },
        {
            "type": "Feature",
            "geometry": {
                "type": "Point",
                "coordinates": [
                    19.8404896,
                    48.5722206
                ]
            },
            "properties": {
                "name": "Re\u0161taur\u00e1cia Kokavsk\u00e1 izba"
            }
        },
        {
            "type": "Feature",
            "geometry": {
                "type": "Point",
                "coordinates": [
                    17.1651361,
                    48.1644193
                ]
            },
            "properties": {
                "name": "Sunny"
            }
        },
        {
            "type": "Feature",
            "geometry": {
                "type": "Point",
                "coordinates": [
                    19.3526314,
                    48.2100932
                ]
            },
            "properties": {
                "name": "Tenis u Milana"
            }
        },
        {
            "type": "Feature",
            "geometry": {
                "type": "Point",
                "coordinates": [
                    21.1813823,
                    48.7602728
                ]
            },
            "properties": {
                "name": "Alpinka"
            }
        },
        {
            "type": "Feature",
            "geometry": {
                "type": "Point",
                "coordinates": [
                    21.1863879,
                    48.7586691
                ]
            },
            "properties": {
                "name": "Ob\u010derstvenie na r\u00e1zcest\u00ed"
            }
        },
        {
            "type": "Feature",
            "geometry": {
                "type": "Point",
                "coordinates": [
                    19.8244358,
                    48.2632769
                ]
            },
            "properties": {
                "name": "Victory"
            }
        },
        {
            "type": "Feature",
            "geometry": {
                "type": "Point",
                "coordinates": [
                    21.0808148,
                    48.8196699
                ]
            }
        },
        {
            "type": "Feature",
            "geometry": {
                "type": "Point",
                "coordinates": [
                    21.2613646,
                    48.7196627
                ]
            },
            "properties": {
                "name": "Dobr\u00e9 \u010dasy"
            }
        },
        {
            "type": "Feature",
            "geometry": {
                "type": "Point",
                "coordinates": [
                    21.2388548,
                    48.7138419
                ]
            },
            "properties": {
                "name": "Vigvam"
            }
        },
        {
            "type": "Feature",
            "geometry": {
                "type": "Point",
                "coordinates": [
                    21.2386425,
                    48.7137271
                ]
            },
            "properties": {
                "name": "Mandarin"
            }
        },
        {
            "type": "Feature",
            "geometry": {
                "type": "Point",
                "coordinates": [
                    17.0722601,
                    48.1547198
                ]
            },
            "properties": {
                "name": "Bastion - Slovensk\u00e1 Koliba"
            }
        },
        {
            "type": "Feature",
            "geometry": {
                "type": "Point",
                "coordinates": [
                    22.1524027,
                    48.9886796
                ]
            },
            "properties": {
                "name": "Herkules"
            }
        },
        {
            "type": "Feature",
            "geometry": {
                "type": "Point",
                "coordinates": [
                    22.154036,
                    48.98876
                ]
            }
        },
        {
            "type": "Feature",
            "geometry": {
                "type": "Point",
                "coordinates": [
                    22.1490876,
                    48.9865468
                ]
            }
        },
        {
            "type": "Feature",
            "geometry": {
                "type": "Point",
                "coordinates": [
                    17.9286896,
                    48.1536689
                ]
            },
            "properties": {
                "name": "Nitranka"
            }
        },
        {
            "type": "Feature",
            "geometry": {
                "type": "Point",
                "coordinates": [
                    17.5044072,
                    48.1250284
                ]
            },
            "properties": {
                "name": "Bufet pri mlyne"
            }
        },
        {
            "type": "Feature",
            "geometry": {
                "type": "Point",
                "coordinates": [
                    17.2980027,
                    48.1945196
                ]
            },
            "properties": {
                "name": "Hostinec u Jadro\u0148a"
            }
        },
        {
            "type": "Feature",
            "geometry": {
                "type": "Point",
                "coordinates": [
                    19.8409188,
                    48.5717818
                ]
            },
            "properties": {
                "name": "Re\u0161taur\u00e1cia Kokava"
            }
        },
        {
            "type": "Feature",
            "geometry": {
                "type": "Point",
                "coordinates": [
                    21.5106595,
                    49.1096755
                ]
            },
            "properties": {
                "name": "Skaln\u00fd orol"
            }
        },
        {
            "type": "Feature",
            "geometry": {
                "type": "Point",
                "coordinates": [
                    21.4515875,
                    49.0990624
                ]
            },
            "properties": {
                "name": "\u010cepcov"
            }
        },
        {
            "type": "Feature",
            "geometry": {
                "type": "Point",
                "coordinates": [
                    21.4063942,
                    49.0465372
                ]
            },
            "properties": {
                "name": "U \u010dierneho ko\u0148a"
            }
        },
        {
            "type": "Feature",
            "geometry": {
                "type": "Point",
                "coordinates": [
                    17.2053172,
                    48.2030994
                ]
            },
            "properties": {
                "name": "Modr\u00fd dom"
            }
        },
        {
            "type": "Feature",
            "geometry": {
                "type": "Point",
                "coordinates": [
                    17.2045115,
                    48.2031408
                ]
            },
            "properties": {
                "name": "Vin\u00e1re\u0148 a re\u0161taur\u00e1cia pri kaplnke"
            }
        },
        {
            "type": "Feature",
            "geometry": {
                "type": "Point",
                "coordinates": [
                    17.3876202,
                    48.218832
                ]
            },
            "properties": {
                "name": "Siesta pub"
            }
        },
        {
            "type": "Feature",
            "geometry": {
                "type": "Point",
                "coordinates": [
                    17.3912566,
                    48.2189081
                ]
            },
            "properties": {
                "name": "Rozmar\u00edn"
            }
        },
        {
            "type": "Feature",
            "geometry": {
                "type": "Point",
                "coordinates": [
                    21.2546585,
                    48.7315104
                ]
            },
            "properties": {
                "name": "Rokoko"
            }
        },
        {
            "type": "Feature",
            "geometry": {
                "type": "Point",
                "coordinates": [
                    21.2608397,
                    48.7288712
                ]
            },
            "properties": {
                "name": "Pizzeria Palermo"
            }
        },
        {
            "type": "Feature",
            "geometry": {
                "type": "Point",
                "coordinates": [
                    17.4111263,
                    48.2122871
                ]
            },
            "properties": {
                "name": "Zelen\u00fd dvor"
            }
        },
        {
            "type": "Feature",
            "geometry": {
                "type": "Point",
                "coordinates": [
                    18.1817589,
                    47.9767934
                ]
            },
            "properties": {
                "name": "Hubert"
            }
        },
        {
            "type": "Feature",
            "geometry": {
                "type": "Point",
                "coordinates": [
                    17.1388981,
                    48.3691095
                ]
            }
        },
        {
            "type": "Feature",
            "geometry": {
                "type": "Point",
                "coordinates": [
                    19.6103181,
                    49.2598987
                ]
            },
            "properties": {
                "name": "Star\u00e1 kr\u010dma"
            }
        },
        {
            "type": "Feature",
            "geometry": {
                "type": "Point",
                "coordinates": [
                    17.3091314,
                    48.356731
                ]
            }
        },
        {
            "type": "Feature",
            "geometry": {
                "type": "Point",
                "coordinates": [
                    18.483448,
                    48.3547541
                ]
            },
            "properties": {
                "name": "Motorest Zubor"
            }
        },
        {
            "type": "Feature",
            "geometry": {
                "type": "Point",
                "coordinates": [
                    17.4310952,
                    48.5056576
                ]
            },
            "properties": {
                "name": "Havran"
            }
        },
        {
            "type": "Feature",
            "geometry": {
                "type": "Point",
                "coordinates": [
                    17.4014376,
                    48.4943834
                ]
            },
            "properties": {
                "name": "Koniare\u0148"
            }
        },
        {
            "type": "Feature",
            "geometry": {
                "type": "Point",
                "coordinates": [
                    17.4009434,
                    48.4943725
                ]
            },
            "properties": {
                "name": "\u0160karb\u00e1k"
            }
        },
        {
            "type": "Feature",
            "geometry": {
                "type": "Point",
                "coordinates": [
                    17.2777292,
                    48.3810863
                ]
            },
            "properties": {
                "name": "Furmansk\u00e1 kr\u010dma"
            }
        },
        {
            "type": "Feature",
            "geometry": {
                "type": "Point",
                "coordinates": [
                    17.2018343,
                    48.2053132
                ]
            },
            "properties": {
                "name": "Pizzeria - Restaurant Alviano"
            }
        },
        {
            "type": "Feature",
            "geometry": {
                "type": "Point",
                "coordinates": [
                    18.6090095,
                    48.2164823
                ]
            },
            "properties": {
                "name": "Font\u00e1na"
            }
        },
        {
            "type": "Feature",
            "geometry": {
                "type": "Point",
                "coordinates": [
                    17.4306926,
                    48.5062964
                ]
            },
            "properties": {
                "name": "Palffy"
            }
        },
        {
            "type": "Feature",
            "geometry": {
                "type": "Point",
                "coordinates": [
                    17.4313595,
                    48.5070675
                ]
            },
            "properties": {
                "name": "Pizzeria Halen\u00e1r"
            }
        },
        {
            "type": "Feature",
            "geometry": {
                "type": "Point",
                "coordinates": [
                    17.1431361,
                    48.1982225
                ]
            },
            "properties": {
                "name": "Kras\u0148ansk\u00e1 k\u00faria"
            }
        },
        {
            "type": "Feature",
            "geometry": {
                "type": "Point",
                "coordinates": [
                    21.2602567,
                    48.720401
                ]
            },
            "properties": {
                "name": "Ajvega"
            }
        },
        {
            "type": "Feature",
            "geometry": {
                "type": "Point",
                "coordinates": [
                    21.2587211,
                    48.7182432
                ]
            },
            "properties": {
                "name": "Le Colonial"
            }
        },
        {
            "type": "Feature",
            "geometry": {
                "type": "Point",
                "coordinates": [
                    21.2556495,
                    48.720541
                ]
            },
            "properties": {
                "name": "Villa Regia"
            }
        },
        {
            "type": "Feature",
            "geometry": {
                "type": "Point",
                "coordinates": [
                    21.2559577,
                    48.7235297
                ]
            },
            "properties": {
                "name": "Keltsk\u00e1 kr\u010dma"
            }
        },
        {
            "type": "Feature",
            "geometry": {
                "type": "Point",
                "coordinates": [
                    17.1266587,
                    48.1577165
                ]
            },
            "properties": {
                "name": "Bastion Pub"
            }
        },
        {
            "type": "Feature",
            "geometry": {
                "type": "Point",
                "coordinates": [
                    17.4885037,
                    48.0004083
                ]
            }
        },
        {
            "type": "Feature",
            "geometry": {
                "type": "Point",
                "coordinates": [
                    18.1739096,
                    48.558887
                ]
            },
            "properties": {
                "name": "Mil\u00e9nium"
            }
        },
        {
            "type": "Feature",
            "geometry": {
                "type": "Point",
                "coordinates": [
                    17.8930097,
                    48.2992288
                ]
            },
            "properties": {
                "name": "S\u00fdpka u Ludv\u00edka"
            }
        },
        {
            "type": "Feature",
            "geometry": {
                "type": "Point",
                "coordinates": [
                    19.6786735,
                    49.049636
                ]
            },
            "properties": {
                "name": "Di Cartello"
            }
        },
        {
            "type": "Feature",
            "geometry": {
                "type": "Point",
                "coordinates": [
                    19.6707,
                    49.033942
                ]
            },
            "properties": {
                "name": "Javorovica"
            }
        },
        {
            "type": "Feature",
            "geometry": {
                "type": "Point",
                "coordinates": [
                    17.1116103,
                    48.0978117
                ]
            },
            "properties": {
                "name": "La Mia"
            }
        },
        {
            "type": "Feature",
            "geometry": {
                "type": "Point",
                "coordinates": [
                    19.6638937,
                    48.3339168
                ]
            },
            "properties": {
                "name": "Irish pub"
            }
        },
        {
            "type": "Feature",
            "geometry": {
                "type": "Point",
                "coordinates": [
                    19.6653488,
                    48.3316756
                ]
            },
            "properties": {
                "name": "Viecha"
            }
        },
        {
            "type": "Feature",
            "geometry": {
                "type": "Point",
                "coordinates": [
                    19.6553626,
                    48.3297728
                ]
            },
            "properties": {
                "name": "Notre"
            }
        },
        {
            "type": "Feature",
            "geometry": {
                "type": "Point",
                "coordinates": [
                    18.2639711,
                    47.8463744
                ]
            },
            "properties": {
                "name": "J&J"
            }
        },
        {
            "type": "Feature",
            "geometry": {
                "type": "Point",
                "coordinates": [
                    20.7317917,
                    49.0066726
                ]
            },
            "properties": {
                "name": "Spi\u0161sk\u00fd sala\u0161"
            }
        },
        {
            "type": "Feature",
            "geometry": {
                "type": "Point",
                "coordinates": [
                    17.1123825,
                    48.1483772
                ]
            },
            "properties": {
                "name": "1. Slovensk\u00e1 kr\u010dma"
            }
        },
        {
            "type": "Feature",
            "geometry": {
                "type": "Point",
                "coordinates": [
                    21.2115889,
                    48.713135
                ]
            },
            "properties": {
                "name": "Rodeo Club"
            }
        },
        {
            "type": "Feature",
            "geometry": {
                "type": "Point",
                "coordinates": [
                    21.2139932,
                    48.7159265
                ]
            }
        },
        {
            "type": "Feature",
            "geometry": {
                "type": "Point",
                "coordinates": [
                    20.1565826,
                    49.1558566
                ]
            },
            "properties": {
                "name": "Sliezsky dom"
            }
        },
        {
            "type": "Feature",
            "geometry": {
                "type": "Point",
                "coordinates": [
                    17.1607109,
                    48.158398
                ]
            },
            "properties": {
                "name": "Pizza Champion"
            }
        },
        {
            "type": "Feature",
            "geometry": {
                "type": "Point",
                "coordinates": [
                    17.833196,
                    48.7548287
                ]
            },
            "properties": {
                "name": "Al Cacciatore"
            }
        },
        {
            "type": "Feature",
            "geometry": {
                "type": "Point",
                "coordinates": [
                    21.2568645,
                    48.7235046
                ]
            },
            "properties": {
                "name": "Med Malina"
            }
        },
        {
            "type": "Feature",
            "geometry": {
                "type": "Point",
                "coordinates": [
                    17.9693257,
                    48.8686498
                ]
            }
        },
        {
            "type": "Feature",
            "geometry": {
                "type": "Point",
                "coordinates": [
                    22.5128305,
                    49.0416178
                ]
            },
            "properties": {
                "name": "Re\u0161taur\u00e1cia a penzi\u00f3n Kremenec"
            }
        },
        {
            "type": "Feature",
            "geometry": {
                "type": "Point",
                "coordinates": [
                    17.3954886,
                    48.2138532
                ]
            },
            "properties": {
                "name": "Troja"
            }
        },
        {
            "type": "Feature",
            "geometry": {
                "type": "Point",
                "coordinates": [
                    17.5379301,
                    48.5994124
                ]
            },
            "properties": {
                "name": "Re\u0161taur\u00e1cia Hl\u00e1vka"
            }
        },
        {
            "type": "Feature",
            "geometry": {
                "type": "Point",
                "coordinates": [
                    17.1102088,
                    48.117759
                ]
            },
            "properties": {
                "name": "Engerau"
            }
        },
        {
            "type": "Feature",
            "geometry": {
                "type": "Point",
                "coordinates": [
                    17.0515237,
                    48.194625
                ]
            },
            "properties": {
                "name": "Vr\u0161ok II"
            }
        },
        {
            "type": "Feature",
            "geometry": {
                "type": "Point",
                "coordinates": [
                    17.0428688,
                    48.2020276
                ]
            },
            "properties": {
                "name": "Brajan"
            }
        },
        {
            "type": "Feature",
            "geometry": {
                "type": "Point",
                "coordinates": [
                    17.4642478,
                    48.2729423
                ]
            }
        },
        {
            "type": "Feature",
            "geometry": {
                "type": "Point",
                "coordinates": [
                    21.2548046,
                    48.7204582
                ]
            },
            "properties": {
                "name": "Golem"
            }
        },
        {
            "type": "Feature",
            "geometry": {
                "type": "Point",
                "coordinates": [
                    21.261401,
                    48.7176512
                ]
            },
            "properties": {
                "name": "Maxiss"
            }
        },
        {
            "type": "Feature",
            "geometry": {
                "type": "Point",
                "coordinates": [
                    21.2679272,
                    48.7223378
                ]
            },
            "properties": {
                "name": "Panor\u00e1ma"
            }
        },
        {
            "type": "Feature",
            "geometry": {
                "type": "Point",
                "coordinates": [
                    21.2876238,
                    48.7379071
                ]
            },
            "properties": {
                "name": "Cerberos"
            }
        },
        {
            "type": "Feature",
            "geometry": {
                "type": "Point",
                "coordinates": [
                    17.1741877,
                    48.1537956
                ]
            },
            "properties": {
                "name": "La Vita Ristorante"
            }
        },
        {
            "type": "Feature",
            "geometry": {
                "type": "Point",
                "coordinates": [
                    21.3087665,
                    48.6007655
                ]
            },
            "properties": {
                "name": "\u010carda"
            }
        },
        {
            "type": "Feature",
            "geometry": {
                "type": "Point",
                "coordinates": [
                    18.8560385,
                    48.4050073
                ]
            },
            "properties": {
                "name": "OMAD - Penzi\u00f3n Pri jazere"
            }
        },
        {
            "type": "Feature",
            "geometry": {
                "type": "Point",
                "coordinates": [
                    17.1011407,
                    48.1294658
                ]
            },
            "properties": {
                "name": "S\u00eddliskov\u00e1 piv\u00e1rni\u010dka"
            }
        },
        {
            "type": "Feature",
            "geometry": {
                "type": "Point",
                "coordinates": [
                    17.0939943,
                    48.1297287
                ]
            },
            "properties": {
                "name": "Classic restaurant"
            }
        },
        {
            "type": "Feature",
            "geometry": {
                "type": "Point",
                "coordinates": [
                    17.0955618,
                    48.1306721
                ]
            },
            "properties": {
                "name": "M.K.M."
            }
        },
        {
            "type": "Feature",
            "geometry": {
                "type": "Point",
                "coordinates": [
                    17.094505,
                    48.1280966
                ]
            },
            "properties": {
                "name": "Simpl"
            }
        },
        {
            "type": "Feature",
            "geometry": {
                "type": "Point",
                "coordinates": [
                    17.1056227,
                    48.1219755
                ]
            },
            "properties": {
                "name": "Kamenica"
            }
        },
        {
            "type": "Feature",
            "geometry": {
                "type": "Point",
                "coordinates": [
                    17.1135154,
                    48.0632097
                ]
            },
            "properties": {
                "name": "Jarovsk\u00fd dvor"
            }
        },
        {
            "type": "Feature",
            "geometry": {
                "type": "Point",
                "coordinates": [
                    17.0995046,
                    48.125491
                ]
            },
            "properties": {
                "name": "Pomodoro Rosso"
            }
        },
        {
            "type": "Feature",
            "geometry": {
                "type": "Point",
                "coordinates": [
                    17.2042441,
                    48.6283052
                ]
            },
            "properties": {
                "name": "Dubn\u00edk"
            }
        },
        {
            "type": "Feature",
            "geometry": {
                "type": "Point",
                "coordinates": [
                    17.2042939,
                    48.6271122
                ]
            },
            "properties": {
                "name": "B\u00faransk\u00fd dv\u00far"
            }
        },
        {
            "type": "Feature",
            "geometry": {
                "type": "Point",
                "coordinates": [
                    17.6387508,
                    48.2028356
                ]
            },
            "properties": {
                "name": "Restaurant and Coffee Bar Tevel"
            }
        },
        {
            "type": "Feature",
            "geometry": {
                "type": "Point",
                "coordinates": [
                    17.5757875,
                    48.1713058
                ]
            },
            "properties": {
                "name": "Lotos lake"
            }
        },
        {
            "type": "Feature",
            "geometry": {
                "type": "Point",
                "coordinates": [
                    17.1547617,
                    48.1562483
                ]
            },
            "properties": {
                "name": "U \u0160trng\u00e1\u010da"
            }
        },
        {
            "type": "Feature",
            "geometry": {
                "type": "Point",
                "coordinates": [
                    17.7533433,
                    48.5900703
                ]
            },
            "properties": {
                "name": "Na l\u00fake"
            }
        },
        {
            "type": "Feature",
            "geometry": {
                "type": "Point",
                "coordinates": [
                    17.1084001,
                    48.0981048
                ]
            },
            "properties": {
                "name": "Mal\u00fd Bran\u00edk"
            }
        },
        {
            "type": "Feature",
            "geometry": {
                "type": "Point",
                "coordinates": [
                    17.1079975,
                    48.100053
                ]
            },
            "properties": {
                "name": "Bistro Nept\u00fan"
            }
        },
        {
            "type": "Feature",
            "geometry": {
                "type": "Point",
                "coordinates": [
                    17.1060968,
                    48.103396
                ]
            },
            "properties": {
                "name": "Saranda pub"
            }
        },
        {
            "type": "Feature",
            "geometry": {
                "type": "Point",
                "coordinates": [
                    17.1071157,
                    48.1085394
                ]
            },
            "properties": {
                "name": "LUNAPARK"
            }
        },
        {
            "type": "Feature",
            "geometry": {
                "type": "Point",
                "coordinates": [
                    17.1107721,
                    48.1116112
                ]
            },
            "properties": {
                "name": "Liviano"
            }
        },
        {
            "type": "Feature",
            "geometry": {
                "type": "Point",
                "coordinates": [
                    17.7749501,
                    48.4728215
                ]
            },
            "properties": {
                "name": "Euro cafe"
            }
        },
        {
            "type": "Feature",
            "geometry": {
                "type": "Point",
                "coordinates": [
                    17.7825829,
                    48.4795516
                ]
            },
            "properties": {
                "name": "Va\u017einka"
            }
        },
        {
            "type": "Feature",
            "geometry": {
                "type": "Point",
                "coordinates": [
                    17.7815641,
                    48.4794047
                ]
            },
            "properties": {
                "name": "RM"
            }
        },
        {
            "type": "Feature",
            "geometry": {
                "type": "Point",
                "coordinates": [
                    17.2853951,
                    48.2285338
                ]
            },
            "properties": {
                "name": "Kamenn\u00fd dvor"
            }
        },
        {
            "type": "Feature",
            "geometry": {
                "type": "Point",
                "coordinates": [
                    21.6528216,
                    49.2013158
                ]
            },
            "properties": {
                "name": "Z\u00e1mock\u00e1 Pivnica"
            }
        },
        {
            "type": "Feature",
            "geometry": {
                "type": "Point",
                "coordinates": [
                    21.6508494,
                    49.2035329
                ]
            },
            "properties": {
                "name": "Pizzeria Marhaba Bar"
            }
        },
        {
            "type": "Feature",
            "geometry": {
                "type": "Point",
                "coordinates": [
                    18.6561076,
                    48.7839396
                ]
            },
            "properties": {
                "name": "Stejk dom"
            }
        },
        {
            "type": "Feature",
            "geometry": {
                "type": "Point",
                "coordinates": [
                    17.8197166,
                    48.5950221
                ]
            },
            "properties": {
                "name": "Blue*s"
            }
        },
        {
            "type": "Feature",
            "geometry": {
                "type": "Point",
                "coordinates": [
                    17.1134069,
                    48.1243351
                ]
            },
            "properties": {
                "name": "Dvorana"
            }
        },
        {
            "type": "Feature",
            "geometry": {
                "type": "Point",
                "coordinates": [
                    17.1085844,
                    48.1241215
                ]
            },
            "properties": {
                "name": "Maxoo"
            }
        },
        {
            "type": "Feature",
            "geometry": {
                "type": "Point",
                "coordinates": [
                    17.1173034,
                    48.1500964
                ]
            },
            "properties": {
                "name": "Str\u00fdko burger"
            }
        },
        {
            "type": "Feature",
            "geometry": {
                "type": "Point",
                "coordinates": [
                    17.3002172,
                    48.1994323
                ]
            },
            "properties": {
                "name": "Re\u0161taur\u00e1cia Park"
            }
        },
        {
            "type": "Feature",
            "geometry": {
                "type": "Point",
                "coordinates": [
                    17.1175534,
                    48.1236594
                ]
            },
            "properties": {
                "name": "Luigi"
            }
        },
        {
            "type": "Feature",
            "geometry": {
                "type": "Point",
                "coordinates": [
                    17.4468877,
                    48.1986784
                ]
            },
            "properties": {
                "name": "\u010cierna Voda"
            }
        },
        {
            "type": "Feature",
            "geometry": {
                "type": "Point",
                "coordinates": [
                    17.0360855,
                    48.1812743
                ]
            },
            "properties": {
                "name": "Zlat\u00e1 lipa"
            }
        },
        {
            "type": "Feature",
            "geometry": {
                "type": "Point",
                "coordinates": [
                    17.1160849,
                    48.1499476
                ]
            },
            "properties": {
                "name": "Bumbalka"
            }
        },
        {
            "type": "Feature",
            "geometry": {
                "type": "Point",
                "coordinates": [
                    17.1304977,
                    48.1545125
                ]
            },
            "properties": {
                "name": "Tirolsk\u00e1 izba"
            }
        },
        {
            "type": "Feature",
            "geometry": {
                "type": "Point",
                "coordinates": [
                    17.1328354,
                    48.1545346
                ]
            },
            "properties": {
                "name": "Panda"
            }
        },
        {
            "type": "Feature",
            "geometry": {
                "type": "Point",
                "coordinates": [
                    18.5983133,
                    48.7693863
                ]
            },
            "properties": {
                "name": "Sedma pub"
            }
        },
        {
            "type": "Feature",
            "geometry": {
                "type": "Point",
                "coordinates": [
                    21.2556674,
                    48.7199665
                ]
            },
            "properties": {
                "name": "Pizzeria Bazaar"
            }
        },
        {
            "type": "Feature",
            "geometry": {
                "type": "Point",
                "coordinates": [
                    17.1191021,
                    48.157504
                ]
            },
            "properties": {
                "name": "Pizza One"
            }
        },
        {
            "type": "Feature",
            "geometry": {
                "type": "Point",
                "coordinates": [
                    17.1177484,
                    48.1562029
                ]
            },
            "properties": {
                "name": "Batida 4"
            }
        },
        {
            "type": "Feature",
            "geometry": {
                "type": "Point",
                "coordinates": [
                    21.2497827,
                    48.7307069
                ]
            },
            "properties": {
                "name": "\u0160port"
            }
        },
        {
            "type": "Feature",
            "geometry": {
                "type": "Point",
                "coordinates": [
                    21.2492756,
                    48.7315885
                ]
            },
            "properties": {
                "name": "Kr\u010dma Letn\u00e1"
            }
        },
        {
            "type": "Feature",
            "geometry": {
                "type": "Point",
                "coordinates": [
                    17.0672632,
                    48.1509517
                ]
            },
            "properties": {
                "name": "Drag"
            }
        },
        {
            "type": "Feature",
            "geometry": {
                "type": "Point",
                "coordinates": [
                    17.2067664,
                    48.2058842
                ]
            },
            "properties": {
                "name": "Bakchus Vila"
            }
        },
        {
            "type": "Feature",
            "geometry": {
                "type": "Point",
                "coordinates": [
                    17.207272,
                    48.2055161
                ]
            },
            "properties": {
                "name": "Hostinec u Eda"
            }
        },
        {
            "type": "Feature",
            "geometry": {
                "type": "Point",
                "coordinates": [
                    18.3761685,
                    48.6891013
                ]
            },
            "properties": {
                "name": "Daniela"
            }
        },
        {
            "type": "Feature",
            "geometry": {
                "type": "Point",
                "coordinates": [
                    18.1258033,
                    47.7588909
                ]
            },
            "properties": {
                "name": "U \u010cierneho Psa"
            }
        },
        {
            "type": "Feature",
            "geometry": {
                "type": "Point",
                "coordinates": [
                    17.2313563,
                    48.4655125
                ]
            },
            "properties": {
                "name": "Pod Ro\u0161t\u00fanom"
            }
        },
        {
            "type": "Feature",
            "geometry": {
                "type": "Point",
                "coordinates": [
                    18.7265331,
                    48.5205708
                ]
            },
            "properties": {
                "name": "Re\u0161taur\u00e1cia pod Hradom"
            }
        },
        {
            "type": "Feature",
            "geometry": {
                "type": "Point",
                "coordinates": [
                    21.2457042,
                    48.7261156
                ]
            },
            "properties": {
                "name": "Santa Lucia"
            }
        },
        {
            "type": "Feature",
            "geometry": {
                "type": "Point",
                "coordinates": [
                    18.7538006,
                    48.6527444
                ]
            },
            "properties": {
                "name": "D\u00e9rerov mlyn"
            }
        },
        {
            "type": "Feature",
            "geometry": {
                "type": "Point",
                "coordinates": [
                    18.5833796,
                    48.7791719
                ]
            },
            "properties": {
                "name": "Hotel Lipa"
            }
        },
        {
            "type": "Feature",
            "geometry": {
                "type": "Point",
                "coordinates": [
                    18.575073,
                    48.7774081
                ]
            },
            "properties": {
                "name": "Re\u0161taur\u00e1cia Kolon\u00e1da u Poliaka"
            }
        },
        {
            "type": "Feature",
            "geometry": {
                "type": "Point",
                "coordinates": [
                    17.2456486,
                    48.0370144
                ]
            },
            "properties": {
                "name": "Riviera"
            }
        },
        {
            "type": "Feature",
            "geometry": {
                "type": "Point",
                "coordinates": [
                    17.2656213,
                    48.0886773
                ]
            },
            "properties": {
                "name": "Ma\u0161ta\u013e"
            }
        },
        {
            "type": "Feature",
            "geometry": {
                "type": "Point",
                "coordinates": [
                    17.2622954,
                    48.0817757
                ]
            },
            "properties": {
                "name": "\u010c\u00e1rda Bety\u00e1r"
            }
        },
        {
            "type": "Feature",
            "geometry": {
                "type": "Point",
                "coordinates": [
                    17.1220469,
                    48.1537233
                ]
            },
            "properties": {
                "name": "Fellini"
            }
        },
        {
            "type": "Feature",
            "geometry": {
                "type": "Point",
                "coordinates": [
                    21.2567482,
                    48.720523
                ]
            },
            "properties": {
                "name": "Modena"
            }
        },
        {
            "type": "Feature",
            "geometry": {
                "type": "Point",
                "coordinates": [
                    21.2580638,
                    48.7193293
                ]
            },
            "properties": {
                "name": "Kleopatra"
            }
        },
        {
            "type": "Feature",
            "geometry": {
                "type": "Point",
                "coordinates": [
                    21.2615398,
                    48.7211892
                ]
            },
            "properties": {
                "name": "Redstone"
            }
        },
        {
            "type": "Feature",
            "geometry": {
                "type": "Point",
                "coordinates": [
                    17.1168561,
                    48.1358064
                ]
            },
            "properties": {
                "name": "M\u00fdtny dom\u010dek"
            }
        },
        {
            "type": "Feature",
            "geometry": {
                "type": "Point",
                "coordinates": [
                    17.2622782,
                    48.0823491
                ]
            },
            "properties": {
                "name": "J\u00e1no\u0161\u00edk"
            }
        },
        {
            "type": "Feature",
            "geometry": {
                "type": "Point",
                "coordinates": [
                    21.2593513,
                    48.7225358
                ]
            },
            "properties": {
                "name": "Camelot"
            }
        },
        {
            "type": "Feature",
            "geometry": {
                "type": "Point",
                "coordinates": [
                    18.0412368,
                    48.894075
                ]
            },
            "properties": {
                "name": "Palacink\u00e1re\u0148 pod hradom"
            }
        },
        {
            "type": "Feature",
            "geometry": {
                "type": "Point",
                "coordinates": [
                    18.6296784,
                    48.7685773
                ]
            },
            "properties": {
                "name": "Sabbia Ristorante"
            }
        },
        {
            "type": "Feature",
            "geometry": {
                "type": "Point",
                "coordinates": [
                    17.0863972,
                    48.2627189
                ]
            },
            "properties": {
                "name": "Hostinec Pod Paj\u0161t\u00fanom"
            }
        },
        {
            "type": "Feature",
            "geometry": {
                "type": "Point",
                "coordinates": [
                    17.0627352,
                    48.2490161
                ]
            },
            "properties": {
                "name": "P\u00fatnick\u00fd mlyn"
            }
        },
        {
            "type": "Feature",
            "geometry": {
                "type": "Point",
                "coordinates": [
                    18.7240882,
                    47.7964228
                ]
            }
        },
        {
            "type": "Feature",
            "geometry": {
                "type": "Point",
                "coordinates": [
                    20.1936397,
                    48.851438
                ]
            },
            "properties": {
                "name": "U Hanky"
            }
        },
        {
            "type": "Feature",
            "geometry": {
                "type": "Point",
                "coordinates": [
                    19.4464267,
                    49.1084526
                ]
            },
            "properties": {
                "name": "Gazdovsk\u00fd dvor"
            }
        },
        {
            "type": "Feature",
            "geometry": {
                "type": "Point",
                "coordinates": [
                    18.7227986,
                    48.7754784
                ]
            },
            "properties": {
                "name": "Pizzeria HAS\u00c1K"
            }
        },
        {
            "type": "Feature",
            "geometry": {
                "type": "Point",
                "coordinates": [
                    18.5816094,
                    48.7794744
                ]
            },
            "properties": {
                "name": "Square"
            }
        },
        {
            "type": "Feature",
            "geometry": {
                "type": "Point",
                "coordinates": [
                    18.5924761,
                    48.7677741
                ]
            },
            "properties": {
                "name": "Aerorest"
            }
        },
        {
            "type": "Feature",
            "geometry": {
                "type": "Point",
                "coordinates": [
                    18.5993709,
                    47.7914199
                ]
            },
            "properties": {
                "name": "U bieleho ko\u0148a"
            }
        },
        {
            "type": "Feature",
            "geometry": {
                "type": "Point",
                "coordinates": [
                    16.8396363,
                    48.3821818
                ]
            },
            "properties": {
                "name": "Pizza Restaurant"
            }
        },
        {
            "type": "Feature",
            "geometry": {
                "type": "Point",
                "coordinates": [
                    20.0631222,
                    49.1250648
                ]
            },
            "properties": {
                "name": "Koliba"
            }
        },
        {
            "type": "Feature",
            "geometry": {
                "type": "Point",
                "coordinates": [
                    21.2595052,
                    48.7212516
                ]
            },
            "properties": {
                "name": "Mandarin"
            }
        },
        {
            "type": "Feature",
            "geometry": {
                "type": "Point",
                "coordinates": [
                    21.2601258,
                    48.7206116
                ]
            },
            "properties": {
                "name": "Rosto steak house"
            }
        },
        {
            "type": "Feature",
            "geometry": {
                "type": "Point",
                "coordinates": [
                    18.737604,
                    48.6924069
                ]
            },
            "properties": {
                "name": "Motorest Korz\u00e1r"
            }
        },
        {
            "type": "Feature",
            "geometry": {
                "type": "Point",
                "coordinates": [
                    18.7213759,
                    48.4824267
                ]
            }
        },
        {
            "type": "Feature",
            "geometry": {
                "type": "Point",
                "coordinates": [
                    18.6245272,
                    48.7713628
                ]
            },
            "properties": {
                "name": "Restaurant Medell\u00edn"
            }
        },
        {
            "type": "Feature",
            "geometry": {
                "type": "Point",
                "coordinates": [
                    18.6236368,
                    48.7736423
                ]
            },
            "properties": {
                "name": "Re\u0161taur\u00e1cia Terasy"
            }
        },
        {
            "type": "Feature",
            "geometry": {
                "type": "Point",
                "coordinates": [
                    18.5812808,
                    48.7786388
                ]
            },
            "properties": {
                "name": "Pansk\u00fd pivovar"
            }
        },
        {
            "type": "Feature",
            "geometry": {
                "type": "Point",
                "coordinates": [
                    17.1355675,
                    48.126216
                ]
            },
            "properties": {
                "name": "Tarpan"
            }
        },
        {
            "type": "Feature",
            "geometry": {
                "type": "Point",
                "coordinates": [
                    17.1073906,
                    48.1456195
                ]
            },
            "properties": {
                "name": "Aliz\u00e9"
            }
        },
        {
            "type": "Feature",
            "geometry": {
                "type": "Point",
                "coordinates": [
                    18.5256424,
                    48.6869599
                ]
            },
            "properties": {
                "name": "Re\u0161taur\u00e1cia Turb\u00edna"
            }
        },
        {
            "type": "Feature",
            "geometry": {
                "type": "Point",
                "coordinates": [
                    17.2322877,
                    48.2243517
                ]
            },
            "properties": {
                "name": "Gourment Klub Bizmayer"
            }
        },
        {
            "type": "Feature",
            "geometry": {
                "type": "Point",
                "coordinates": [
                    17.1402918,
                    48.1598861
                ]
            },
            "properties": {
                "name": "Hokejka"
            }
        },
        {
            "type": "Feature",
            "geometry": {
                "type": "Point",
                "coordinates": [
                    17.1399241,
                    48.1561891
                ]
            },
            "properties": {
                "name": "Pizzeria Bezzinka"
            }
        },
        {
            "type": "Feature",
            "geometry": {
                "type": "Point",
                "coordinates": [
                    17.1167487,
                    48.157056
                ]
            },
            "properties": {
                "name": "Dilema"
            }
        },
        {
            "type": "Feature",
            "geometry": {
                "type": "Point",
                "coordinates": [
                    17.1118958,
                    48.1552327
                ]
            },
            "properties": {
                "name": "Esperienza"
            }
        },
        {
            "type": "Feature",
            "geometry": {
                "type": "Point",
                "coordinates": [
                    17.1132535,
                    48.1562686
                ]
            },
            "properties": {
                "name": "Metropol"
            }
        },
        {
            "type": "Feature",
            "geometry": {
                "type": "Point",
                "coordinates": [
                    17.1155109,
                    48.1581638
                ]
            },
            "properties": {
                "name": "Divok\u00e1 ka\u010dka"
            }
        },
        {
            "type": "Feature",
            "geometry": {
                "type": "Point",
                "coordinates": [
                    17.1174188,
                    48.1533468
                ]
            },
            "properties": {
                "name": "Aqa"
            }
        },
        {
            "type": "Feature",
            "geometry": {
                "type": "Point",
                "coordinates": [
                    17.1184402,
                    48.154466
                ]
            },
            "properties": {
                "name": "Galileo"
            }
        },
        {
            "type": "Feature",
            "geometry": {
                "type": "Point",
                "coordinates": [
                    17.1203249,
                    48.1585087
                ]
            },
            "properties": {
                "name": "Red cafe"
            }
        },
        {
            "type": "Feature",
            "geometry": {
                "type": "Point",
                "coordinates": [
                    17.2757142,
                    48.1700094
                ]
            },
            "properties": {
                "name": "Tak\u00e1csovci"
            }
        },
        {
            "type": "Feature",
            "geometry": {
                "type": "Point",
                "coordinates": [
                    17.3802387,
                    48.4145681
                ]
            },
            "properties": {
                "name": "B-Club"
            }
        },
        {
            "type": "Feature",
            "geometry": {
                "type": "Point",
                "coordinates": [
                    17.4896254,
                    48.3178684
                ]
            },
            "properties": {
                "name": "Lipa"
            }
        },
        {
            "type": "Feature",
            "geometry": {
                "type": "Point",
                "coordinates": [
                    20.9815338,
                    48.7772055
                ]
            },
            "properties": {
                "name": "\u010cajov\u0148a Katka"
            }
        },
        {
            "type": "Feature",
            "geometry": {
                "type": "Point",
                "coordinates": [
                    17.111095,
                    48.1503375
                ]
            },
            "properties": {
                "name": "Papaya"
            }
        },
        {
            "type": "Feature",
            "geometry": {
                "type": "Point",
                "coordinates": [
                    17.1140626,
                    48.144329
                ]
            },
            "properties": {
                "name": "Pasta & Schnitzel - Teta"
            }
        },
        {
            "type": "Feature",
            "geometry": {
                "type": "Point",
                "coordinates": [
                    17.4092182,
                    48.3563327
                ]
            },
            "properties": {
                "name": "Sibax"
            }
        },
        {
            "type": "Feature",
            "geometry": {
                "type": "Point",
                "coordinates": [
                    17.4904992,
                    48.3727406
                ]
            }
        },
        {
            "type": "Feature",
            "geometry": {
                "type": "Point",
                "coordinates": [
                    17.8314243,
                    48.5896626
                ]
            },
            "properties": {
                "name": "\u010cesk\u00fd Bud\u00edk"
            }
        },
        {
            "type": "Feature",
            "geometry": {
                "type": "Point",
                "coordinates": [
                    17.8306328,
                    48.5902945
                ]
            },
            "properties": {
                "name": "Grande Gusto"
            }
        },
        {
            "type": "Feature",
            "geometry": {
                "type": "Point",
                "coordinates": [
                    17.1118014,
                    48.1553119
                ]
            },
            "properties": {
                "name": "Michaela"
            }
        },
        {
            "type": "Feature",
            "geometry": {
                "type": "Point",
                "coordinates": [
                    16.9860331,
                    48.1732535
                ]
            },
            "properties": {
                "name": "Pizzeria Valentian"
            }
        },
        {
            "type": "Feature",
            "geometry": {
                "type": "Point",
                "coordinates": [
                    20.9376827,
                    48.8533463
                ]
            },
            "properties": {
                "name": "Tatran"
            }
        },
        {
            "type": "Feature",
            "geometry": {
                "type": "Point",
                "coordinates": [
                    16.9852649,
                    48.2065785
                ]
            },
            "properties": {
                "name": "Breweria"
            }
        },
        {
            "type": "Feature",
            "geometry": {
                "type": "Point",
                "coordinates": [
                    21.2613378,
                    48.7214825
                ]
            },
            "properties": {
                "name": "Bamba Lina"
            }
        },
        {
            "type": "Feature",
            "geometry": {
                "type": "Point",
                "coordinates": [
                    18.5825898,
                    48.779432
                ]
            },
            "properties": {
                "name": "Muzika"
            }
        },
        {
            "type": "Feature",
            "geometry": {
                "type": "Point",
                "coordinates": [
                    17.1351391,
                    48.1812428
                ]
            },
            "properties": {
                "name": "Sfinga"
            }
        },
        {
            "type": "Feature",
            "geometry": {
                "type": "Point",
                "coordinates": [
                    17.2132449,
                    48.2838414
                ]
            },
            "properties": {
                "name": "Estavella"
            }
        },
        {
            "type": "Feature",
            "geometry": {
                "type": "Point",
                "coordinates": [
                    17.1900684,
                    48.3502959
                ]
            },
            "properties": {
                "name": "Na vrchu - Pezinsk\u00e1 baba"
            }
        },
        {
            "type": "Feature",
            "geometry": {
                "type": "Point",
                "coordinates": [
                    18.6224629,
                    48.7725619
                ]
            },
            "properties": {
                "name": "Pizza Piazza"
            }
        },
        {
            "type": "Feature",
            "geometry": {
                "type": "Point",
                "coordinates": [
                    21.2592554,
                    48.7077688
                ]
            },
            "properties": {
                "name": "U \u010cierneho Bar\u00f3na"
            }
        },
        {
            "type": "Feature",
            "geometry": {
                "type": "Point",
                "coordinates": [
                    17.1186451,
                    48.1203304
                ]
            },
            "properties": {
                "name": "Slovansk\u00e1 piv\u00e1re\u0148"
            }
        },
        {
            "type": "Feature",
            "geometry": {
                "type": "Point",
                "coordinates": [
                    21.2588604,
                    48.7175026
                ]
            },
            "properties": {
                "name": "Korfu Gril"
            }
        },
        {
            "type": "Feature",
            "geometry": {
                "type": "Point",
                "coordinates": [
                    17.1099897,
                    48.1049932
                ]
            },
            "properties": {
                "name": "O\u00e1za pri Dra\u017ediaku"
            }
        },
        {
            "type": "Feature",
            "geometry": {
                "type": "Point",
                "coordinates": [
                    21.2541786,
                    48.7353726
                ]
            },
            "properties": {
                "name": "Pizza Dom\u010dek"
            }
        },
        {
            "type": "Feature",
            "geometry": {
                "type": "Point",
                "coordinates": [
                    17.0434878,
                    48.3320417
                ]
            },
            "properties": {
                "name": "U Mel\u00f3nka"
            }
        },
        {
            "type": "Feature",
            "geometry": {
                "type": "Point",
                "coordinates": [
                    17.1267225,
                    48.1110636
                ]
            },
            "properties": {
                "name": "Ran\u010d\u00edk u Kanga"
            }
        },
        {
            "type": "Feature",
            "geometry": {
                "type": "Point",
                "coordinates": [
                    18.2895656,
                    48.2544961
                ]
            },
            "properties": {
                "name": "Viecha"
            }
        },
        {
            "type": "Feature",
            "geometry": {
                "type": "Point",
                "coordinates": [
                    18.5211333,
                    48.202652
                ]
            },
            "properties": {
                "name": "Re\u0161taur\u00e1cia na r\u00e1zcest\u00ed"
            }
        },
        {
            "type": "Feature",
            "geometry": {
                "type": "Point",
                "coordinates": [
                    21.2615017,
                    48.7157184
                ]
            },
            "properties": {
                "name": "Pub u Pa\u017eravca"
            }
        },
        {
            "type": "Feature",
            "geometry": {
                "type": "Point",
                "coordinates": [
                    17.0433997,
                    48.2399664
                ]
            },
            "properties": {
                "name": "Koh\u00fatik"
            }
        },
        {
            "type": "Feature",
            "geometry": {
                "type": "Point",
                "coordinates": [
                    17.3468279,
                    48.296592
                ]
            },
            "properties": {
                "name": "Milka"
            }
        },
        {
            "type": "Feature",
            "geometry": {
                "type": "Point",
                "coordinates": [
                    17.3475511,
                    48.2972564
                ]
            },
            "properties": {
                "name": "Bini"
            }
        },
        {
            "type": "Feature",
            "geometry": {
                "type": "Point",
                "coordinates": [
                    21.2446718,
                    48.7056663
                ]
            },
            "properties": {
                "name": "Hotel Privilege"
            }
        },
        {
            "type": "Feature",
            "geometry": {
                "type": "Point",
                "coordinates": [
                    21.2615744,
                    48.7156297
                ]
            },
            "properties": {
                "name": "Slovensk\u00e1 re\u0161taur\u00e1cia"
            }
        },
        {
            "type": "Feature",
            "geometry": {
                "type": "Point",
                "coordinates": [
                    17.0441638,
                    48.1797949
                ]
            }
        },
        {
            "type": "Feature",
            "geometry": {
                "type": "Point",
                "coordinates": [
                    17.1251927,
                    48.1138222
                ]
            },
            "properties": {
                "name": "Podkova"
            }
        },
        {
            "type": "Feature",
            "geometry": {
                "type": "Point",
                "coordinates": [
                    17.2017903,
                    48.1396714
                ]
            },
            "properties": {
                "name": "San Antonio"
            }
        },
        {
            "type": "Feature",
            "geometry": {
                "type": "Point",
                "coordinates": [
                    19.145251,
                    48.7358357
                ]
            },
            "properties": {
                "name": "Plzensk\u00e1"
            }
        },
        {
            "type": "Feature",
            "geometry": {
                "type": "Point",
                "coordinates": [
                    19.1436156,
                    48.7388369
                ]
            },
            "properties": {
                "name": "Bystrick\u00fd duk\u00e1t"
            }
        },
        {
            "type": "Feature",
            "geometry": {
                "type": "Point",
                "coordinates": [
                    19.1503826,
                    48.7345778
                ]
            },
            "properties": {
                "name": "Ba\u0161ta"
            }
        },
        {
            "type": "Feature",
            "geometry": {
                "type": "Point",
                "coordinates": [
                    19.1439694,
                    48.7377314
                ]
            },
            "properties": {
                "name": "Slovensk\u00e1 pohoda"
            }
        },
        {
            "type": "Feature",
            "geometry": {
                "type": "Point",
                "coordinates": [
                    19.147524,
                    48.7364029
                ]
            },
            "properties": {
                "name": "Steak House"
            }
        },
        {
            "type": "Feature",
            "geometry": {
                "type": "Point",
                "coordinates": [
                    19.1454399,
                    48.7379621
                ]
            },
            "properties": {
                "name": "K\u00faria"
            }
        },
        {
            "type": "Feature",
            "geometry": {
                "type": "Point",
                "coordinates": [
                    19.1437887,
                    48.7349324
                ]
            },
            "properties": {
                "name": "\u010cerven\u00fd rak"
            }
        },
        {
            "type": "Feature",
            "geometry": {
                "type": "Point",
                "coordinates": [
                    19.1448974,
                    48.7345849
                ]
            },
            "properties": {
                "name": "Evijo"
            }
        },
        {
            "type": "Feature",
            "geometry": {
                "type": "Point",
                "coordinates": [
                    19.1443925,
                    48.7345052
                ]
            },
            "properties": {
                "name": "Zlat\u00fd ba\u017eant"
            }
        },
        {
            "type": "Feature",
            "geometry": {
                "type": "Point",
                "coordinates": [
                    18.5146247,
                    48.9541348
                ]
            },
            "properties": {
                "name": "Hotel Ka\u0161tie\u013e \u010ci\u010dmany"
            }
        },
        {
            "type": "Feature",
            "geometry": {
                "type": "Point",
                "coordinates": [
                    17.1384831,
                    48.151824
                ]
            },
            "properties": {
                "name": "Steam & Coffee"
            }
        },
        {
            "type": "Feature",
            "geometry": {
                "type": "Point",
                "coordinates": [
                    17.1419614,
                    48.1517735
                ]
            },
            "properties": {
                "name": "Centauri"
            }
        },
        {
            "type": "Feature",
            "geometry": {
                "type": "Point",
                "coordinates": [
                    17.1425145,
                    48.1498235
                ]
            },
            "properties": {
                "name": "Delf\u00edn"
            }
        },
        {
            "type": "Feature",
            "geometry": {
                "type": "Point",
                "coordinates": [
                    17.1443229,
                    48.1473993
                ]
            },
            "properties": {
                "name": "Shanghai"
            }
        },
        {
            "type": "Feature",
            "geometry": {
                "type": "Point",
                "coordinates": [
                    17.1446174,
                    48.1475123
                ]
            },
            "properties": {
                "name": "Hotel Astra"
            }
        },
        {
            "type": "Feature",
            "geometry": {
                "type": "Point",
                "coordinates": [
                    17.1441804,
                    48.1623844
                ]
            },
            "properties": {
                "name": "Fresh"
            }
        },
        {
            "type": "Feature",
            "geometry": {
                "type": "Point",
                "coordinates": [
                    17.1078813,
                    48.155138
                ]
            },
            "properties": {
                "name": "Bistro Marathon"
            }
        },
        {
            "type": "Feature",
            "geometry": {
                "type": "Point",
                "coordinates": [
                    17.1357106,
                    48.1446837
                ]
            },
            "properties": {
                "name": "Budvar Pub U R\u00fa\u017ei"
            }
        },
        {
            "type": "Feature",
            "geometry": {
                "type": "Point",
                "coordinates": [
                    21.2963102,
                    48.73457
                ]
            },
            "properties": {
                "name": "Magn\u00f3lia"
            }
        },
        {
            "type": "Feature",
            "geometry": {
                "type": "Point",
                "coordinates": [
                    21.2414757,
                    48.9943543
                ]
            },
            "properties": {
                "name": "Redbox Pizzeria"
            }
        },
        {
            "type": "Feature",
            "geometry": {
                "type": "Point",
                "coordinates": [
                    21.2704349,
                    48.7525755
                ]
            },
            "properties": {
                "name": "U Katky"
            }
        },
        {
            "type": "Feature",
            "geometry": {
                "type": "Point",
                "coordinates": [
                    18.7678108,
                    48.6449705
                ]
            },
            "properties": {
                "name": "Motorest Dubn\u00edk"
            }
        },
        {
            "type": "Feature",
            "geometry": {
                "type": "Point",
                "coordinates": [
                    21.2581844,
                    48.719137
                ]
            },
            "properties": {
                "name": "La Cubana"
            }
        },
        {
            "type": "Feature",
            "geometry": {
                "type": "Point",
                "coordinates": [
                    19.4036034,
                    48.5415506
                ]
            },
            "properties": {
                "name": "Gazdovsk\u00fd dom"
            }
        },
        {
            "type": "Feature",
            "geometry": {
                "type": "Point",
                "coordinates": [
                    17.9159592,
                    48.5582814
                ]
            },
            "properties": {
                "name": "\u010certova pec"
            }
        },
        {
            "type": "Feature",
            "geometry": {
                "type": "Point",
                "coordinates": [
                    18.3735842,
                    48.6243944
                ]
            },
            "properties": {
                "name": "Re\u0161taur\u00e1cia Panda"
            }
        },
        {
            "type": "Feature",
            "geometry": {
                "type": "Point",
                "coordinates": [
                    18.3763579,
                    48.6270735
                ]
            },
            "properties": {
                "name": "Clerence"
            }
        },
        {
            "type": "Feature",
            "geometry": {
                "type": "Point",
                "coordinates": [
                    18.3964543,
                    48.6276822
                ]
            },
            "properties": {
                "name": "Slovensk\u00e1 re\u0161taur\u00e1cia"
            }
        },
        {
            "type": "Feature",
            "geometry": {
                "type": "Point",
                "coordinates": [
                    17.8283663,
                    48.7560029
                ]
            },
            "properties": {
                "name": "B\u00fada"
            }
        },
        {
            "type": "Feature",
            "geometry": {
                "type": "Point",
                "coordinates": [
                    17.8303169,
                    48.7561133
                ]
            },
            "properties": {
                "name": "Blue note"
            }
        },
        {
            "type": "Feature",
            "geometry": {
                "type": "Point",
                "coordinates": [
                    17.8317414,
                    48.7572144
                ]
            },
            "properties": {
                "name": "Etna pizzeria"
            }
        },
        {
            "type": "Feature",
            "geometry": {
                "type": "Point",
                "coordinates": [
                    17.8318625,
                    48.7585227
                ]
            },
            "properties": {
                "name": "Cukr\u00e1re\u0148 Pizzeria"
            }
        },
        {
            "type": "Feature",
            "geometry": {
                "type": "Point",
                "coordinates": [
                    17.8319642,
                    48.759223
                ]
            },
            "properties": {
                "name": "Guiness - Irish pub"
            }
        },
        {
            "type": "Feature",
            "geometry": {
                "type": "Point",
                "coordinates": [
                    17.8429047,
                    48.5841065
                ]
            },
            "properties": {
                "name": "Koliba"
            }
        },
        {
            "type": "Feature",
            "geometry": {
                "type": "Point",
                "coordinates": [
                    18.5802612,
                    48.7799171
                ]
            },
            "properties": {
                "name": "Re\u0161taur\u00e1cia v starej \u00favode"
            }
        },
        {
            "type": "Feature",
            "geometry": {
                "type": "Point",
                "coordinates": [
                    18.5814767,
                    48.7788476
                ]
            },
            "properties": {
                "name": "Biograf"
            }
        },
        {
            "type": "Feature",
            "geometry": {
                "type": "Point",
                "coordinates": [
                    21.2561518,
                    48.7264954
                ]
            },
            "properties": {
                "name": "Mari\u00e1nka"
            }
        },
        {
            "type": "Feature",
            "geometry": {
                "type": "Point",
                "coordinates": [
                    21.2552758,
                    48.7263196
                ]
            },
            "properties": {
                "name": "Lamp\u00e1re\u0148"
            }
        },
        {
            "type": "Feature",
            "geometry": {
                "type": "Point",
                "coordinates": [
                    21.2555186,
                    48.7248962
                ]
            },
            "properties": {
                "name": "Baget\u00e9ria"
            }
        },
        {
            "type": "Feature",
            "geometry": {
                "type": "Point",
                "coordinates": [
                    18.7878013,
                    49.4391022
                ]
            },
            "properties": {
                "name": "Vanessa"
            }
        },
        {
            "type": "Feature",
            "geometry": {
                "type": "Point",
                "coordinates": [
                    18.7903923,
                    49.4388072
                ]
            },
            "properties": {
                "name": "City"
            }
        },
        {
            "type": "Feature",
            "geometry": {
                "type": "Point",
                "coordinates": [
                    18.7890612,
                    49.4366937
                ]
            },
            "properties": {
                "name": "Caribic"
            }
        },
        {
            "type": "Feature",
            "geometry": {
                "type": "Point",
                "coordinates": [
                    17.5933502,
                    48.3827181
                ]
            }
        },
        {
            "type": "Feature",
            "geometry": {
                "type": "Point",
                "coordinates": [
                    18.6260782,
                    48.7762679
                ]
            },
            "properties": {
                "name": "U Tom\u00e1\u0161a"
            }
        },
        {
            "type": "Feature",
            "geometry": {
                "type": "Point",
                "coordinates": [
                    18.4920699,
                    48.9140768
                ]
            },
            "properties": {
                "name": "penzi\u00f3n dolinka"
            }
        },
        {
            "type": "Feature",
            "geometry": {
                "type": "Point",
                "coordinates": [
                    17.1730554,
                    48.1660116
                ]
            },
            "properties": {
                "name": "Gurman"
            }
        },
        {
            "type": "Feature",
            "geometry": {
                "type": "Point",
                "coordinates": [
                    17.1077678,
                    48.1454432
                ]
            },
            "properties": {
                "name": "Pra\u0161n\u00e1 Ba\u0161ta"
            }
        },
        {
            "type": "Feature",
            "geometry": {
                "type": "Point",
                "coordinates": [
                    17.1076085,
                    48.1418278
                ]
            },
            "properties": {
                "name": "Verne"
            }
        },
        {
            "type": "Feature",
            "geometry": {
                "type": "Point",
                "coordinates": [
                    17.1211156,
                    48.1442523
                ]
            },
            "properties": {
                "name": "U Ferdinanda"
            }
        },
        {
            "type": "Feature",
            "geometry": {
                "type": "Point",
                "coordinates": [
                    18.1145221,
                    47.7549412
                ]
            },
            "properties": {
                "name": "Platan"
            }
        },
        {
            "type": "Feature",
            "geometry": {
                "type": "Point",
                "coordinates": [
                    17.1205527,
                    48.1543094
                ]
            },
            "properties": {
                "name": "Friends"
            }
        },
        {
            "type": "Feature",
            "geometry": {
                "type": "Point",
                "coordinates": [
                    17.8303868,
                    48.59929
                ]
            },
            "properties": {
                "name": "Magura"
            }
        },
        {
            "type": "Feature",
            "geometry": {
                "type": "Point",
                "coordinates": [
                    17.8349969,
                    48.5911957
                ]
            },
            "properties": {
                "name": "Leierov dvor"
            }
        },
        {
            "type": "Feature",
            "geometry": {
                "type": "Point",
                "coordinates": [
                    17.837339,
                    48.5892794
                ]
            },
            "properties": {
                "name": "U p\u00e1va"
            }
        },
        {
            "type": "Feature",
            "geometry": {
                "type": "Point",
                "coordinates": [
                    17.8393303,
                    48.5889865
                ]
            },
            "properties": {
                "name": "Pavla"
            }
        },
        {
            "type": "Feature",
            "geometry": {
                "type": "Point",
                "coordinates": [
                    21.2599749,
                    48.7107792
                ]
            },
            "properties": {
                "name": "Astorka club"
            }
        },
        {
            "type": "Feature",
            "geometry": {
                "type": "Point",
                "coordinates": [
                    21.4727173,
                    48.6349924
                ]
            },
            "properties": {
                "name": "Pod hradom"
            }
        },
        {
            "type": "Feature",
            "geometry": {
                "type": "Point",
                "coordinates": [
                    21.2261624,
                    49.0109869
                ]
            },
            "properties": {
                "name": "Pizzeria u Kuba"
            }
        },
        {
            "type": "Feature",
            "geometry": {
                "type": "Point",
                "coordinates": [
                    17.1210108,
                    48.1435136
                ]
            },