{
    "type": "FeatureCollection",
    "features": [
        {
            "type": "Feature",
            "geometry": {
                "type": "Point",
                "coordinates": [
                    14.3996143,
                    35.886976
                ]
            },
            "properties": {
                "name": "Stazzjon"
            }
        },
        {
            "type": "Feature",
            "geometry": {
                "type": "Point",
                "coordinates": [
                    14.2970563,
                    36.0351856
                ]
            },
            "properties": {
                "name": "Fliego"
            }
        },
        {
            "type": "Feature",
            "geometry": {
                "type": "Point",
                "coordinates": [
                    14.4042432,
                    35.8838714
                ]
            },
            "properties": {
                "name": "Veduta"
            }
        },
        {
            "type": "Feature",
            "geometry": {
                "type": "Point",
                "coordinates": [
                    14.3642565,
                    35.8836288
                ]
            },
            "properties": {
                "name": "Rogantino's"
            }
        },
        {
            "type": "Feature",
            "geometry": {
                "type": "Point",
                "coordinates": [
                    14.4236729,
                    35.8278086
                ]
            },
            "properties": {
                "name": "Ta' Rita Lapsi View"
            }
        },
        {
            "type": "Feature",
            "geometry": {
                "type": "Point",
                "coordinates": [
                    14.3892414,
                    35.9584537
                ]
            },
            "properties": {
                "name": "Margo's Pizza"
            }
        },
        {
            "type": "Feature",
            "geometry": {
                "type": "Point",
                "coordinates": [
                    14.4738454,
                    35.8820295
                ]
            },
            "properties": {
                "name": "1743 Razzett l-Antik"
            }
        },
        {
            "type": "Feature",
            "geometry": {
                "type": "Point",
                "coordinates": [
                    14.413344,
                    35.952004
                ]
            },
            "properties": {
                "name": "George's Sea Front"
            }
        },
        {
            "type": "Feature",
            "geometry": {
                "type": "Point",
                "coordinates": [
                    14.344222,
                    35.9346475
                ]
            },
            "properties": {
                "name": "Agliolio"
            }
        },
        {
            "type": "Feature",
            "geometry": {
                "type": "Point",
                "coordinates": [
                    14.4200875,
                    35.9526233
                ]
            },
            "properties": {
                "name": "Incognito"
            }
        },
        {
            "type": "Feature",
            "geometry": {
                "type": "Point",
                "coordinates": [
                    14.5047657,
                    35.9150537
                ]
            },
            "properties": {
                "name": "Ta Kolina"
            }
        },
        {
            "type": "Feature",
            "geometry": {
                "type": "Point",
                "coordinates": [
                    14.2880482,
                    36.02403
                ]
            },
            "properties": {
                "name": "Rexy"
            }
        },
        {
            "type": "Feature",
            "geometry": {
                "type": "Point",
                "coordinates": [
                    14.2972607,
                    36.0236931
                ]
            },
            "properties": {
                "name": "Pizza Marina Pub"
            }
        },
        {
            "type": "Feature",
            "geometry": {
                "type": "Point",
                "coordinates": [
                    14.2966444,
                    36.0247968
                ]
            },
            "properties": {
                "name": "Sicilia in bocca"
            }
        },
        {
            "type": "Feature",
            "geometry": {
                "type": "Point",
                "coordinates": [
                    14.2961515,
                    36.0244607
                ]
            },
            "properties": {
                "name": "Huan Yuan"
            }
        },
        {
            "type": "Feature",
            "geometry": {
                "type": "Point",
                "coordinates": [
                    14.2962716,
                    36.0244212
                ]
            },
            "properties": {
                "name": "Bancini"
            }
        },
        {
            "type": "Feature",
            "geometry": {
                "type": "Point",
                "coordinates": [
                    14.2966879,
                    36.0241347
                ]
            },
            "properties": {
                "name": "Cicken fried"
            }
        },
        {
            "type": "Feature",
            "geometry": {
                "type": "Point",
                "coordinates": [
                    14.2610821,
                    36.0722477
                ]
            },
            "properties": {
                "name": "Odyssey"
            }
        },
        {
            "type": "Feature",
            "geometry": {
                "type": "Point",
                "coordinates": [
                    14.2514827,
                    36.077014
                ]
            },
            "properties": {
                "name": "Qbajjar Restaurant"
            }
        },
        {
            "type": "Feature",
            "geometry": {
                "type": "Point",
                "coordinates": [
                    14.2167729,
                    36.0274195
                ]
            },
            "properties": {
                "name": "Da Manuel"
            }
        },
        {
            "type": "Feature",
            "geometry": {
                "type": "Point",
                "coordinates": [
                    14.5592089,
                    35.8563904
                ]
            },
            "properties": {
                "name": "Beijing"
            }
        },
        {
            "type": "Feature",
            "geometry": {
                "type": "Point",
                "coordinates": [
                    14.2607935,
                    36.0718582
                ]
            },
            "properties": {
                "name": "Smuggler's Cave"
            }
        },
        {
            "type": "Feature",
            "geometry": {
                "type": "Point",
                "coordinates": [
                    14.2611694,
                    36.0723913
                ]
            },
            "properties": {
                "name": "La Pulena"
            }
        },
        {
            "type": "Feature",
            "geometry": {
                "type": "Point",
                "coordinates": [
                    14.2595536,
                    36.0709483
                ]
            },
            "properties": {
                "name": "Smiley's Restaurant"
            }
        },
        {
            "type": "Feature",
            "geometry": {
                "type": "Point",
                "coordinates": [
                    14.2594255,
                    36.0705449
                ]
            },
            "properties": {
                "name": "The Rooftop Restaurant"
            }
        },
        {
            "type": "Feature",
            "geometry": {
                "type": "Point",
                "coordinates": [
                    14.2577147,
                    36.0716931
                ]
            },
            "properties": {
                "name": "L'Aragosta"
            }
        },
        {
            "type": "Feature",
            "geometry": {
                "type": "Point",
                "coordinates": [
                    14.2587943,
                    36.0705682
                ]
            },
            "properties": {
                "name": "Lantern"
            }
        },
        {
            "type": "Feature",
            "geometry": {
                "type": "Point",
                "coordinates": [
                    14.2580127,
                    36.0716854
                ]
            },
            "properties": {
                "name": "Neptune's"
            }
        },
        {
            "type": "Feature",
            "geometry": {
                "type": "Point",
                "coordinates": [
                    14.2514853,
                    36.0768981
                ]
            },
            "properties": {
                "name": "Chez Amand"
            }
        },
        {
            "type": "Feature",
            "geometry": {
                "type": "Point",
                "coordinates": [
                    14.2579616,
                    36.0733704
                ]
            },
            "properties": {
                "name": "Otters Bistro"
            }
        },
        {
            "type": "Feature",
            "geometry": {
                "type": "Point",
                "coordinates": [
                    14.2511748,
                    36.0774863
                ]
            },
            "properties": {
                "name": "Sea Coast"
            }
        },
        {
            "type": "Feature",
            "geometry": {
                "type": "Point",
                "coordinates": [
                    14.2505478,
                    36.0780083
                ]
            },
            "properties": {
                "name": "Seagulls Pizzeria"
            }
        },
        {
            "type": "Feature",
            "geometry": {
                "type": "Point",
                "coordinates": [
                    14.2507909,
                    36.0781641
                ]
            },
            "properties": {
                "name": "Horizon"
            }
        },
        {
            "type": "Feature",
            "geometry": {
                "type": "Point",
                "coordinates": [
                    14.2189657,
                    36.0313147
                ]
            },
            "properties": {
                "name": "Le Val D'Or"
            }
        },
        {
            "type": "Feature",
            "geometry": {
                "type": "Point",
                "coordinates": [
                    14.2190478,
                    36.0313473
                ]
            },
            "properties": {
                "name": "Sea Shells"
            }
        },
        {
            "type": "Feature",
            "geometry": {
                "type": "Point",
                "coordinates": [
                    14.2193265,
                    36.031508
                ]
            },
            "properties": {
                "name": "Il-Kantaa"
            }
        },
        {
            "type": "Feature",
            "geometry": {
                "type": "Point",
                "coordinates": [
                    14.2191117,
                    36.0313857
                ]
            },
            "properties": {
                "name": "Valley View"
            }
        },
        {
            "type": "Feature",
            "geometry": {
                "type": "Point",
                "coordinates": [
                    14.2280076,
                    36.0334244
                ]
            },
            "properties": {
                "name": "Ping's Dining (closed)"
            }
        },
        {
            "type": "Feature",
            "geometry": {
                "type": "Point",
                "coordinates": [
                    14.2174028,
                    36.0307509
                ]
            },
            "properties": {
                "name": "Village Inn"
            }
        },
        {
            "type": "Feature",
            "geometry": {
                "type": "Point",
                "coordinates": [
                    14.2176172,
                    36.0306003
                ]
            },
            "properties": {
                "name": "cseven"
            }
        },
        {
            "type": "Feature",
            "geometry": {
                "type": "Point",
                "coordinates": [
                    14.2174911,
                    36.0312101
                ]
            },
            "properties": {
                "name": "It-Tmun (closed)"
            }
        },
        {
            "type": "Feature",
            "geometry": {
                "type": "Point",
                "coordinates": [
                    14.2174411,
                    36.0310038
                ]
            },
            "properties": {
                "name": "Paradise (Closed)"
            }
        },
        {
            "type": "Feature",
            "geometry": {
                "type": "Point",
                "coordinates": [
                    14.217562,
                    36.0313195
                ]
            },
            "properties": {
                "name": "Bonitos"
            }
        },
        {
            "type": "Feature",
            "geometry": {
                "type": "Point",
                "coordinates": [
                    14.2172616,
                    36.0309595
                ]
            },
            "properties": {
                "name": "nemo"
            }
        },
        {
            "type": "Feature",
            "geometry": {
                "type": "Point",
                "coordinates": [
                    14.2175327,
                    36.0299225
                ]
            },
            "properties": {
                "name": "Ta' Nona"
            }
        },
        {
            "type": "Feature",
            "geometry": {
                "type": "Point",
                "coordinates": [
                    14.2170962,
                    36.0297244
                ]
            },
            "properties": {
                "name": "Churchill"
            }
        },
        {
            "type": "Feature",
            "geometry": {
                "type": "Point",
                "coordinates": [
                    14.2157838,
                    36.0289995
                ]
            },
            "properties": {
                "name": "Il Terrazzo"
            }
        },
        {
            "type": "Feature",
            "geometry": {
                "type": "Point",
                "coordinates": [
                    14.2158597,
                    36.0290926
                ]
            },
            "properties": {
                "name": "I\u010b-\u010aima"
            }
        },
        {
            "type": "Feature",
            "geometry": {
                "type": "Point",
                "coordinates": [
                    14.2828641,
                    36.0608153
                ]
            },
            "properties": {
                "name": "It-Rcina tar-Ramla"
            }
        },
        {
            "type": "Feature",
            "geometry": {
                "type": "Point",
                "coordinates": [
                    14.2394922,
                    36.0446436
                ]
            },
            "properties": {
                "name": "It-Tokk"
            }
        },
        {
            "type": "Feature",
            "geometry": {
                "type": "Point",
                "coordinates": [
                    14.2390093,
                    36.0429328
                ]
            },
            "properties": {
                "name": "Il-Panzier"
            }
        },
        {
            "type": "Feature",
            "geometry": {
                "type": "Point",
                "coordinates": [
                    14.2454749,
                    36.0420166
                ]
            },
            "properties": {
                "name": "Eldorado"
            }
        },
        {
            "type": "Feature",
            "geometry": {
                "type": "Point",
                "coordinates": [
                    14.2460216,
                    36.042727
                ]
            },
            "properties": {
                "name": "Flamingo"
            }
        },
        {
            "type": "Feature",
            "geometry": {
                "type": "Point",
                "coordinates": [
                    14.2455549,
                    36.0434251
                ]
            },
            "properties": {
                "name": "Tamarisk"
            }
        },
        {
            "type": "Feature",
            "geometry": {
                "type": "Point",
                "coordinates": [
                    14.2540032,
                    36.0599116
                ]
            },
            "properties": {
                "name": "Ta' Fren\u010b"
            }
        },
        {
            "type": "Feature",
            "geometry": {
                "type": "Point",
                "coordinates": [
                    14.2599161,
                    36.0701333
                ]
            },
            "properties": {
                "name": "Tuck-Inn"
            }
        },
        {
            "type": "Feature",
            "geometry": {
                "type": "Point",
                "coordinates": [
                    14.2372641,
                    36.0501183
                ]
            },
            "properties": {
                "name": "Brookies"
            }
        },
        {
            "type": "Feature",
            "geometry": {
                "type": "Point",
                "coordinates": [
                    14.2374845,
                    36.0483165
                ]
            },
            "properties": {
                "name": "La Stanza"
            }
        },
        {
            "type": "Feature",
            "geometry": {
                "type": "Point",
                "coordinates": [
                    14.2388323,
                    36.0454122
                ]
            },
            "properties": {
                "name": "Cittadella"
            }
        },
        {
            "type": "Feature",
            "geometry": {
                "type": "Point",
                "coordinates": [
                    14.2396545,
                    36.046327
                ]
            },
            "properties": {
                "name": "Ta' Rikardu"
            }
        },
        {
            "type": "Feature",
            "geometry": {
                "type": "Point",
                "coordinates": [
                    14.2962922,
                    36.0382053
                ]
            },
            "properties": {
                "name": "Al Capone"
            }
        },
        {
            "type": "Feature",
            "geometry": {
                "type": "Point",
                "coordinates": [
                    14.2520501,
                    36.0401126
                ]
            },
            "properties": {
                "name": "Vinyard"
            }
        },
        {
            "type": "Feature",
            "geometry": {
                "type": "Point",
                "coordinates": [
                    14.2498892,
                    36.0217775
                ]
            },
            "properties": {
                "name": "Il-Girna"
            }
        },
        {
            "type": "Feature",
            "geometry": {
                "type": "Point",
                "coordinates": [
                    14.2492635,
                    36.0229383
                ]
            },
            "properties": {
                "name": "L-Iskoll"
            }
        },
        {
            "type": "Feature",
            "geometry": {
                "type": "Point",
                "coordinates": [
                    14.2631853,
                    36.034301
                ]
            },
            "properties": {
                "name": "Mariblu Restaurant"
            }
        },
        {
            "type": "Feature",
            "geometry": {
                "type": "Point",
                "coordinates": [
                    14.5108396,
                    35.8957677
                ]
            },
            "properties": {
                "name": "Inspirations"
            }
        },
        {
            "type": "Feature",
            "geometry": {
                "type": "Point",
                "coordinates": [
                    14.5081902,
                    35.8901807
                ]
            },
            "properties": {
                "name": "Hard Rock Bar"
            }
        },
        {
            "type": "Feature",
            "geometry": {
                "type": "Point",
                "coordinates": [
                    14.4876943,
                    35.9246646
                ]
            },
            "properties": {
                "name": "Hard Rock Caf\u00e9"
            }
        },
        {
            "type": "Feature",
            "geometry": {
                "type": "Point",
                "coordinates": [
                    14.5153916,
                    35.899926
                ]
            },
            "properties": {
                "name": "La Giara"
            }
        },
        {
            "type": "Feature",
            "geometry": {
                "type": "Point",
                "coordinates": [
                    14.506176,
                    35.9138493
                ]
            },
            "properties": {
                "name": "Nina's"
            }
        },
        {
            "type": "Feature",
            "geometry": {
                "type": "Point",
                "coordinates": [
                    14.5092684,
                    35.8979996
                ]
            },
            "properties": {
                "name": "Cocopazzo"
            }
        },
        {
            "type": "Feature",
            "geometry": {
                "type": "Point",
                "coordinates": [
                    14.4918529,
                    35.9232991
                ]
            },
            "properties": {
                "name": "Tana del Lupo"
            }
        },
        {
            "type": "Feature",
            "geometry": {
                "type": "Point",
                "coordinates": [
                    14.5143878,
                    35.8992773
                ]
            },
            "properties": {
                "name": "Margos"
            }
        },
        {
            "type": "Feature",
            "geometry": {
                "type": "Point",
                "coordinates": [
                    14.5724549,
                    35.8678562
                ]
            }
        },
        {
            "type": "Feature",
            "geometry": {
                "type": "Point",
                "coordinates": [
                    14.4432045,
                    35.8268495
                ]
            },
            "properties": {
                "name": "\u0126a\u0121ar Qim"
            }
        },
        {
            "type": "Feature",
            "geometry": {
                "type": "Point",
                "coordinates": [
                    14.4172037,
                    35.9536691
                ]
            },
            "properties": {
                "name": "Watercolours"
            }
        },
        {
            "type": "Feature",
            "geometry": {
                "type": "Point",
                "coordinates": [
                    14.2088287,
                    36.0617697
                ]
            },
            "properties": {
                "name": "Savina"
            }
        },
        {
            "type": "Feature",
            "geometry": {
                "type": "Point",
                "coordinates": [
                    14.4036964,
                    35.887184
                ]
            },
            "properties": {
                "name": "Fontanella Tea Garden"
            }
        },
        {
            "type": "Feature",
            "geometry": {
                "type": "Point",
                "coordinates": [
                    14.2355102,
                    36.0693801
                ]
            },
            "properties": {
                "name": "Francesco's Bar"
            }
        },
        {
            "type": "Feature",
            "geometry": {
                "type": "Point",
                "coordinates": [
                    14.4922803,
                    35.9232533
                ]
            },
            "properties": {
                "name": "La Maltija"
            }
        },
        {
            "type": "Feature",
            "geometry": {
                "type": "Point",
                "coordinates": [
                    14.4908567,
                    35.9220367
                ]
            },
            "properties": {
                "name": "The Avenue"
            }
        },
        {
            "type": "Feature",
            "geometry": {
                "type": "Point",
                "coordinates": [
                    14.3980454,
                    35.859353
                ]
            },
            "properties": {
                "name": "Antica Roma"
            }
        },
        {
            "type": "Feature",
            "geometry": {
                "type": "Point",
                "coordinates": [
                    14.2133279,
                    36.0559007
                ]
            },
            "properties": {
                "name": "Jeffrey's"
            }
        },
        {
            "type": "Feature",
            "geometry": {
                "type": "Point",
                "coordinates": [
                    14.2098067,
                    36.0591126
                ]
            },
            "properties": {
                "name": "Rangers Snack Bar"
            }
        },
        {
            "type": "Feature",
            "geometry": {
                "type": "Point",
                "coordinates": [
                    14.4041155,
                    35.8851845
                ]
            },
            "properties": {
                "name": "Trattoria A.D. 1530"
            }
        },
        {
            "type": "Feature",
            "geometry": {
                "type": "Point",
                "coordinates": [
                    14.3660309,
                    35.956141
                ]
            },
            "properties": {
                "name": "Royal China"
            }
        },
        {
            "type": "Feature",
            "geometry": {
                "type": "Point",
                "coordinates": [
                    14.3426885,
                    35.961445
                ]
            }
        },
        {
            "type": "Feature",
            "geometry": {
                "type": "Point",
                "coordinates": [
                    14.442909,
                    35.8907004
                ]
            },
            "properties": {
                "name": "Saracino's"
            }
        },
        {
            "type": "Feature",
            "geometry": {
                "type": "Point",
                "coordinates": [
                    14.5339342,
                    35.8323244
                ]
            },
            "properties": {
                "name": "Ferretti"
            }
        },
        {
            "type": "Feature",
            "geometry": {
                "type": "Point",
                "coordinates": [
                    14.4028053,
                    35.8874111
                ]
            },
            "properties": {
                "name": "Ciapetti"
            }
        },
        {
            "type": "Feature",
            "geometry": {
                "type": "Point",
                "coordinates": [
                    14.5454329,
                    35.8354473
                ]
            },
            "properties": {
                "name": "Sajjied"
            }
        },
        {
            "type": "Feature",
            "geometry": {
                "type": "Point",
                "coordinates": [
                    14.4273445,
                    35.9098798
                ]
            },
            "properties": {
                "name": "The Lord Nelson"
            }
        },
        {
            "type": "Feature",
            "geometry": {
                "type": "Point",
                "coordinates": [
                    14.4244301,
                    35.9103158
                ]
            },
            "properties": {
                "name": "Ta' Marija Restaurant"
            }
        },
        {
            "type": "Feature",
            "geometry": {
                "type": "Point",
                "coordinates": [
                    14.5165644,
                    35.8728672
                ]
            },
            "properties": {
                "name": "Eda"
            }
        },
        {
            "type": "Feature",
            "geometry": {
                "type": "Point",
                "coordinates": [
                    14.4920717,
                    35.9234679
                ]
            },
            "properties": {
                "name": "Buon Cafe"
            }
        },
        {
            "type": "Feature",
            "geometry": {
                "type": "Point",
                "coordinates": [
                    14.4918786,
                    35.9234766
                ]
            },
            "properties": {
                "name": "I Monelli"
            }
        },
        {
            "type": "Feature",
            "geometry": {
                "type": "Point",
                "coordinates": [
                    14.5484026,
                    35.8403532
                ]
            },
            "properties": {
                "name": "Hunters Tower"
            }
        },
        {
            "type": "Feature",
            "geometry": {
                "type": "Point",
                "coordinates": [
                    14.5454369,
                    35.8412936
                ]
            },
            "properties": {
                "name": "Harbour lights"
            }
        },
        {
            "type": "Feature",
            "geometry": {
                "type": "Point",
                "coordinates": [
                    14.3868037,
                    35.9522082
                ]
            },
            "properties": {
                "name": "Shawkiwan chinese restaurant"
            }
        },
        {
            "type": "Feature",
            "geometry": {
                "type": "Point",
                "coordinates": [
                    14.3867178,
                    35.9520084
                ]
            },
            "properties": {
                "name": "Zeus Greek Restaurant"
            }
        },
        {
            "type": "Feature",
            "geometry": {
                "type": "Point",
                "coordinates": [
                    14.3831237,
                    35.9506796
                ]
            },
            "properties": {
                "name": "Ganesha Indian Restaurant"
            }
        },
        {
            "type": "Feature",
            "geometry": {
                "type": "Point",
                "coordinates": [
                    14.5064299,
                    35.909045
                ]
            },
            "properties": {
                "name": "Ta' Kris"
            }
        },
        {
            "type": "Feature",
            "geometry": {
                "type": "Point",
                "coordinates": [
                    14.3110743,
                    36.0355581
                ]
            },
            "properties": {
                "name": "Ta Vestru"
            }
        },
        {
            "type": "Feature",
            "geometry": {
                "type": "Point",
                "coordinates": [
                    14.3115571,
                    36.0352371
                ]
            }
        },
        {
            "type": "Feature",
            "geometry": {
                "type": "Point",
                "coordinates": [
                    14.3087461,
                    36.0307862
                ]
            },
            "properties": {
                "name": "Xerri il-Bukkett"
            }
        },
        {
            "type": "Feature",
            "geometry": {
                "type": "Point",
                "coordinates": [
                    14.3121071,
                    36.0396552
                ]
            },
            "properties": {
                "name": "Il Wile\u0121 Restaurant"
            }
        },
        {
            "type": "Feature",
            "geometry": {
                "type": "Point",
                "coordinates": [
                    14.4929566,
                    35.9156617
                ]
            },
            "properties": {
                "name": "Peperoncino"
            }
        },
        {
            "type": "Feature",
            "geometry": {
                "type": "Point",
                "coordinates": [
                    14.2539127,
                    36.0343468
                ]
            },
            "properties": {
                "name": "ta xiber"
            }
        },
        {
            "type": "Feature",
            "geometry": {
                "type": "Point",
                "coordinates": [
                    14.514974,
                    35.89863
                ]
            },
            "properties": {
                "name": "La M\u00e8re"
            }
        },
        {
            "type": "Feature",
            "geometry": {
                "type": "Point",
                "coordinates": [
                    14.5102838,
                    35.8959246
                ]
            },
            "properties": {
                "name": "St. James' Cavalier"
            }
        },
        {
            "type": "Feature",
            "geometry": {
                "type": "Point",
                "coordinates": [
                    14.5098043,
                    35.9000563
                ]
            },
            "properties": {
                "name": "Scoglitti"
            }
        },
        {
            "type": "Feature",
            "geometry": {
                "type": "Point",
                "coordinates": [
                    14.4984231,
                    35.9073436
                ]
            }
        },
        {
            "type": "Feature",
            "geometry": {
                "type": "Point",
                "coordinates": [
                    14.5000972,
                    35.8975719
                ]
            },
            "properties": {
                "name": "Guze Brasserie"
            }
        },
        {
            "type": "Feature",
            "geometry": {
                "type": "Point",
                "coordinates": [
                    14.4939313,
                    35.897263
                ]
            },
            "properties": {
                "name": "Mamma Mia"
            }
        },
        {
            "type": "Feature",
            "geometry": {
                "type": "Point",
                "coordinates": [
                    14.4494408,
                    35.8953233
                ]
            },
            "properties": {
                "name": "Melita Resturant"
            }
        },
        {
            "type": "Feature",
            "geometry": {
                "type": "Point",
                "coordinates": [
                    14.4497019,
                    35.8953109
                ]
            }
        },
        {
            "type": "Feature",
            "geometry": {
                "type": "Point",
                "coordinates": [
                    14.5033648,
                    35.8971362
                ]
            },
            "properties": {
                "name": "Lo Squero"
            }
        },
        {
            "type": "Feature",
            "geometry": {
                "type": "Point",
                "coordinates": [
                    14.4999733,
                    35.8857109
                ]
            },
            "properties": {
                "name": "Spencer"
            }
        },
        {
            "type": "Feature",
            "geometry": {
                "type": "Point",
                "coordinates": [
                    14.400059,
                    35.8849012
                ]
            },
            "properties": {
                "name": "Peristyle"
            }
        },
        {
            "type": "Feature",
            "geometry": {
                "type": "Point",
                "coordinates": [
                    14.4035126,
                    35.8836365
                ]
            }
        },
        {
            "type": "Feature",
            "geometry": {
                "type": "Point",
                "coordinates": [
                    14.4267966,
                    35.9089677
                ]
            },
            "properties": {
                "name": "Il Vecchio Forno"
            }
        },
        {
            "type": "Feature",
            "geometry": {
                "type": "Point",
                "coordinates": [
                    14.4195806,
                    35.9020699
                ]
            },
            "properties": {
                "name": "razzett l-ahmar"
            }
        },
        {
            "type": "Feature",
            "geometry": {
                "type": "Point",
                "coordinates": [
                    14.3460731,
                    35.9343256
                ]
            },
            "properties": {
                "name": "Apple's Eye"
            }
        },
        {
            "type": "Feature",
            "geometry": {
                "type": "Point",
                "coordinates": [
                    14.4914681,
                    35.9215873
                ]
            },
            "properties": {
                "name": "ir-rokna"
            }
        },
        {
            "type": "Feature",
            "geometry": {
                "type": "Point",
                "coordinates": [
                    14.4149209,
                    35.9043422
                ]
            },
            "properties": {
                "name": "Extra Time"
            }
        },
        {
            "type": "Feature",
            "geometry": {
                "type": "Point",
                "coordinates": [
                    14.2580126,
                    36.0716317
                ]
            },
            "properties": {
                "name": "Kartell"
            }
        },
        {
            "type": "Feature",
            "geometry": {
                "type": "Point",
                "coordinates": [
                    14.2612413,
                    36.0724646
                ]
            },
            "properties": {
                "name": "Latini"
            }
        },
        {
            "type": "Feature",
            "geometry": {
                "type": "Point",
                "coordinates": [
                    14.2715536,
                    36.0173824
                ]
            },
            "properties": {
                "name": "Kantra restaurant"
            }
        },
        {
            "type": "Feature",
            "geometry": {
                "type": "Point",
                "coordinates": [
                    14.4243585,
                    35.8274519
                ]
            },
            "properties": {
                "name": "Blue Creek Bar & restaurant"
            }
        },
        {
            "type": "Feature",
            "geometry": {
                "type": "Point",
                "coordinates": [
                    14.4546845,
                    35.9005057
                ]
            },
            "properties": {
                "name": "B R Guest"
            }
        },
        {
            "type": "Feature",
            "geometry": {
                "type": "Point",
                "coordinates": [
                    14.4906704,
                    35.9223717
                ]
            },
            "properties": {
                "name": "Chicago"
            }
        },
        {
            "type": "Feature",
            "geometry": {
                "type": "Point",
                "coordinates": [
                    14.5283405,
                    35.8237591
                ]
            }
        },
        {
            "type": "Feature",
            "geometry": {
                "type": "Point",
                "coordinates": [
                    14.5440541,
                    35.839633
                ]
            },
            "properties": {
                "name": "Southport"
            }
        },
        {
            "type": "Feature",
            "geometry": {
                "type": "Point",
                "coordinates": [
                    14.461086,
                    35.8357676
                ]
            },
            "properties": {
                "name": "Ta' 31 Maltese Restaurant"
            }
        },
        {
            "type": "Feature",
            "geometry": {
                "type": "Point",
                "coordinates": [
                    14.5448897,
                    35.840891
                ]
            },
            "properties": {
                "name": "Ir-Rizzu"
            }
        },
        {
            "type": "Feature",
            "geometry": {
                "type": "Point",
                "coordinates": [
                    14.5451324,
                    35.84139
                ]
            },
            "properties": {
                "name": "Ta' Victor"
            }
        },
        {
            "type": "Feature",
            "geometry": {
                "type": "Point",
                "coordinates": [
                    14.5441614,
                    35.8397418
                ]
            },
            "properties": {
                "name": "Pisces"
            }
        },
        {
            "type": "Feature",
            "geometry": {
                "type": "Point",
                "coordinates": [
                    14.5452397,
                    35.8413922
                ]
            },
            "properties": {
                "name": "Duncan"
            }
        },
        {
            "type": "Feature",
            "geometry": {
                "type": "Point",
                "coordinates": [
                    14.5449937,
                    35.8411021
                ]
            },
            "properties": {
                "name": "Costa Coffee"
            }
        },
        {
            "type": "Feature",
            "geometry": {
                "type": "Point",
                "coordinates": [
                    14.5288596,
                    35.8233571
                ]
            },
            "properties": {
                "name": "Reno's Bar & Restaurant"
            }
        },
        {
            "type": "Feature",
            "geometry": {
                "type": "Point",
                "coordinates": [
                    14.512176,
                    35.8978102
                ]
            },
            "properties": {
                "name": "Kantina"
            }
        },
        {
            "type": "Feature",
            "geometry": {
                "type": "Point",
                "coordinates": [
                    14.4904125,
                    35.9280317
                ]
            },
            "properties": {
                "name": "Grill 3301"
            }
        },
        {
            "type": "Feature",
            "geometry": {
                "type": "Point",
                "coordinates": [
                    14.5441892,
                    35.8398738
                ]
            },
            "properties": {
                "name": "la Nostra Padrona"
            }
        },
        {
            "type": "Feature",
            "geometry": {
                "type": "Point",
                "coordinates": [
                    14.3414664,
                    35.9608773
                ]
            }
        },
        {
            "type": "Feature",
            "geometry": {
                "type": "Point",
                "coordinates": [
                    14.3447842,
                    35.930106
                ]
            },
            "properties": {
                "name": "Riviera Martinique Lido"
            }
        },
        {
            "type": "Feature",
            "geometry": {
                "type": "Point",
                "coordinates": [
                    14.5604627,
                    35.8615099
                ]
            },
            "properties": {
                "name": "Etna"
            }
        },
        {
            "type": "Feature",
            "geometry": {
                "type": "Point",
                "coordinates": [
                    14.3471349,
                    35.8949421
                ]
            },
            "properties": {
                "name": "Ta Gagin"
            }
        },
        {
            "type": "Feature",
            "geometry": {
                "type": "Point",
                "coordinates": [
                    14.3467394,
                    35.8947034
                ]
            },
            "properties": {
                "name": "New Life"
            }
        },
        {
            "type": "Feature",
            "geometry": {
                "type": "Point",
                "coordinates": [
                    14.5549287,
                    35.8340354
                ]
            }
        },
        {
            "type": "Feature",
            "geometry": {
                "type": "Point",
                "coordinates": [
                    14.1905333,
                    36.0524598
                ]
            }
        },
        {
            "type": "Feature",
            "geometry": {
                "type": "Point",
                "coordinates": [
                    14.2390113,
                    36.0450177
                ]
            },
            "properties": {
                "name": "Palazzo Antonin"
            }
        },
        {
            "type": "Feature",
            "geometry": {
                "type": "Point",
                "coordinates": [
                    14.4998595,
                    35.851131
                ]
            },
            "properties": {
                "name": "Ta' Scicluna Farmhouse"
            }
        },
        {
            "type": "Feature",
            "geometry": {
                "type": "Point",
                "coordinates": [
                    14.4570636,
                    35.9252439
                ]
            },
            "properties": {
                "name": "Trattoria da Nino"
            }
        },
        {
            "type": "Feature",
            "geometry": {
                "type": "Point",
                "coordinates": [
                    14.5128837,
                    35.8997754
                ]
            },
            "properties": {
                "name": "Rubino"
            }
        },
        {
            "type": "Feature",
            "geometry": {
                "type": "Point",
                "coordinates": [
                    14.3791876,
                    35.921027
                ]
            },
            "properties": {
                "name": "Tal-Bennej"
            }
        },
        {
            "type": "Feature",
            "geometry": {
                "type": "Point",
                "coordinates": [
                    14.4201136,
                    35.9534645
                ]
            },
            "properties": {
                "name": "Churchill's"
            }
        },
        {
            "type": "Feature",
            "geometry": {
                "type": "Point",
                "coordinates": [
                    14.5038656,
                    35.9163382
                ]
            },
            "properties": {
                "name": "Surfside"
            }
        },
        {
            "type": "Feature",
            "geometry": {
                "type": "Point",
                "coordinates": [
                    14.2864159,
                    36.036802
                ]
            },
            "properties": {
                "name": "Ta' Kenuna"
            }
        },
        {
            "type": "Feature",
            "geometry": {
                "type": "Point",
                "coordinates": [
                    14.311688,
                    36.0354212
                ]
            },
            "properties": {
                "name": "Kaputa"
            }
        },
        {
            "type": "Feature",
            "geometry": {
                "type": "Point",
                "coordinates": [
                    14.3109772,
                    36.0358462
                ]
            },
            "properties": {
                "name": "D-Bar"
            }
        },
        {
            "type": "Feature",
            "geometry": {
                "type": "Point",
                "coordinates": [
                    14.3468661,
                    35.8950864
                ]
            }
        },
        {
            "type": "Feature",
            "geometry": {
                "type": "Point",
                "coordinates": [
                    14.4149348,
                    35.9513147
                ]
            },
            "properties": {
                "name": "Shanghai Chinese Buffet"
            }
        },
        {
            "type": "Feature",
            "geometry": {
                "type": "Point",
                "coordinates": [
                    14.4137331,
                    35.951597
                ]
            }
        },
        {
            "type": "Feature",
            "geometry": {
                "type": "Point",
                "coordinates": [
                    14.491873,
                    35.9237493
                ]
            },
            "properties": {
                "name": "Trattoria Vigata"
            }
        },
        {
            "type": "Feature",
            "geometry": {
                "type": "Point",
                "coordinates": [
                    14.5203639,
                    35.888429
                ]
            },
            "properties": {
                "name": "Tate"
            }
        },
        {
            "type": "Feature",
            "geometry": {
                "type": "Point",
                "coordinates": [
                    14.4918091,
                    35.9239369
                ]
            },
            "properties": {
                "name": "Shiva's"
            }
        },
        {
            "type": "Feature",
            "geometry": {
                "type": "Point",
                "coordinates": [
                    14.498915,
                    35.9173393
                ]
            },
            "properties": {
                "name": "Charles Grech Bistro"
            }
        },
        {
            "type": "Feature",
            "geometry": {
                "type": "Point",
                "coordinates": [
                    14.5110967,
                    35.9074825
                ]
            },
            "properties": {
                "name": "Cibo restaurant e pizzeria"
            }
        },
        {
            "type": "Feature",
            "geometry": {
                "type": "Point",
                "coordinates": [
                    14.501025,
                    35.9082637
                ]
            },
            "properties": {
                "name": "Tex-Mex"
            }
        },
        {
            "type": "Feature",
            "geometry": {
                "type": "Point",
                "coordinates": [
                    14.5132934,
                    35.8991742
                ]
            },
            "properties": {
                "name": "Malata"
            }
        },
        {
            "type": "Feature",
            "geometry": {
                "type": "Point",
                "coordinates": [
                    14.4950315,
                    35.8490979
                ]
            },
            "properties": {
                "name": "Hard Rock Caf\u00e9"
            }
        },
        {
            "type": "Feature",
            "geometry": {
                "type": "Point",
                "coordinates": [
                    14.4139368,
                    35.9514751
                ]
            }
        },
        {
            "type": "Feature",
            "geometry": {
                "type": "Point",
                "coordinates": [
                    14.4101824,
                    35.9476795
                ]
            },
            "properties": {
                "name": "Jesters"
            }
        },
        {
            "type": "Feature",
            "geometry": {
                "type": "Point",
                "coordinates": [
                    14.4654671,
                    35.8690886
                ]
            },
            "properties": {
                "name": "Cavett"
            }
        },
        {
            "type": "Feature",
            "geometry": {
                "type": "Point",
                "coordinates": [
                    14.5447513,
                    35.8407233
                ]
            },
            "properties": {
                "name": "La Capanna"
            }
        },
        {
            "type": "Feature",
            "geometry": {
                "type": "Point",
                "coordinates": [
                    14.4950771,
                    35.9152676
                ]
            },
            "properties": {
                "name": "Piccolo Padre"
            }
        },
        {
            "type": "Feature",
            "geometry": {
                "type": "Point",
                "coordinates": [
                    14.4950744,
                    35.9153306
                ]
            },
            "properties": {
                "name": "Barracuda"
            }
        },
        {
            "type": "Feature",
            "geometry": {
                "type": "Point",
                "coordinates": [
                    14.489321,
                    35.9184803
                ]
            },
            "properties": {
                "name": "Meet - Argentinian Steakhouse"
            }
        },
        {
            "type": "Feature",
            "geometry": {
                "type": "Point",
                "coordinates": [
                    14.4036641,
                    35.8833483
                ]
            },
            "properties": {
                "name": "Point de Vue"
            }
        },
        {
            "type": "Feature",
            "geometry": {
                "type": "Point",
                "coordinates": [
                    14.417541,
                    35.9553673
                ]
            },
            "properties": {
                "name": "Amazonia"
            }
        },
        {
            "type": "Feature",
            "geometry": {
                "type": "Point",
                "coordinates": [
                    14.4102773,
                    35.952241
                ]
            },
            "properties": {
                "name": "Angelo's Pub, Diner & Pizzeria"
            }
        },
        {
            "type": "Feature",
            "geometry": {
                "type": "Point",
                "coordinates": [
                    14.4143042,
                    35.9515721
                ]
            },
            "properties": {
                "name": "Bad Bull"
            }
        },
        {
            "type": "Feature",
            "geometry": {
                "type": "Point",
                "coordinates": [
                    14.4114845,
                    35.9525036
                ]
            },
            "properties": {
                "name": "Bayside"
            }
        },
        {
            "type": "Feature",
            "geometry": {
                "type": "Point",
                "coordinates": [
                    14.4126495,
                    35.9521872
                ]
            },
            "properties": {
                "name": "Bognor"
            }
        },
        {
            "type": "Feature",
            "geometry": {
                "type": "Point",
                "coordinates": [
                    14.4089361,
                    35.9496761
                ]
            },
            "properties": {
                "name": "Damiano's Pizza Pasta"
            }
        },
        {
            "type": "Feature",
            "geometry": {
                "type": "Point",
                "coordinates": [
                    14.4176106,
                    35.9547687
                ]
            },
            "properties": {
                "name": "L' Chaim"
            }
        },
        {
            "type": "Feature",
            "geometry": {
                "type": "Point",
                "coordinates": [
                    14.4116266,
                    35.9524129
                ]
            },
            "properties": {
                "name": "La Krepree"
            }
        },
        {
            "type": "Feature",
            "geometry": {
                "type": "Point",
                "coordinates": [
                    14.4092167,
                    35.9500478
                ]
            },
            "properties": {
                "name": "Portobello"
            }
        },
        {
            "type": "Feature",
            "geometry": {
                "type": "Point",
                "coordinates": [
                    14.4138405,
                    35.9515183
                ]
            },
            "properties": {
                "name": "McDonald's"
            }
        },
        {
            "type": "Feature",
            "geometry": {
                "type": "Point",
                "coordinates": [
                    14.4763675,
                    35.9234108
                ]
            },
            "properties": {
                "name": "pavilion palace"
            }
        },
        {
            "type": "Feature",
            "geometry": {
                "type": "Point",
                "coordinates": [
                    14.548639,
                    35.8879047
                ]
            },
            "properties": {
                "name": "El Catalan"
            }
        },
        {
            "type": "Feature",
            "geometry": {
                "type": "Point",
                "coordinates": [
                    14.4238186,
                    35.9538957
                ]
            },
            "properties": {
                "name": "Tal-Kaptan"
            }
        },
        {
            "type": "Feature",
            "geometry": {
                "type": "Point",
                "coordinates": [
                    14.4041624,
                    35.8868173
                ]
            },
            "properties": {
                "name": "Palazzo de Piro"
            }
        },
        {
            "type": "Feature",
            "geometry": {
                "type": "Point",
                "coordinates": [
                    14.4919189,
                    35.9218605
                ]
            },
            "properties": {
                "name": "Caff\u00e8 Portomaso"
            }
        },
        {
            "type": "Feature",
            "geometry": {
                "type": "Point",
                "coordinates": [
                    14.4910529,
                    35.9220737
                ]
            },
            "properties": {
                "name": "Kandles"
            }
        },
        {
            "type": "Feature",
            "geometry": {
                "type": "Point",
                "coordinates": [
                    14.5119839,
                    35.8974358
                ]
            },
            "properties": {
                "name": "San Giovanni"
            }
        },
        {
            "type": "Feature",
            "geometry": {
                "type": "Point",
                "coordinates": [
                    14.5117456,
                    35.8977828
                ]
            },
            "properties": {
                "name": "King's Own Band Club Bar & Restaurant"
            }
        },
        {
            "type": "Feature",
            "geometry": {
                "type": "Point",
                "coordinates": [
                    14.4029923,
                    35.8851114
                ]
            },
            "properties": {
                "name": "Bacchus The Secret Garden"
            }
        },
        {
            "type": "Feature",
            "geometry": {
                "type": "Point",
                "coordinates": [
                    14.4030929,
                    35.8867809
                ]
            },
            "properties": {
                "name": "Rosmarino"
            }
        },
        {
            "type": "Feature",
            "geometry": {
                "type": "Point",
                "coordinates": [
                    14.2388425,
                    36.0463085
                ]
            },
            "properties": {
                "name": "Cafe San Martino"
            }
        },
        {
            "type": "Feature",
            "geometry": {
                "type": "Point",
                "coordinates": [
                    14.3989708,
                    35.8820914
                ]
            },
            "properties": {
                "name": "Ristorante Cosmana Navarra"
            }
        },
        {
            "type": "Feature",
            "geometry": {
                "type": "Point",
                "coordinates": [
                    14.4022822,
                    35.8871639
                ]
            },
            "properties": {
                "name": "Sharma Ethnic Cuisines"
            }
        },
        {
            "type": "Feature",
            "geometry": {
                "type": "Point",
                "coordinates": [
                    14.4028372,
                    35.8862566
                ]
            },
            "properties": {
                "name": "Medina Restaurant"
            }
        },
        {
            "type": "Feature",
            "geometry": {
                "type": "Point",
                "coordinates": [
                    14.5222494,
                    35.8878028
                ]
            },
            "properties": {
                "name": "dCentre"
            }
        },
        {
            "type": "Feature",
            "geometry": {
                "type": "Point",
                "coordinates": [
                    14.54361,
                    35.8387688
                ]
            },
            "properties": {
                "name": "Carrubia"
            }
        },
        {
            "type": "Feature",
            "geometry": {
                "type": "Point",
                "coordinates": [
                    14.4908816,
                    35.9226319
                ]
            },
            "properties": {
                "name": "Il Pirata"
            }
        },
        {
            "type": "Feature",
            "geometry": {
                "type": "Point",
                "coordinates": [
                    14.4908868,
                    35.924122
                ]
            },
            "properties": {
                "name": "Giardino Italiano"
            }
        },
        {
            "type": "Feature",
            "geometry": {
                "type": "Point",
                "coordinates": [
                    14.4909221,
                    35.9232471
                ]
            },
            "properties": {
                "name": "Egnatia"
            }
        },
        {
            "type": "Feature",
            "geometry": {
                "type": "Point",
                "coordinates": [
                    14.4908938,
                    35.9225559
                ]
            },
            "properties": {
                "name": "Parthenope"
            }
        },
        {
            "type": "Feature",
            "geometry": {
                "type": "Point",
                "coordinates": [
                    14.4908563,
                    35.9219043
                ]
            },
            "properties": {
                "name": "Maltese Mama"
            }
        },
        {
            "type": "Feature",
            "geometry": {
                "type": "Point",
                "coordinates": [
                    14.4908325,
                    35.9216273
                ]
            },
            "properties": {
                "name": "Okura"
            }
        },
        {
            "type": "Feature",
            "geometry": {
                "type": "Point",
                "coordinates": [
                    14.4890984,
                    35.9241097
                ]
            },
            "properties": {
                "name": "Subway"
            }
        },
        {
            "type": "Feature",
            "geometry": {
                "type": "Point",
                "coordinates": [
                    14.4990572,
                    35.9167561
                ]
            },
            "properties": {
                "name": "Amigos"
            }
        },
        {
            "type": "Feature",
            "geometry": {
                "type": "Point",
                "coordinates": [
                    14.3829928,
                    35.8609564
                ]
            },
            "properties": {
                "name": "1640"
            }
        },
        {
            "type": "Feature",
            "geometry": {
                "type": "Point",
                "coordinates": [
                    14.5205189,
                    35.8881335
                ]
            },
            "properties": {
                "name": "Two and a half lemon"
            }
        },
        {
            "type": "Feature",
            "geometry": {
                "type": "Point",
                "coordinates": [
                    14.5204487,
                    35.8882817
                ]
            },
            "properties": {
                "name": "Sottovento Ristorante Pizzeria"
            }
        },
        {
            "type": "Feature",
            "geometry": {
                "type": "Point",
                "coordinates": [
                    14.5202776,
                    35.8885901
                ]
            },
            "properties": {
                "name": "Cargo Bar & Dine"
            }
        },
        {
            "type": "Feature",
            "geometry": {
                "type": "Point",
                "coordinates": [
                    14.5220753,
                    35.8883015
                ]
            },
            "properties": {
                "name": "Sapori del Sud"
            }
        },
        {
            "type": "Feature",
            "geometry": {
                "type": "Point",
                "coordinates": [
                    14.5145033,
                    35.8989288
                ]
            },
            "properties": {
                "name": "D'Office"
            }
        },
        {
            "type": "Feature",
            "geometry": {
                "type": "Point",
                "coordinates": [
                    14.4535474,
                    35.819674
                ]
            }
        },
        {
            "type": "Feature",
            "geometry": {
                "type": "Point",
                "coordinates": [
                    14.5290759,
                    35.8237715
                ]
            },
            "properties": {
                "name": "marinella"
            }
        },
        {
            "type": "Feature",
            "geometry": {
                "type": "Point",
                "coordinates": [
                    14.2610248,
                    36.0721485
                ]
            },
            "properties": {
                "name": "dragon"
            }
        },
        {
            "type": "Feature",
            "geometry": {
                "type": "Point",
                "coordinates": [
                    14.2609484,
                    36.0720456
                ]
            },
            "properties": {
                "name": "murella"
            }
        },
        {
            "type": "Feature",
            "geometry": {
                "type": "Point",
                "coordinates": [
                    14.2611335,
                    36.0723187
                ]
            },
            "properties": {
                "name": "Il-Menqa l'Antika"
            }
        },
        {
            "type": "Feature",
            "geometry": {
                "type": "Point",
                "coordinates": [
                    14.294421,
                    36.0378836
                ]
            },
            "properties": {
                "name": "Nadur Youngsters FC - Snack Bar & Pizzeria"
            }
        },
        {
            "type": "Feature",
            "geometry": {
                "type": "Point",
                "coordinates": [
                    14.450867,
                    35.8987015
                ]
            },
            "properties": {
                "name": "Kazin tal-Banda San Gabriel"
            }
        },
        {
            "type": "Feature",
            "geometry": {
                "type": "Point",
                "coordinates": [
                    14.4521223,
                    35.8981866
                ]
            },
            "properties": {
                "name": "Balzan Youths Football Club"
            }
        },
        {
            "type": "Feature",
            "geometry": {
                "type": "Point",
                "coordinates": [
                    14.4522282,
                    35.8982745
                ]
            },
            "properties": {
                "name": "Socjeta Filarmonika Marija Annunzjata Balzan A.D. 1890"
            }
        },
        {
            "type": "Feature",
            "geometry": {
                "type": "Point",
                "coordinates": [
                    14.4911335,
                    35.9238654
                ]
            },
            "properties": {
                "name": "Gozitan"
            }
        },
        {
            "type": "Feature",
            "geometry": {
                "type": "Point",
                "coordinates": [
                    14.4964526,
                    35.9146262
                ]
            },
            "properties": {
                "name": "Dolci Peccati"
            }
        },
        {
            "type": "Feature",
            "geometry": {
                "type": "Point",
                "coordinates": [
                    14.4240251,
                    35.9526941
                ]
            },
            "properties": {
                "name": "Quattro Fratelli Ristorante"
            }
        },
        {
            "type": "Feature",
            "geometry": {
                "type": "Point",
                "coordinates": [
                    14.4210643,
                    35.9552798
                ]
            },
            "properties": {
                "name": "Simply British"
            }
        },
        {
            "type": "Feature",
            "geometry": {
                "type": "Point",
                "coordinates": [
                    14.4416063,
                    35.8718656
                ]
            }
        },
        {
            "type": "Feature",
            "geometry": {
                "type": "Point",
                "coordinates": [
                    14.3669435,
                    35.9195218
                ]
            },
            "properties": {
                "name": "Il-Barri"
            }
        },
        {
            "type": "Feature",
            "geometry": {
                "type": "Point",
                "coordinates": [
                    14.3829938,
                    35.9473252
                ]
            },
            "properties": {
                "name": "Munchy Monkey"
            }
        },
        {
            "type": "Feature",
            "geometry": {
                "type": "Point",
                "coordinates": [
                    14.5222442,
                    35.8880387
                ]
            },
            "properties": {
                "name": "Bebirgu / San Lawrenz Band Club Palazzo"
            }
        },
        {
            "type": "Feature",
            "geometry": {
                "type": "Point",
                "coordinates": [
                    14.4932096,
                    35.9151776
                ]
            },
            "properties": {
                "name": "WIGI'S KITCHEN"
            }
        },
        {
            "type": "Feature",
            "geometry": {
                "type": "Point",
                "coordinates": [
                    14.5300751,
                    35.8259473
                ]
            }
        },
        {
            "type": "Feature",
            "geometry": {
                "type": "Point",
                "coordinates": [
                    14.4844708,
                    35.9002036
                ]
            },
            "properties": {
                "name": "Pizza by Luca Experess Pizzeria"
            }
        },
        {
            "type": "Feature",
            "geometry": {
                "type": "Point",
                "coordinates": [
                    14.5285476,
                    35.8238684
                ]
            },
            "properties": {
                "name": "Country style"
            }
        },
        {
            "type": "Feature",
            "geometry": {
                "type": "Point",
                "coordinates": [
                    14.528742,
                    35.8238619
                ]
            },
            "properties": {
                "name": "Edesia"
            }
        },
        {
            "type": "Feature",
            "geometry": {
                "type": "Point",
                "coordinates": [
                    14.5288689,
                    35.8238812
                ]
            },
            "properties": {
                "name": "Illusions"
            }
        },
        {
            "type": "Feature",
            "geometry": {
                "type": "Point",
                "coordinates": [
                    14.453261,
                    35.8192913
                ]
            },
            "properties": {
                "name": "Congreve channel"
            }
        },
        {
            "type": "Feature",
            "geometry": {
                "type": "Point",
                "coordinates": [
                    14.4952888,
                    35.8487328
                ]
            },
            "properties": {
                "name": "Corinthia"
            }
        },
        {
            "type": "Feature",
            "geometry": {
                "type": "Point",
                "coordinates": [
                    14.4959516,
                    35.8485913
                ]
            },
            "properties": {
                "name": "Jet Express"
            }
        },
        {
            "type": "Feature",
            "geometry": {
                "type": "Point",
                "coordinates": [
                    14.4972178,
                    35.9145538
                ]
            },
            "properties": {
                "name": "Vecchia Napoli"
            }
        },
        {
            "type": "Feature",
            "geometry": {
                "type": "Point",
                "coordinates": [
                    14.5111119,
                    35.8987028
                ]
            },
            "properties": {
                "name": "Guze Bistro"
            }
        },
        {
            "type": "Feature",
            "geometry": {
                "type": "Point",
                "coordinates": [
                    14.5165669,
                    35.8978081
                ]
            },
            "properties": {
                "name": "Il-Horza"
            }
        },
        {
            "type": "Feature",
            "geometry": {
                "type": "Point",
                "coordinates": [
                    14.3977778,
                    35.8845318
                ]
            },
            "properties": {
                "name": "Da Luigi"
            }
        },
        {
            "type": "Feature",
            "geometry": {
                "type": "Point",
                "coordinates": [
                    14.5443278,
                    35.8376634
                ]
            },
            "properties": {
                "name": "Aquapazza"
            }
        },
        {
            "type": "Feature",
            "geometry": {
                "type": "Point",
                "coordinates": [
                    14.543679,
                    35.8385012
                ]
            },
            "properties": {
                "name": "Cafe de Paris"
            }
        },
        {
            "type": "Feature",
            "geometry": {
                "type": "Point",
                "coordinates": [
                    14.5481298,
                    35.8400515
                ]
            },
            "properties": {
                "name": "Gardino Mediterraneo"
            }
        },
        {
            "type": "Feature",
            "geometry": {
                "type": "Point",
                "coordinates": [
                    14.5437713,
                    35.8382239
                ]
            },
            "properties": {
                "name": "Gente di Mare"
            }
        },
        {
            "type": "Feature",
            "geometry": {
                "type": "Point",
                "coordinates": [
                    14.5445632,
                    35.8404226
                ]
            },
            "properties": {
                "name": "Il Bukkett"
            }
        },
        {
            "type": "Feature",
            "geometry": {
                "type": "Point",
                "coordinates": [
                    14.5445905,
                    35.840498
                ]
            },
            "properties": {
                "name": "Matthew's Bar & Restaurant"
            }
        },
        {
            "type": "Feature",
            "geometry": {
                "type": "Point",
                "coordinates": [
                    14.5437372,
                    35.8383539
                ]
            },
            "properties": {
                "name": "Mr. Fitz"
            }
        },
        {
            "type": "Feature",
            "geometry": {
                "type": "Point",
                "coordinates": [
                    14.5447906,
                    35.8407616
                ]
            },
            "properties": {
                "name": "Principino"
            }
        },
        {
            "type": "Feature",
            "geometry": {
                "type": "Point",
                "coordinates": [
                    14.544731,
                    35.8412312
                ]
            },
            "properties": {
                "name": "Ristorante dell' Arte"
            }
        },
        {
            "type": "Feature",
            "geometry": {
                "type": "Point",
                "coordinates": [
                    14.5448375,
                    35.8408479
                ]
            },
            "properties": {
                "name": "Rona"
            }
        },
        {
            "type": "Feature",
            "geometry": {
                "type": "Point",
                "coordinates": [
                    14.5477976,
                    35.840757
                ]
            },
            "properties": {
                "name": "Southeast Cafe"
            }
        },
        {
            "type": "Feature",
            "geometry": {
                "type": "Point",
                "coordinates": [
                    14.5455431,
                    35.8414395
                ]
            },
            "properties": {
                "name": "T'Anna Mari"
            }
        },
        {
            "type": "Feature",
            "geometry": {
                "type": "Point",
                "coordinates": [
                    14.5447239,
                    35.8406833
                ]
            },
            "properties": {
                "name": "Ta' Mattew"
            }
        },
        {
            "type": "Feature",
            "geometry": {
                "type": "Point",
                "coordinates": [
                    14.5453983,
                    35.8414464
                ]
            },
            "properties": {
                "name": "Tartarun"
            }
        },
        {
            "type": "Feature",
            "geometry": {
                "type": "Point",
                "coordinates": [
                    14.5468449,
                    35.8412208
                ]
            },
            "properties": {
                "name": "Terrone"
            }
        },
        {
            "type": "Feature",
            "geometry": {
                "type": "Point",
                "coordinates": [
                    14.5475349,
                    35.8408214
                ]
            },
            "properties": {
                "name": "iPlace"
            }
        },
        {
            "type": "Feature",
            "geometry": {
                "type": "Point",
                "coordinates": [
                    14.547728,
                    35.8404244
                ]
            },
            "properties": {
                "name": "l-Qrolla"
            }
        },
        {
            "type": "Feature",
            "geometry": {
                "type": "Point",
                "coordinates": [
                    14.5144215,
                    35.8992978
                ]
            },
            "properties": {
                "name": "da Pablo"
            }
        },
        {
            "type": "Feature",
            "geometry": {
                "type": "Point",
                "coordinates": [
                    14.5139611,
                    35.9004315
                ]
            },
            "properties": {
                "name": "Black Pig"
            }
        },
        {
            "type": "Feature",
            "geometry": {
                "type": "Point",
                "coordinates": [
                    14.5125232,
                    35.8995477
                ]
            },
            "properties": {
                "name": "67 Kapitali"
            }
        },
        {
            "type": "Feature",
            "geometry": {
                "type": "Point",
                "coordinates": [
                    14.513844,
                    35.9003575
                ]
            },
            "properties": {
                "name": "Omerta"
            }
        },
        {
            "type": "Feature",
            "geometry": {
                "type": "Point",
                "coordinates": [
                    14.5127689,
                    35.899082
                ]
            },
            "properties": {
                "name": "Papannis"
            }
        },
        {
            "type": "Feature",
            "geometry": {
                "type": "Point",
                "coordinates": [
                    14.5128585,
                    35.8990698
                ]
            },
            "properties": {
                "name": "Str.eat"
            }
        },
        {
            "type": "Feature",
            "geometry": {
                "type": "Point",
                "coordinates": [
                    14.4029479,
                    35.8871294
                ]
            },
            "properties": {
                "name": "Il Gattorpado"
            }
        },
        {
            "type": "Feature",
            "geometry": {
                "type": "Point",
                "coordinates": [
                    14.4043005,
                    35.8853762
                ]
            },
            "properties": {
                "name": "de Mondion"
            }
        },
        {
            "type": "Feature",
            "geometry": {
                "type": "Point",
                "coordinates": [
                    14.400011,
                    35.8835343
                ]
            },
            "properties": {
                "name": "Castelletti"
            }
        },
        {
            "type": "Feature",
            "geometry": {
                "type": "Point",
                "coordinates": [
                    14.3998684,
                    35.8835189
                ]
            },
            "properties": {
                "name": "REDWHITE Trattoria"
            }
        },
        {
            "type": "Feature",
            "geometry": {
                "type": "Point",
                "coordinates": [
                    14.3998304,
                    35.8834756
                ]
            },
            "properties": {
                "name": "San Andrea"
            }
        },
        {
            "type": "Feature",
            "geometry": {
                "type": "Point",
                "coordinates": [
                    14.365108,
                    35.9565945
                ]
            },
            "properties": {
                "name": "Il-Mit\u0127na"
            }
        },
        {
            "type": "Feature",
            "geometry": {
                "type": "Point",
                "coordinates": [
                    14.3623407,
                    35.9572033
                ]
            },
            "properties": {
                "name": "tosca"
            }
        },
        {
            "type": "Feature",
            "geometry": {
                "type": "Point",
                "coordinates": [
                    14.3624545,
                    35.9569437
                ]
            },
            "properties": {
                "name": "717"
            }
        },
        {
            "type": "Feature",
            "geometry": {
                "type": "Point",
                "coordinates": [
                    14.5116467,
                    35.9069677
                ]
            },
            "properties": {
                "name": "Fratelli La Bufala"
            }
        },
        {
            "type": "Feature",
            "geometry": {
                "type": "Point",
                "coordinates": [
                    14.511825,
                    35.9071416
                ]
            },
            "properties": {
                "name": "Due Mari Restaurnat /Cafe"
            }
        },
        {
            "type": "Feature",
            "geometry": {
                "type": "Point",
                "coordinates": [
                    14.5056561,
                    35.9090651
                ]
            },
            "properties": {
                "name": "Balkanic"
            }
        },
        {
            "type": "Feature",
            "geometry": {
                "type": "Point",
                "coordinates": [
                    14.5064757,
                    35.9100145
                ]
            },
            "properties": {
                "name": "Moo`s Deli"
            }
        },
        {
            "type": "Feature",
            "geometry": {
                "type": "Point",
                "coordinates": [
                    14.5071099,
                    35.9099126
                ]
            },
            "properties": {
                "name": "L-Artist"
            }
        },
        {
            "type": "Feature",
            "geometry": {
                "type": "Point",
                "coordinates": [
                    14.5069943,
                    35.911429
                ]
            },
            "properties": {
                "name": "Mamounia"
            }
        },
        {
            "type": "Feature",
            "geometry": {
                "type": "Point",
                "coordinates": [
                    14.4989264,
                    35.9077457
                ]
            },
            "properties": {
                "name": "Millenium Kebab"
            }
        },
        {
            "type": "Feature",
            "geometry": {
                "type": "Point",
                "coordinates": [
                    14.4935796,
                    35.9143407
                ]
            },
            "properties": {
                "name": "The Villa"
            }
        },
        {
            "type": "Feature",
            "geometry": {
                "type": "Point",
                "coordinates": [
                    14.4874416,
                    35.9248841
                ]
            },
            "properties": {
                "name": "Fornelli"
            }
        },
        {
            "type": "Feature",
            "geometry": {
                "type": "Point",
                "coordinates": [
                    14.4882932,
                    35.9242817
                ]
            },
            "properties": {
                "name": "Sciacca Arte Nel Cibo"
            }
        },
        {
            "type": "Feature",
            "geometry": {
                "type": "Point",
                "coordinates": [
                    14.4898742,
                    35.9241619
                ]
            },
            "properties": {
                "name": "Black Bull And Restaurant"
            }
        },
        {
            "type": "Feature",
            "geometry": {
                "type": "Point",
                "coordinates": [
                    14.5114433,
                    35.8981934
                ]
            },
            "properties": {
                "name": "Stretto"
            }
        },
        {
            "type": "Feature",
            "geometry": {
                "type": "Point",
                "coordinates": [
                    14.5094634,
                    35.8978114
                ]
            },
            "properties": {
                "name": "Si Mangia"
            }
        },
        {
            "type": "Feature",
            "geometry": {
                "type": "Point",
                "coordinates": [
                    14.5101954,
                    35.9000704
                ]
            },
            "properties": {
                "name": "Cockney`s"
            }
        },
        {
            "type": "Feature",
            "geometry": {
                "type": "Point",
                "coordinates": [
                    14.511801,
                    35.8992045
                ]
            },
            "properties": {
                "name": "Legligin"
            }
        },
        {
            "type": "Feature",
            "geometry": {
                "type": "Point",
                "coordinates": [
                    14.5117082,
                    35.8976249
                ]
            },
            "properties": {
                "name": "Ranieri"
            }
        },
        {
            "type": "Feature",
            "geometry": {
                "type": "Point",
                "coordinates": [
                    14.4453472,
                    35.8737554
                ]
            },
            "properties": {
                "name": "Ta' Conti"
            }
        },
        {
            "type": "Feature",
            "geometry": {
                "type": "Point",
                "coordinates": [
                    14.5009079,
                    35.9082093
                ]
            },
            "properties": {
                "name": "Krishna"
            }
        },
        {
            "type": "Feature",
            "geometry": {
                "type": "Point",
                "coordinates": [
                    14.4634964,
                    35.8964262
                ]
            },
            "properties": {
                "name": "Sapori"
            }
        },
        {
            "type": "Feature",
            "geometry": {
                "type": "Point",
                "coordinates": [
                    14.507028,
                    35.9143523
                ]
            },
            "properties": {
                "name": "Fortizza"
            }
        },
        {
            "type": "Feature",
            "geometry": {
                "type": "Point",
                "coordinates": [
                    14.5069663,
                    35.9134617
                ]
            }
        },
        {
            "type": "Feature",
            "geometry": {
                "type": "Point",
                "coordinates": [
                    14.5069797,
                    35.9118215
                ]
            }
        },
        {
            "type": "Feature",
            "geometry": {
                "type": "Point",
                "coordinates": [
                    14.4992201,
                    35.9178996
                ]
            },
            "properties": {
                "name": "il-Torri"
            }
        },
        {
            "type": "Feature",
            "geometry": {
                "type": "Point",
                "coordinates": [
                    14.5133388,
                    35.8985368
                ]
            }
        },
        {
            "type": "Feature",
            "geometry": {
                "type": "Point",
                "coordinates": [
                    14.5289208,
                    35.823371
                ]
            },
            "properties": {
                "name": "Pearl Palace"
            }
        },
        {
            "type": "Feature",
            "geometry": {
                "type": "Point",
                "coordinates": [
                    14.3843436,
                    35.862076
                ]
            },
            "properties": {
                "name": "Dar il-Bniet"
            }
        },
        {
            "type": "Feature",
            "geometry": {
                "type": "Point",
                "coordinates": [
                    14.4900057,
                    35.9231997
                ]
            },
            "properties": {
                "name": "Estilo"
            }
        },
        {
            "type": "Feature",
            "geometry": {
                "type": "Point",
                "coordinates": [
                    14.443341,
                    35.9137066
                ]
            },
            "properties": {
                "name": "Pizza Planet"
            }
        },
        {
            "type": "Feature",
            "geometry": {
                "type": "Point",
                "coordinates": [
                    14.4386578,
                    35.9133703
                ]
            },
            "properties": {
                "name": "Istanbul Turkish Restaurant"
            }
        },
        {
            "type": "Feature",
            "geometry": {
                "type": "Point",
                "coordinates": [
                    14.4904292,
                    35.9199163
                ]
            }
        },
        {
            "type": "Feature",
            "geometry": {
                "type": "Point",
                "coordinates": [
                    14.4908959,
                    35.9198707
                ]
            }
        },
        {
            "type": "Feature",
            "geometry": {
                "type": "Point",
                "coordinates": [
                    14.4906679,
                    35.9198598
                ]
            }
        },
        {
            "type": "Feature",
            "geometry": {
                "type": "Point",
                "coordinates": [
                    14.2950638,
                    36.0375239
                ]
            },
            "properties": {
                "name": "Antony's"
            }
        },
        {
            "type": "Feature",
            "geometry": {
                "type": "Point",
                "coordinates": [
                    14.2175719,
                    36.029861
                ]
            },
            "properties": {
                "name": "Zafiro"
            }
        },
        {
            "type": "Feature",
            "geometry": {
                "type": "Point",
                "coordinates": [
                    14.4036312,
                    35.8831193
                ]
            },
            "properties": {
                "name": "Tat-Tara\u0121"
            }
        },
        {
            "type": "Feature",
            "geometry": {
                "type": "Point",
                "coordinates": [
                    14.2175815,
                    36.0307728
                ]
            },
            "properties": {
                "name": "Sapana"
            }
        },
        {
            "type": "Feature",
            "geometry": {
                "type": "Point",
                "coordinates": [
                    14.4894522,
                    35.9187284
                ]
            },